,safegraph_place_id,longitude,latitude,cbg,visits,hotspot_origin,hotspot_destination,cbg_longitude,cbg_latitude,top_category
0,sg:1cb91f9861424337aa5fb971953c70a3,-121.89571799999999,37.321363,60855008001,5,True,True,-121.8930456,37.3328427,Elementary and Secondary Schools
1,sg:4f09e704b1944ec888fedab6ad754d07,-121.895494,37.33918,60855008001,7,True,True,-121.8930456,37.3328427,Other Amusement and Recreation Industries
2,sg:9db97c3747de4467a6b2897857302cf1,-121.892211,37.333158000000005,60855008001,4,True,False,-121.8930456,37.3328427,Restaurants and Other Eating Places
3,sg:825257a4a48246828387c59df44e8ad3,-121.976436,37.301359999999995,60855008001,4,True,False,-121.8930456,37.3328427,"Other Professional, Scientific, and Technical Services"
4,sg:72ef0e14afd94d5588e342deb8677478,-121.894944,37.336362,60855008001,4,True,False,-121.8930456,37.3328427,Restaurants and Other Eating Places
5,sg:d49e058f881f4841877c835eb7364dad,-121.93968600000001,37.266958,60855008001,4,True,False,-121.8930456,37.3328427,"Sporting Goods, Hobby, and Musical Instrument Stores"
6,sg:5585151cbd8149a691b8e8ef414c5c99,-121.895775,37.335331,60855008001,4,True,False,-121.8930456,37.3328427,Other Miscellaneous Store Retailers
7,sg:45ba95a392a847b892507407c91edbd4,-121.914639,37.333354,60855008001,6,True,True,-121.8930456,37.3328427,Other Amusement and Recreation Industries
8,sg:bf83483bd3134a58a2d336fa65ec58a0,-121.872836,37.346018,60855008001,4,True,False,-121.8930456,37.3328427,"Museums, Historical Sites, and Similar Institutions"
9,sg:9204e552286f4bf2a5d41a7ec8190b0d,-121.894167,37.336617,60855008001,4,True,False,-121.8930456,37.3328427,Restaurants and Other Eating Places
10,sg:e0bf345ff7d1400eb86b7767e465efc9,-121.889697,37.330801,60855008001,4,True,False,-121.8930456,37.3328427,"Sporting Goods, Hobby, and Musical Instrument Stores"
11,sg:d71888efc96d4230b2c9d4c0f0ab6605,-121.891054,37.32999,60855008001,4,True,False,-121.8930456,37.3328427,Other Miscellaneous Store Retailers
12,sg:3fc8b11188af40038ee6cc11a5424d0f,-121.89511599999999,37.334424,60855008001,4,True,False,-121.8930456,37.3328427,Traveler Accommodation
13,sg:5a6112ed63a349bbaaf923ebe8aa823a,-121.89190900000001,37.333306,60855008001,16,True,True,-121.8930456,37.3328427,Other Amusement and Recreation Industries
14,sg:a78db70329b74a209e309ccd9cb21486,-121.97711899999999,37.308623,60855008001,5,True,True,-121.8930456,37.3328427,Restaurants and Other Eating Places
15,sg:04a869060ffa41ff8911dc1a3d044815,-121.893212,37.333923999999996,60855008001,4,True,False,-121.8930456,37.3328427,Restaurants and Other Eating Places
16,sg:2324ac604d3c4f78b3b8c2500811bb20,-121.89185900000001,37.397815,60855120361,4,True,False,-121.81059509999999,37.240162899999994,Electronics and Appliance Stores
17,sg:e936fb5bda384f229634e1dbbda708a5,-121.842025,37.401651,60855120361,4,True,False,-121.81059509999999,37.240162899999994,Child Day Care Services
18,sg:b3f653f39ae5416483067faabdc42915,-121.909291,37.370063,60855120361,4,True,False,-121.81059509999999,37.240162899999994,Furniture Stores
19,sg:a299450744bb4bafbbe05faa488e10e8,-121.80864199999999,37.262496,60855120361,4,True,False,-121.81059509999999,37.240162899999994,Child Day Care Services
20,sg:1997e789e128456196d5f647691ba2f5,-121.89718799999999,37.350190999999995,60855120361,6,True,True,-121.81059509999999,37.240162899999994,Gasoline Stations
21,sg:008e8b2bedef46249942fa3ffd7a903b,-121.783153,37.22387,60855120361,4,True,False,-121.81059509999999,37.240162899999994,Child Day Care Services
22,sg:13f59b7934014b9ab991b6eed719e010,-121.803182,37.248197,60855120361,4,True,False,-121.81059509999999,37.240162899999994,Restaurants and Other Eating Places
23,sg:5619ae81c27346a9895b3c0b932d2eda,-121.842913,37.250249,60855120361,4,True,False,-121.81059509999999,37.240162899999994,Restaurants and Other Eating Places
24,sg:dc71cc966f0c44189dabe31b01551302,-121.77433799999999,37.227348,60855120361,5,True,True,-121.81059509999999,37.240162899999994,Grocery Stores
25,sg:c951ee49ffe348bfbaba1a755721e0a2,-121.79944499999999,37.228995,60855120361,4,True,False,-121.81059509999999,37.240162899999994,Other Personal Services
26,sg:69060c7303754b4ba11817f016f5cb30,-121.830978,37.238147999999995,60855120361,5,True,True,-121.81059509999999,37.240162899999994,Restaurants and Other Eating Places
27,sg:856011718f8c4082bb86df925d926119,-121.80414499999999,37.236238,60855120361,4,True,False,-121.81059509999999,37.240162899999994,Restaurants and Other Eating Places
28,sg:1a7d3622297a468c82a7db8f316d9433,-121.80468799999998,37.241253,60855120361,16,True,True,-121.81059509999999,37.240162899999994,Building Material and Supplies Dealers
29,sg:513ba9c3c9c248d09ad2e1599b7b5a53,-121.831855,37.236314,60855120361,4,True,False,-121.81059509999999,37.240162899999994,Restaurants and Other Eating Places
30,sg:b3339eb1daad45ff94781df3eef80bbe,-121.97093999999998,37.320676,60855120361,4,True,False,-121.81059509999999,37.240162899999994,Grocery Stores
31,sg:a11cc23d326b4291afe6afb824eb18c4,-121.947529,37.317626000000004,60855120361,6,True,True,-121.81059509999999,37.240162899999994,Technical and Trade Schools
32,sg:c4c7e730d61d4ee296bebfc164f75aef,-121.82686899999999,37.319157000000004,60855120361,4,True,False,-121.81059509999999,37.240162899999994,Restaurants and Other Eating Places
33,sg:fdc1c6e1e0234dc5b428d797d352cc60,-121.802862,37.251853999999994,60855120361,16,True,True,-121.81059509999999,37.240162899999994,Restaurants and Other Eating Places
34,sg:1ba0a5537b424be295dd142d845a7439,-121.8325,37.2497,60855120361,8,True,True,-121.81059509999999,37.240162899999994,Other Miscellaneous Store Retailers
35,sg:8b49244512514485a959bac2d33b3d48,-121.809794,37.240171000000004,60855120361,4,True,False,-121.81059509999999,37.240162899999994,"Sporting Goods, Hobby, and Musical Instrument Stores"
36,sg:38d3a7da10c24835b29e137aaf636af7,-121.77983300000001,37.229079,60855120361,4,True,False,-121.81059509999999,37.240162899999994,Other Financial Investment Activities
37,sg:8b4c82baf13c494a83a4dda3eafcb2fb,-121.90871200000001,37.380949,60855120361,4,True,False,-121.81059509999999,37.240162899999994,Furniture Stores
38,sg:8f968ed1ad2f45a0bb34c6a290d6a1c9,-121.81362299999999,37.237169,60855120361,4,True,False,-121.81059509999999,37.240162899999994,Support Activities for Road Transportation
39,sg:41817e485ad84172be8b69974e839c17,-121.80325500000001,37.237584999999996,60855120361,4,True,False,-121.81059509999999,37.240162899999994,Gasoline Stations
40,sg:12376bb3deff40af9ac2311b824deba0,-121.809528,37.241239,60855120361,4,True,False,-121.81059509999999,37.240162899999994,Travel Arrangement and Reservation Services
41,sg:903916bb123a4ca9a4d2e34a4f9a62fd,-121.802109,37.248134,60855120361,7,True,True,-121.81059509999999,37.240162899999994,Restaurants and Other Eating Places
42,sg:434c40c7296a47f5a2e9ad2edb1ed996,-121.894892,37.254143,60855120361,4,True,False,-121.81059509999999,37.240162899999994,"Accounting, Tax Preparation, Bookkeeping, and Payroll Services"
43,sg:004bd1e708b444d799fb7d51216aa672,-121.80773,37.259863,60855120361,4,True,False,-121.81059509999999,37.240162899999994,Restaurants and Other Eating Places
44,sg:f6a281f6fca944f1bde08837458be645,-121.810395,37.238701,60855120361,4,True,False,-121.81059509999999,37.240162899999994,Building Material and Supplies Dealers
45,sg:e7ca7ff969ba46aeab2ee7c45d5568ee,-121.80365900000001,37.249815999999996,60855120361,5,True,True,-121.81059509999999,37.240162899999994,Restaurants and Other Eating Places
46,sg:9aebca52ec7448d5954e8bee5b154c1f,-121.80828100000001,37.24074,60855120361,27,True,True,-121.81059509999999,37.240162899999994,"Museums, Historical Sites, and Similar Institutions"
47,sg:cae9256f7ed0481ab7db32a5373ca296,-121.802489,37.248703000000006,60855120361,4,True,False,-121.81059509999999,37.240162899999994,Restaurants and Other Eating Places
48,sg:530b30da7f894a7eb110a1838192cc5f,-121.864572,37.249894,60855120361,6,True,True,-121.81059509999999,37.240162899999994,Restaurants and Other Eating Places
49,sg:22bac5f5e3644c31a72a4007b9a35518,-121.861883,37.219781,60855120361,4,True,False,-121.81059509999999,37.240162899999994,Restaurants and Other Eating Places
50,sg:23244fd17dd8433ca6659947fd36cbd1,-121.805823,37.241704,60855120361,17,True,True,-121.81059509999999,37.240162899999994,Gasoline Stations
51,sg:3d09ceb56ae3409e8e9641619a4e5cea,-121.898523,37.305509,60855023022,4,True,False,-121.9106777,37.3085289,"Sporting Goods, Hobby, and Musical Instrument Stores"
52,sg:950016b81de14d9485ffcddbc19500ec,-121.980033,37.322817,60855023022,4,True,False,-121.9106777,37.3085289,Restaurants and Other Eating Places
53,sg:900fdf3f353b4312ae8f2116bf9db39d,-121.91328,37.310552,60855023022,9,True,True,-121.9106777,37.3085289,Gasoline Stations
54,sg:28d50586129f4a6aa35aaa273dfdc793,-121.898716,37.305659000000006,60855023022,4,True,False,-121.9106777,37.3085289,Personal Care Services
55,sg:8f39c7ccb5684eaa954c9f1216a4e251,-121.898754,37.305486,60855023022,4,True,False,-121.9106777,37.3085289,Specialty Food Stores
56,sg:c8889648542740049e5de637762d7b64,-121.906626,37.269238,60855023022,4,True,False,-121.9106777,37.3085289,Restaurants and Other Eating Places
57,sg:c1115f5039fd416fbab2d1c64f5c744f,-121.94718600000002,37.250768,60855023022,4,True,False,-121.9106777,37.3085289,Offices of Physicians
58,sg:29d9af966da642c4a08121a4665d68f2,-121.91251000000001,37.379456,60855023022,4,True,False,-121.9106777,37.3085289,Home Furnishings Stores
59,sg:c185ed846fa546f6aaee3afa143f61a2,-121.90684099999999,37.246146,60855023022,4,True,False,-121.9106777,37.3085289,Elementary and Secondary Schools
60,sg:2a807940080848b7907ed4d84d578a1a,-121.91311699999999,37.307984999999995,60855023022,4,True,False,-121.9106777,37.3085289,Religious Organizations
61,sg:50372f9459814177ac450669bab261fe,-121.86371899999999,37.221241,60855023022,7,True,True,-121.9106777,37.3085289,Restaurants and Other Eating Places
62,sg:355293a701ad48edba43f74525973499,-121.890652,37.245146000000005,60855023022,4,True,False,-121.9106777,37.3085289,"Office Supplies, Stationery, and Gift Stores"
63,sg:339b2e238ea248319cc96b75d6f66548,-121.912066,37.293427,60855023022,4,True,False,-121.9106777,37.3085289,Restaurants and Other Eating Places
64,sg:41473baafee84896893189df7d537461,-121.868467,37.346992,60855033122,4,True,False,-121.7621841,37.3487295,Restaurants and Other Eating Places
65,sg:dfb60a7797f448c3851fad7710c6ed10,-121.85838600000001,37.351171,60855033122,4,True,False,-121.7621841,37.3487295,Restaurants and Other Eating Places
66,sg:ab85177503aa4830900cbca38856c0a0,-121.770866,37.331795,60855033122,8,True,True,-121.7621841,37.3487295,Other Amusement and Recreation Industries
67,sg:8667a383f09f4756aaa7e2a2f2d5bc56,-121.8379,37.317075,60855033122,5,True,True,-121.7621841,37.3487295,Personal Care Services
68,sg:351f45d4279540e3aa76198ac3d14d0b,-121.82025800000001,37.358043,60855033122,4,True,False,-121.7621841,37.3487295,Restaurants and Other Eating Places
69,sg:ea35e5e488674a0a8b0abd69a0b575d8,-121.78987099999999,37.314665000000005,60855033122,4,True,False,-121.7621841,37.3487295,Other Miscellaneous Store Retailers
70,sg:f8db21ce86ce4e0a9c11e35dfc6e40f0,-121.77196599999999,37.30065,60855033122,5,True,True,-121.7621841,37.3487295,Restaurants and Other Eating Places
71,sg:0305147c24f84f50ad98823d081624c3,-121.758854,37.310779,60855033122,4,True,False,-121.7621841,37.3487295,Other Amusement and Recreation Industries
72,sg:8c953ec9b42245e49e325eea1164f5d9,-121.861896,37.31106,60855033122,4,True,False,-121.7621841,37.3487295,Rail Transportation
73,sg:644263bd93a249efbfe34ddf60a1887d,-121.84331499999999,37.323019,60855031112,4,True,False,-121.84089640000002,37.3239431,Child Day Care Services
74,sg:29b8de5ede9b4949bb9e422a5ae335c9,-121.937839,37.324303,60855031112,4,True,False,-121.84089640000002,37.3239431,Offices of Dentists
75,sg:9dfc55240f0f471daa40219095b48819,-121.81846399999999,37.327289,60855031112,6,True,True,-121.84089640000002,37.3239431,Clothing Stores
76,sg:1060465f01da4cbcbcd2d8d970a46414,-121.850825,37.314816,60855031112,4,True,False,-121.84089640000002,37.3239431,Offices of Physicians
77,sg:ebbe4adef538420885cb2af83963f70e,-121.84021499999999,37.323578000000005,60855031112,4,True,False,-121.84089640000002,37.3239431,"Museums, Historical Sites, and Similar Institutions"
78,sg:c73225f1c68c4d0ba5aa2720b53b2a2c,-121.851304,37.364959000000006,60855031112,5,True,True,-121.84089640000002,37.3239431,Restaurants and Other Eating Places
79,sg:5d9b275ef7ad4007a053025774801c06,-121.839904,37.321222999999996,60855031112,4,True,False,-121.84089640000002,37.3239431,Elementary and Secondary Schools
80,sg:19974d28e8b9434da94ae9db9e3de2a4,-121.83930600000001,37.361206,60855031112,4,True,False,-121.84089640000002,37.3239431,Depository Credit Intermediation
81,sg:70620f18c29a45079f04317a586a5240,-121.846173,37.309269,60855024003,4,True,False,-121.89174209999999,37.3003717,Health and Personal Care Stores
82,sg:51f8218b3dc44fcaaaa7601a29138139,-121.887543,37.301827,60855024003,8,True,True,-121.89174209999999,37.3003717,"Museums, Historical Sites, and Similar Institutions"
83,sg:82e5f8886c3d41dfb2797e7600fc783f,-121.88051399999999,37.290547,60855024003,4,True,False,-121.89174209999999,37.3003717,Restaurants and Other Eating Places
84,sg:49e234c99a5f43f390800bf67425eb50,-121.90056799999999,37.308974,60855024003,4,True,False,-121.89174209999999,37.3003717,Restaurants and Other Eating Places
85,sg:2a69665600b94a4eb866cdad92b39ae1,-121.894658,37.311365,60855024003,5,True,True,-121.89174209999999,37.3003717,Other Amusement and Recreation Industries
86,sg:fdd354d373254c108c63f18ed6337056,-121.872401,37.304559999999995,60855024003,4,True,False,-121.89174209999999,37.3003717,"Sporting Goods, Hobby, and Musical Instrument Stores"
87,sg:91859ea761eb42ceacd12f01eddfd4b6,-121.90073100000001,37.307383,60855024003,4,True,False,-121.89174209999999,37.3003717,Restaurants and Other Eating Places
88,sg:0963f993cc064f8d8203717e97685434,-121.879921,37.290445,60855024003,4,True,False,-121.89174209999999,37.3003717,Restaurants and Other Eating Places
89,sg:06caf243bb594505b53a5dac99967b10,-121.862225,37.303321000000004,60855024003,4,True,False,-121.89174209999999,37.3003717,Restaurants and Other Eating Places
90,sg:75953e1749c94c33ae04f97943ecdc62,-121.944483,37.317824,60855087042,6,True,True,-122.0085616,37.3799419,"Museums, Historical Sites, and Similar Institutions"
91,sg:00f6278502a94f03ae27136774ddc57e,-122.000749,37.397302,60855087042,7,True,True,-122.0085616,37.3799419,"Museums, Historical Sites, and Similar Institutions"
92,sg:ac3b7413dffa498e8fe8dc161a9b9f75,-121.89601499999999,37.382158000000004,60855087042,4,True,False,-122.0085616,37.3799419,Other Amusement and Recreation Industries
93,sg:0725cfd01c654b5686c80e77b2a3e080,-121.90839,37.385551,60855087042,4,True,False,-122.0085616,37.3799419,Health and Personal Care Stores
94,sg:1d809780506c4500803103bbb6ce1f29,-122.014664,37.385644,60855087042,29,True,True,-122.0085616,37.3799419,"Museums, Historical Sites, and Similar Institutions"
95,sg:880768230df9427cac21ee37f55ca199,-121.903038,37.378721,60855046021,4,True,False,-121.99409640000002,37.4495304,Other Amusement and Recreation Industries
96,sg:48fec87d0b34445bb43372957b238f10,-121.838315,37.314442,60855046021,5,True,True,-121.99409640000002,37.4495304,Restaurants and Other Eating Places
97,sg:77aedd827a354f7dbafa62ed6284b780,-121.87926399999999,37.342858,60855046021,6,True,True,-121.99409640000002,37.4495304,Offices of Other Health Practitioners
98,sg:4451d9c271a0439c88c2b3e7865dbff5,-121.80909,37.323489,60855046021,4,True,False,-121.99409640000002,37.4495304,Lessors of Real Estate
99,sg:ab5dc3bdb7224f77accc70e61f942c69,-121.90781100000001,37.339940999999996,60855046021,6,True,True,-121.99409640000002,37.4495304,Other Miscellaneous Store Retailers
100,sg:d0885433ffd64707804159ae33de2f9d,-121.97786299999999,37.428062,60855046021,4,True,False,-121.99409640000002,37.4495304,Florists
101,sg:543705437bbf47949b05f814e0cd308a,-121.958161,37.421043,60855046021,4,True,False,-121.99409640000002,37.4495304,Child Day Care Services
102,sg:fd480d5f14bf48709da4a49baba2927c,-121.861053,37.358818,60855046021,4,True,False,-121.99409640000002,37.4495304,Grocery Stores
103,sg:7b5a8c63198d402794d5b34f272c54e1,-121.93708500000001,37.327659000000004,60855046021,4,True,False,-121.99409640000002,37.4495304,Offices of Physicians
104,sg:d5fa081481f643fcbba7e87bf8889495,-121.908795,37.340876,60855046021,4,True,False,-121.99409640000002,37.4495304,Restaurants and Other Eating Places
105,sg:21f4f4d585924093ac63d2b919ec3e9e,-121.955032,37.416951,60855046021,7,True,True,-121.99409640000002,37.4495304,Restaurants and Other Eating Places
106,sg:0cf6fdae76c0480995d8248530065755,-121.958197,37.420845,60855046021,4,True,False,-121.99409640000002,37.4495304,Elementary and Secondary Schools
107,sg:920c62a4ae9242da8cb958d4faeb5212,-121.86353899999999,37.304486,60855037122,5,True,True,-121.8454015,37.3632696,"Office Supplies, Stationery, and Gift Stores"
108,sg:03d73512f7cf47d3800da91ba23378c9,-121.844625,37.361795,60855037122,22,True,True,-121.8454015,37.3632696,"Museums, Historical Sites, and Similar Institutions"
109,sg:4682db0593694eb4b056f31ffa6537c3,-121.85086499999998,37.365633,60855037122,4,True,False,-121.8454015,37.3632696,"Beer, Wine, and Liquor Stores"
110,sg:a78603b55e074ca3907e130222b94635,-121.843331,37.359956,60855037122,4,True,False,-121.8454015,37.3632696,Religious Organizations
111,sg:b5b462bce6784a31bf2405484c67a366,-121.91541299999999,37.236585,60855037122,4,True,False,-121.8454015,37.3632696,Gasoline Stations
112,sg:48b592aed6724adb99d84b77c3e9d5f4,-121.843577,37.375851000000004,60855037122,4,True,False,-121.8454015,37.3632696,Elementary and Secondary Schools
113,sg:59e59ac6f9734154b500c7ba5e9e0755,-121.846871,37.36269,60855037122,4,True,False,-121.8454015,37.3632696,Outpatient Care Centers
114,sg:9f59d60367e14ff5a1272dc9c4bc57fc,-121.81115700000001,37.32713,60855037122,5,True,True,-121.8454015,37.3632696,Health and Personal Care Stores
115,sg:52351deecb9448c09823da31a1eb48df,-121.84799299999999,37.364672,60855037122,5,True,True,-121.8454015,37.3632696,Offices of Other Health Practitioners
116,sg:57d6e278a6f943bb832fe06f69d9a4d9,-121.850439,37.361294,60855037122,4,True,False,-121.8454015,37.3632696,Offices of Physicians
117,sg:253c94b49e794971bdfcd2cc35b0ae34,-121.847641,37.364827000000005,60855037122,4,True,False,-121.8454015,37.3632696,Offices of Physicians
118,sg:6448ca5dc90541acbbf0d3e572b06b47,-121.845248,37.357425,60855037122,4,True,False,-121.8454015,37.3632696,Restaurants and Other Eating Places
119,sg:82aab7d89b5d4043809f7e7612562221,-121.872351,37.302133000000005,60855037122,4,True,False,-121.8454015,37.3632696,Other Motor Vehicle Dealers
120,sg:f702c96070c64d4487e3a93498b8d9c0,-121.846471,37.361098999999996,60855037122,4,True,False,-121.8454015,37.3632696,Health and Personal Care Stores
121,sg:9dad17548ce94123b50bd35110df4bd1,-121.87513799999999,37.423685,60855037122,4,True,False,-121.8454015,37.3632696,"Museums, Historical Sites, and Similar Institutions"
122,sg:ae5298da6fbe4f92a54132c5bf30246d,-121.889154,37.396023,60855037122,4,True,False,-121.8454015,37.3632696,Other Amusement and Recreation Industries
123,sg:83f5386d92a54b8e91945783c4921a01,-121.843623,37.358103,60855037122,4,True,False,-121.8454015,37.3632696,Gasoline Stations
124,sg:badd423de5524b9290af1e64425f7451,-121.846853,37.360499,60855037122,4,True,False,-121.8454015,37.3632696,Offices of Dentists
125,sg:9e10c62194434aa0939ba4e68193edb0,-121.809795,37.343753,60855125031,4,True,False,-121.6273913,37.0331989,Child Day Care Services
126,sg:952356710d944238b454ccbaa8aa8501,-121.76883600000001,37.238125,60855125031,4,True,False,-121.6273913,37.0331989,"General Merchandise Stores, including Warehouse Clubs and Supercenters"
127,sg:cd4109ece5a141218b89636eddfce8cf,-121.797427,37.323941,60855125031,4,True,False,-121.6273913,37.0331989,Restaurants and Other Eating Places
128,sg:1f54bd3907ca4cd381c9f2ad29eb4b9a,-121.865477,37.302274,60855125031,4,True,False,-121.6273913,37.0331989,"Sporting Goods, Hobby, and Musical Instrument Stores"
129,sg:3b1b7d9a252247ef9257731546f00a85,-121.77674099999999,37.228875,60855125031,4,True,False,-121.6273913,37.0331989,Other Amusement and Recreation Industries
130,sg:5e02c7241d3b497cb1913c064b9b2010,-121.92653,37.407146000000004,60855125031,6,True,True,-121.6273913,37.0331989,Restaurants and Other Eating Places
131,sg:ba55433742204f3ca8fa6182e1a031f9,-121.86476699999999,37.303178,60530143012,4,False,False,-121.803904,36.716161299999996,Restaurants and Other Eating Places
132,sg:c0c4ced5e25a4e4ea584b938656de447,-121.81159199999999,37.307399,60855010004,7,True,True,-121.88795890000002,37.340374600000004,Gasoline Stations
133,sg:c390d3f0cecd45daa40e589d6615f4f7,-121.88371599999999,37.337128,60855010004,4,True,False,-121.88795890000002,37.340374600000004,Restaurants and Other Eating Places
134,sg:60f33591c52e474bb56ee0f7c79c8223,-121.87973000000001,37.334340000000005,60855010004,4,True,False,-121.88795890000002,37.340374600000004,Other Amusement and Recreation Industries
135,sg:df15365f87dd4cffb7c4a7172ee85ed2,-121.889048,37.339354,60855010004,7,True,True,-121.88795890000002,37.340374600000004,Traveler Accommodation
136,sg:1ef8dfd1897549b282284032d9f67d64,-121.871233,37.345189000000005,60855010004,4,True,False,-121.88795890000002,37.340374600000004,Grocery Stores
137,sg:dcca9d8c969440079bdb7eeca189359b,-121.811163,37.309203000000004,60855010004,4,True,False,-121.88795890000002,37.340374600000004,Grocery Stores
138,sg:52dd6c927b5444ed8a0521a96679de98,-121.88545400000001,37.335537,60855010004,5,True,True,-121.88795890000002,37.340374600000004,Restaurants and Other Eating Places
139,sg:3128dd5f4d0543f68db30f169f6d1c8e,-121.857032,37.305507,60855010004,4,True,False,-121.88795890000002,37.340374600000004,Automobile Dealers
140,sg:b6f9524296644f4cbb1f6756669e3897,-121.88996000000002,37.340697,60855010004,4,True,False,-121.88795890000002,37.340374600000004,Grocery Stores
141,sg:657f845be7054db79ec81bfc5d7c01d0,-121.863431,37.357085999999995,60855010004,4,True,False,-121.88795890000002,37.340374600000004,Restaurants and Other Eating Places
142,sg:15adbaee1e9842f48d016ee070f75c7b,-121.889784,37.340278000000005,60855010004,4,True,False,-121.88795890000002,37.340374600000004,Restaurants and Other Eating Places
143,sg:aa12ae5807374e1e98212238858c9321,-121.885667,37.338758,60855010004,4,True,False,-121.88795890000002,37.340374600000004,Restaurants and Other Eating Places
144,sg:b4674d034bbb4ba3b33f186ab231a188,-121.848748,37.365738,60855010004,4,True,False,-121.88795890000002,37.340374600000004,Offices of Dentists
145,sg:759b215df5cc4afd87ea860a1be33dd8,-121.87947199999999,37.336098,60855010004,4,True,False,-121.88795890000002,37.340374600000004,"Sporting Goods, Hobby, and Musical Instrument Stores"
146,sg:4c5b117b1f6d4440bb186792f1189d8e,-121.88668600000001,37.340272999999996,60855010004,4,True,False,-121.88795890000002,37.340374600000004,"Automotive Parts, Accessories, and Tire Stores"
147,sg:248616e2926d4ea89e407363e2323a0a,-121.888724,37.341884,60855010004,4,True,False,-121.88795890000002,37.340374600000004,Home Health Care Services
148,sg:e47ac68b64054dea9bcb0ff8652fba9a,-121.932217,37.273239000000004,60855027013,4,True,False,-121.94170559999999,37.2709396,Restaurants and Other Eating Places
149,sg:969cbfa8fc074647a0e92c851e331368,-121.933489,37.272878000000006,60855027013,6,True,True,-121.94170559999999,37.2709396,Restaurants and Other Eating Places
150,sg:ba57cdb33c404e209f49a8de596f3dfd,-121.881298,37.297549,60855027013,4,True,False,-121.94170559999999,37.2709396,Services to Buildings and Dwellings
151,sg:170e8dcde08e4bbd910ff889c928129e,-121.902883,37.396972999999996,60855027013,7,True,True,-121.94170559999999,37.2709396,Electronics and Appliance Stores
152,sg:983fe5e0252541848aa8ff0e0c62a164,-121.939705,37.266983,60855027013,4,True,False,-121.94170559999999,37.2709396,"Sporting Goods, Hobby, and Musical Instrument Stores"
153,sg:aa7a3b21a20249518ce369828252add8,-121.894827,37.336317,60855027013,5,True,True,-121.94170559999999,37.2709396,Restaurants and Other Eating Places
154,sg:d818fecd74964ddfb567856cbefbfebf,-121.874458,37.262871000000004,60855027013,7,True,True,-121.94170559999999,37.2709396,Specialized Freight Trucking
155,sg:98a432f87e654d12a2cfe72bef2c68b7,-121.882121,37.296443,60855027013,4,True,False,-121.94170559999999,37.2709396,Health and Personal Care Stores
156,sg:4cc013537b9c433bb33921ae3dec6de7,-121.935397,37.272290000000005,60855027013,6,True,True,-121.94170559999999,37.2709396,Grocery Stores
157,sg:e6ca8e8714dc49afb73c544593818f68,-121.823687,37.233165,60855027013,4,True,False,-121.94170559999999,37.2709396,Child Day Care Services
158,sg:9e7c737ad84147a0a157c01a38d50530,-121.99286599999999,37.293902,60855027013,5,True,True,-121.94170559999999,37.2709396,Offices of Dentists
159,sg:e9d791034d2c4120b9ef79180e957c09,-121.911599,37.331099,60855050013,4,False,False,-121.9579382,37.4010278,Traveler Accommodation
160,sg:fd3a4975b4664a38ad3fad02889f8b6c,-121.859417,37.253189,60855031232,4,True,False,-121.8766615,37.297058,Health and Personal Care Stores
161,sg:94dfdcfcdaab45b290ccd21350b2e269,-121.863901,37.302296000000005,60855031232,4,True,False,-121.8766615,37.297058,Restaurants and Other Eating Places
162,sg:7c6b49976cc34ace8de012a80a7f731d,-121.874691,37.293818,60855031232,8,True,True,-121.8766615,37.297058,"Automotive Parts, Accessories, and Tire Stores"
163,sg:e85c1ac84297479b876aab6511b7702a,-121.891157,37.306102,60855031232,4,True,False,-121.8766615,37.297058,Health and Personal Care Stores
164,sg:bb8125d89fa04c979782ee0bd50310ab,-121.899603,37.305197,60855031232,4,True,False,-121.8766615,37.297058,Lessors of Real Estate
165,sg:49d2a5bbbfc44242bf7ae2f150814732,-121.965433,37.322583,60855031232,4,True,False,-121.8766615,37.297058,Restaurants and Other Eating Places
166,sg:cc8349da271d4d69bea5b0634a350c4b,-121.865202,37.302844,60855031232,4,True,False,-121.8766615,37.297058,"Sporting Goods, Hobby, and Musical Instrument Stores"
167,sg:54377a1525374057824f64b52a3e0e6f,-121.877159,37.295922,60855031232,4,True,False,-121.8766615,37.297058,Religious Organizations
168,sg:8fbc477d4d9540fe81ac2cf404ec05f7,-121.914301,37.294259999999994,60855031232,4,True,False,-121.8766615,37.297058,Restaurants and Other Eating Places
169,sg:1db65773518348bc914a0de67ecacd02,-121.893873,37.39498,60855031232,4,True,False,-121.8766615,37.297058,"Automotive Parts, Accessories, and Tire Stores"
170,sg:87c1205e39e347e4972bb17821f1886b,-121.80765500000001,37.259499,60855031232,4,True,False,-121.8766615,37.297058,Restaurants and Other Eating Places
171,sg:05dfd7998d564d60b46478a1c4de62bb,-121.875957,37.299475,60855031232,8,True,True,-121.8766615,37.297058,Health and Personal Care Stores
172,sg:95622282786447c2bfb1d0557cb549ce,-121.87925200000001,37.291163,60855031232,4,True,False,-121.8766615,37.297058,Other Amusement and Recreation Industries
173,sg:535a8cc5c3c1466187bddda065064ca9,-121.87450600000001,37.293408,60855031232,4,True,False,-121.8766615,37.297058,Restaurants and Other Eating Places
174,sg:15a192347d164782aa250128a67b2c0c,-121.865277,37.302085,60855031232,4,True,False,-121.8766615,37.297058,Restaurants and Other Eating Places
175,sg:63902ea068e243ca8a74c02895d9695f,-121.86313700000001,37.311113,60855031232,4,True,False,-121.8766615,37.297058,Religious Organizations
176,sg:42424d7e95194929bbf07eebc5c0340a,-121.875778,37.29305,60855031232,13,True,True,-121.8766615,37.297058,Automotive Equipment Rental and Leasing
177,sg:3a3e2e0d889f4e3da5d95c2344ddd9b5,-121.89149599999999,37.306315999999995,60855031232,4,True,False,-121.8766615,37.297058,Restaurants and Other Eating Places
178,sg:106dbfc94a564bf18835449656378a18,-121.791501,37.312732000000004,60855033341,4,True,False,-121.7697031,37.2768297,"Beer, Wine, and Liquor Stores"
179,sg:2432e83c8a2f44a4be76b3011e9383e0,-121.780654,37.287890000000004,60855033341,9,True,True,-121.7697031,37.2768297,Other Amusement and Recreation Industries
180,sg:5e68bc115f55446cbb384d47074a25ee,-121.793641,37.315821,60855033341,5,True,True,-121.7697031,37.2768297,Restaurants and Other Eating Places
181,sg:57af007d2e624308a8063b7d53f0d2fa,-121.795698,37.313008,60855033341,4,True,False,-121.7697031,37.2768297,Child Day Care Services
182,sg:6f1be6d7909c4f38a090f00f093e7f9c,-121.81303,37.308834999999995,60855033341,4,True,False,-121.7697031,37.2768297,Restaurants and Other Eating Places
183,sg:ad754a34b8bb417cbe2b5f799105e313,-121.78126699999999,37.288084000000005,60855033341,6,True,True,-121.7697031,37.2768297,Restaurants and Other Eating Places
184,sg:26048a688fb94a37a908355a27f5061f,-121.825074,37.31973,60855033341,6,True,True,-121.7697031,37.2768297,Restaurants and Other Eating Places
185,sg:60ea6dfaa84347d2847d1b8f4a0189c8,-121.80521100000001,37.289312,60855033341,4,True,False,-121.7697031,37.2768297,Other Schools and Instruction
186,sg:3e10b2587cca4832b37c31990de98aa0,-121.810503,37.308143,60855033341,5,True,True,-121.7697031,37.2768297,Restaurants and Other Eating Places
187,sg:b337869c6b224c2c87f2c715088d9687,-121.861944,37.219874,60855033341,4,True,False,-121.7697031,37.2768297,Restaurants and Other Eating Places
188,sg:b8f5d742394b477c9de8a111ac62372d,-121.89054099999998,37.336452,60855033341,4,True,False,-121.7697031,37.2768297,Restaurants and Other Eating Places
189,sg:ccf78b04e1864b02ae232a703c331c9a,-121.79371299999998,37.315957,60855033341,4,True,False,-121.7697031,37.2768297,Restaurants and Other Eating Places
190,sg:d6f354ec072c4832a50cb92cbc13fd90,-121.831277,37.235848,60855033341,4,True,False,-121.7697031,37.2768297,Restaurants and Other Eating Places
191,sg:a20fbfc96b964a02a8cef9b97110594f,-121.77783400000001,37.281796,60855033341,4,True,False,-121.7697031,37.2768297,Consumer Goods Rental
192,sg:9399db48a50948f3b47a5beffe7cbf55,-121.821215,37.353991,60855033341,4,True,False,-121.7697031,37.2768297,Elementary and Secondary Schools
193,sg:e794be487b13458c9d52efed51bc57ed,-121.812024,37.310255,60855033341,4,True,False,-121.7697031,37.2768297,Health and Personal Care Stores
194,sg:19f1a4d83d534606bf31f7fbc70580a8,-121.82363000000001,37.174169,60855068033,4,True,False,-121.90967759999998,37.243635600000005,Restaurants and Other Eating Places
195,sg:36fb9b829809479099107ee705644ccf,-121.87309599999999,37.250371,60855068033,4,True,False,-121.90967759999998,37.243635600000005,Depository Credit Intermediation
196,sg:c1712bb12ee7495aaee6e9599826cdc5,-121.96046899999999,37.311006,60855068033,4,True,False,-121.90967759999998,37.243635600000005,Elementary and Secondary Schools
197,sg:d637262328734272b02d595033045d30,-121.937102,37.315670000000004,60855068033,4,True,False,-121.90967759999998,37.243635600000005,Offices of Other Health Practitioners
198,sg:ab06dc1a0c074f2aa19156e2dbeace48,-121.921155,37.261339,60855068033,4,True,False,-121.90967759999998,37.243635600000005,Building Material and Supplies Dealers
199,sg:0bd9cb1bc8144c089fabfa5026686020,-121.909023,37.251872,60855068033,4,True,False,-121.90967759999998,37.243635600000005,Restaurants and Other Eating Places
200,sg:7020adc476a9405e84f36226f2590c5a,-121.919766,37.264257,60855068033,4,True,False,-121.90967759999998,37.243635600000005,Home Furnishings Stores
201,sg:f4f03046e774450a8f54767423b72644,-121.905216,37.2414,60855068033,5,True,True,-121.90967759999998,37.243635600000005,Restaurants and Other Eating Places
202,sg:fc82ee35d9414126bf80f3945e6035f6,-121.89006299999998,37.244856,60855068033,12,True,True,-121.90967759999998,37.243635600000005,Lessors of Real Estate
203,sg:acfcc24d088442798fc780eb29ae526a,-121.898587,37.396466,60855068033,5,True,True,-121.90967759999998,37.243635600000005,Wired and Wireless Telecommunications Carriers
204,sg:4ecd517675584555af30e444ebcb03ee,-121.91079199999999,37.245384,60855068033,15,True,True,-121.90967759999998,37.243635600000005,"Museums, Historical Sites, and Similar Institutions"
205,sg:b3da0406595e4229998b6e91eea62f87,-121.91163700000001,37.341446000000005,60855068033,5,True,True,-121.90967759999998,37.243635600000005,Restaurants and Other Eating Places
206,sg:3d9b6e3fefc94e5b9aa046de47f14d5d,-121.889903,37.245246,60855068033,4,True,False,-121.90967759999998,37.243635600000005,Other Amusement and Recreation Industries
207,sg:855ebbae14af4fa69937a78c4a0a4636,-121.879088,37.24971,60855068033,4,True,False,-121.90967759999998,37.243635600000005,Restaurants and Other Eating Places
208,sg:20ae4e42914e47808359732f466d55d6,-121.90790700000001,37.266693,60855068033,4,True,False,-121.90967759999998,37.243635600000005,Offices of Dentists
209,sg:8a711eea701342dc8db8df9418c622d7,-121.801259,37.233445,60855068033,4,True,False,-121.90967759999998,37.243635600000005,"Sporting Goods, Hobby, and Musical Instrument Stores"
210,sg:565f36cee86144a3871b317fd28db7fb,-121.775108,37.232233,60855068033,4,True,False,-121.90967759999998,37.243635600000005,Restaurants and Other Eating Places
211,sg:32d3ebf7dd8d48fa9edb60ae997157fd,-121.90811299999999,37.252905,60855068033,8,True,True,-121.90967759999998,37.243635600000005,Grocery Stores
212,sg:e5a6bd3a25a24431962f1956ebb4b873,-121.873122,37.251242,60855068033,4,True,False,-121.90967759999998,37.243635600000005,Restaurants and Other Eating Places
213,sg:93b7d173348d46328c907663cba533b6,-121.89733700000001,37.397932,60855068033,4,True,False,-121.90967759999998,37.243635600000005,"Accounting, Tax Preparation, Bookkeeping, and Payroll Services"
214,sg:6749258c55d24bbdb9ec1a0815068b62,-121.905594,37.239922,60855068033,6,True,True,-121.90967759999998,37.243635600000005,Health and Personal Care Stores
215,sg:93676c7d8a5b44efba0984e920e720ce,-121.90363400000001,37.240628,60855068033,6,True,True,-121.90967759999998,37.243635600000005,Gasoline Stations
216,sg:8178328354b746d6a6bd15e1bb90f1ea,-121.90593999999999,37.242376,60855068033,7,True,True,-121.90967759999998,37.243635600000005,Restaurants and Other Eating Places
217,sg:9ce75ec0cb9a493a9299f4dad202f71d,-121.92704499999999,37.261493,60855068033,4,True,False,-121.90967759999998,37.243635600000005,Gasoline Stations
218,sg:c8df17e4f868446398c1d94b69f939d8,-121.905905,37.240363,60855068033,7,True,True,-121.90967759999998,37.243635600000005,Amusement Parks and Arcades
219,sg:b916b1a7454046218bb806f78492da2f,-121.92524399999999,37.261171999999995,60855068033,4,True,False,-121.90967759999998,37.243635600000005,Other Amusement and Recreation Industries
220,sg:66232843c32341988d9aa20b7d3f43ac,-121.877072,37.30525,60855068033,4,True,False,-121.90967759999998,37.243635600000005,Automotive Repair and Maintenance
221,sg:f3293ad5789147ec9e429d2f1a0bec2a,-121.822428,37.301171000000004,60855068033,4,True,False,-121.90967759999998,37.243635600000005,Restaurants and Other Eating Places
222,sg:680d4e72337a4c57bc3bb1d9844b88aa,-121.905927,37.242363,60855068033,8,True,True,-121.90967759999998,37.243635600000005,Gasoline Stations
223,sg:724eae317f64415aa1601f1f70a8f9a1,-121.82483700000002,37.359753000000005,60855040012,4,True,False,-121.82508349999999,37.355581,Child Day Care Services
224,sg:5dc1e2ea700e4e44974bcbb9bca1a399,-121.880453,37.358247999999996,60855040012,4,True,False,-121.82508349999999,37.355581,Personal Care Services
225,sg:68f5cc06f0fa4e2193b74363fa7af73e,-121.842739,37.277064,60855040012,4,True,False,-121.82508349999999,37.355581,Gasoline Stations
226,sg:88c812ba291e472f90752bded60a28fb,-121.81371000000001,37.350784999999995,60855040012,4,True,False,-121.82508349999999,37.355581,"Automotive Parts, Accessories, and Tire Stores"
227,sg:6be73872aa6145d0901d550bea62b0c0,-121.84943500000001,37.288701,60855040012,4,True,False,-121.82508349999999,37.355581,Drugs and Druggists' Sundries Merchant Wholesalers
228,sg:5f5ec0264c7b468ca245c8d2622e3b16,-121.82270600000001,37.35938,60855040012,7,True,True,-121.82508349999999,37.355581,Gasoline Stations
229,sg:ae2e613645a544d788dc72cb127bb78b,-121.820051,37.356666,60855040012,4,True,False,-121.82508349999999,37.355581,Offices of Dentists
230,sg:6d7e61276d3344a9a0bc07ca8d9f6d70,-121.85516499999999,37.302172,60855040012,5,True,True,-121.82508349999999,37.355581,Gambling Industries
231,sg:3c4d76de517d41c1aa910f04de99481c,-121.82812,37.36619,60855040012,4,True,False,-121.82508349999999,37.355581,Restaurants and Other Eating Places
232,sg:23577327519e401885e63089ab7dc97b,-121.844245,37.370504,60855040012,5,True,True,-121.82508349999999,37.355581,Restaurants and Other Eating Places
233,sg:2a23b93bbab644ce913126d9ee6629f0,-121.826895,37.352129999999995,60855040012,4,True,False,-121.82508349999999,37.355581,Religious Organizations
234,sg:4b2f9d6c319449b88e74032918dceda8,-121.81837800000001,37.357734,60855040012,4,True,False,-121.82508349999999,37.355581,Electronics and Appliance Stores
235,sg:fe4559ec650a48138f11032139a25db7,-121.858351,37.303118,60855040012,4,True,False,-121.82508349999999,37.355581,Lessors of Real Estate
236,sg:de3d3a68a1d2498ba038b8cab1142f6f,-121.95896200000001,37.323652,60855040012,4,True,False,-121.82508349999999,37.355581,Restaurants and Other Eating Places
237,sg:666a0438a17c4e84b8dcfaf9c5c537f5,-121.84358700000001,37.373157,60855040012,4,True,False,-121.82508349999999,37.355581,Restaurants and Other Eating Places
238,sg:ae28044ad91f4ec694dcd145b3d9c31e,-121.818599,37.354528,60855040012,4,True,False,-121.82508349999999,37.355581,Restaurants and Other Eating Places
239,sg:79779a54f7184a7d8591558aadba0c28,-121.884525,37.329502000000005,60855009012,5,True,True,-121.88616100000002,37.333124,Traveler Accommodation
240,sg:c30685b5f1b44ffc8d95dd5e1c33dc9f,-121.887749,37.332947999999995,60855009012,4,True,False,-121.88616100000002,37.333124,Restaurants and Other Eating Places
241,sg:f2073fbab2ab45f293ce376b468b315a,-121.89863700000001,37.353134999999995,60855009012,4,True,False,-121.88616100000002,37.333124,Health and Personal Care Stores
242,sg:aa19042a474b4733beb8092a5f6fb580,-121.94918,37.320739,60855009012,4,True,False,-121.88616100000002,37.333124,"Museums, Historical Sites, and Similar Institutions"
243,sg:000a642311cb4820b8a8ae50e579cf21,-121.94811599999998,37.321913,60855009012,4,True,False,-121.88616100000002,37.333124,Other Amusement and Recreation Industries
244,sg:b6c6b6a234a14d6f86304d053fc72b40,-121.89627800000001,37.334264000000005,60855009012,4,True,False,-121.88616100000002,37.333124,Restaurants and Other Eating Places
245,sg:af42338ad97245b385e6ee4858e9e3fd,-121.847425,37.294153,60855009012,4,True,False,-121.88616100000002,37.333124,Services to Buildings and Dwellings
246,sg:33e91def6b694825a1ed80c6328fc868,-121.886329,37.330139,60855009012,4,True,False,-121.88616100000002,37.333124,Restaurants and Other Eating Places
247,sg:e589815337e540edad2a5b32507ace9e,-121.88360300000001,37.332002,60855009012,4,True,False,-121.88616100000002,37.333124,Electronics and Appliance Stores
248,sg:41bc9bdbda3e4bca8228a54c35d53462,-121.88753799999999,37.335305,60855009012,4,True,False,-121.88616100000002,37.333124,Restaurants and Other Eating Places
249,sg:6486082ab92b40e2a06290cd24737d0e,-121.888052,37.336253,60855009012,4,True,False,-121.88616100000002,37.333124,Restaurants and Other Eating Places
250,sg:16cc57df19cb4d239829856304cfe70f,-121.881157,37.335209000000006,60855009012,4,True,False,-121.88616100000002,37.333124,"Colleges, Universities, and Professional Schools"
251,sg:08fa7f4f48224746a1d9dcf51d7dfbe8,-121.888049,37.335125,60855009012,4,True,False,-121.88616100000002,37.333124,Restaurants and Other Eating Places
252,sg:d66b66ade822476fa68fc358457c1ac9,-121.877656,37.329417,60855009012,4,True,False,-121.88616100000002,37.333124,Elementary and Secondary Schools
253,sg:0ae622f33cfc4a5db23b237902153f5c,-121.884623,37.332478,60855009012,5,True,True,-121.88616100000002,37.333124,Grocery Stores
254,sg:e9dc515e01f34ed7ac3a6f0bdb761308,-121.88358500000001,37.331022,60855009012,7,True,True,-121.88616100000002,37.333124,Restaurants and Other Eating Places
255,sg:12ca52330bb345469e8ae8a25a50c8ef,-121.907018,37.380072999999996,60855009012,4,True,False,-121.88616100000002,37.333124,Electronics and Appliance Stores
256,sg:3b3825f7a16a4a1887fb0674de6d036f,-121.88329099999999,37.331103000000006,60855009012,6,True,True,-121.88616100000002,37.333124,"Beer, Wine, and Liquor Stores"
257,sg:3a3aed73ff2c4ea0af462df0b8fb65b8,-121.887847,37.335133,60855009012,4,True,False,-121.88616100000002,37.333124,Other Amusement and Recreation Industries
258,sg:c1998bf848c5469995a7cf004eed11ea,-121.886996,37.332414,60855009012,4,True,False,-121.88616100000002,37.333124,Clothing Stores
259,sg:c13695c1d2ae43ee9574a595fa38910c,-121.884346,37.332097999999995,60855009012,5,True,True,-121.88616100000002,37.333124,Restaurants and Other Eating Places
260,sg:0b4a689a6d754ab7b21de745032b4dbb,-121.851647,37.236056,60855009012,4,True,False,-121.88616100000002,37.333124,"Museums, Historical Sites, and Similar Institutions"
261,sg:d60d6c55f24d4604be45af719bf2e28f,-121.886555,37.335328999999994,60855009012,4,True,False,-121.88616100000002,37.333124,Restaurants and Other Eating Places
262,sg:a9e265e36ff846a492c7ead7fef3bad0,-121.885054,37.333533,60855009012,4,True,False,-121.88616100000002,37.333124,Restaurants and Other Eating Places
263,sg:f7a9554114694d7780335a76bbf9d48c,-121.94823999999998,37.321462,60855009012,4,True,False,-121.88616100000002,37.333124,Book Stores and News Dealers
264,sg:5b3e07f988c54051ae5eb1190d499fb8,-121.886684,37.333839000000005,60855009012,4,True,False,-121.88616100000002,37.333124,Restaurants and Other Eating Places
265,sg:6c328f1cfa034f2394d0eb0a8ceb85b2,-121.88723600000002,37.328526000000004,60855009012,4,True,False,-121.88616100000002,37.333124,"Museums, Historical Sites, and Similar Institutions"
266,sg:7aa028bd6adb4f14a6d947936c9aa7e3,-121.913174,37.294738,60855003002,4,True,False,-121.9055527,37.3290484,Restaurants and Other Eating Places
267,sg:606f406a74834d2eab63e6aac337c941,-121.910947,37.329062,60855003002,4,True,False,-121.9055527,37.3290484,Elementary and Secondary Schools
268,sg:e82716fdc45d40a183ae8ec4d9957c8a,-121.84211,37.338349,60855003002,4,True,False,-121.9055527,37.3290484,"Office Supplies, Stationery, and Gift Stores"
269,sg:8ce5905a8e06464d8cfe1e83df3e763b,-121.924034,37.334257,60855003002,4,True,False,-121.9055527,37.3290484,Restaurants and Other Eating Places
270,sg:0c8ca49f248442d3b5e31f92785a22fd,-121.909958,37.341904,60855003002,4,True,False,-121.9055527,37.3290484,Restaurants and Other Eating Places
271,sg:32ee3e5713bf4e318687893521741927,-121.867167,37.325480999999996,60855003002,4,True,False,-121.9055527,37.3290484,Grocery Stores
272,sg:bb7b90e37bbf4dcb8a353e01f98fda31,-121.904954,37.328934000000004,60855003002,11,True,True,-121.9055527,37.3290484,"Museums, Historical Sites, and Similar Institutions"
273,sg:6256a71d49394efcb7bcd23d30e865a6,-121.89315500000001,37.364943,60855003002,4,True,False,-121.9055527,37.3290484,Gasoline Stations
274,sg:52bb82b6539c4c5eba2ea89f2357ab5f,-121.911675,37.323305,60855003002,5,True,True,-121.9055527,37.3290484,Health and Personal Care Stores
275,sg:079b8c6e7e594577815d629a5a3efe49,-121.95225900000001,37.264203,60855003002,5,True,True,-121.9055527,37.3290484,"Museums, Historical Sites, and Similar Institutions"
276,sg:b5ee67e7dd4c4a66a5662a62102bbbfe,-121.90384399999999,37.327481,60855003002,10,True,True,-121.9055527,37.3290484,Other Amusement and Recreation Industries
277,sg:24a44fceec4641708ed9e058c4d42d8e,-121.885622,37.230083,60855003002,4,True,False,-121.9055527,37.3290484,Other Amusement and Recreation Industries
278,sg:2d75277ef6ff41e19bb3da762c007a9d,-121.911177,37.32652,60855003002,6,True,True,-121.9055527,37.3290484,Grocery Stores
279,sg:1067444c2be54390b3800b04d5ec6ad9,-121.89588300000001,37.289807,60855003002,4,True,False,-121.9055527,37.3290484,Other Amusement and Recreation Industries
280,sg:83dae3ea17864d7f9f8ec6796faef5ff,-121.813727,37.309621,60855120391,4,True,False,-121.7957341,37.2539041,Restaurants and Other Eating Places
281,sg:4197d54202f843f4a613548f1a96a5ed,-121.847023,37.294959000000006,60855120391,4,True,False,-121.7957341,37.2539041,Other Motor Vehicle Dealers
282,sg:284a7e72416e4769b3fb53e5b935190a,-121.797149,37.253463,60855120391,4,True,False,-121.7957341,37.2539041,Restaurants and Other Eating Places
283,sg:9a58ad7744974257a6faaa03444e18e2,-121.77488500000001,37.22762,60855120391,4,True,False,-121.7957341,37.2539041,Restaurants and Other Eating Places
284,sg:74bc6386f5994ca8bfee1caf56e464e2,-121.809009,37.311007000000004,60855120391,6,True,True,-121.7957341,37.2539041,Restaurants and Other Eating Places
285,sg:32369aa8dd3749769f0f6236f484a3af,-121.797028,37.253116999999996,60855120391,4,True,False,-121.7957341,37.2539041,Nondepository Credit Intermediation
286,sg:aa4859bc4d5d4a2eacb3138a168dee72,-121.79706499999999,37.253411,60855120391,7,True,True,-121.7957341,37.2539041,"Beer, Wine, and Liquor Stores"
287,sg:b358fa39ae684428bb67a2d19908ef7b,-121.799124,37.252207,60855120391,5,True,True,-121.7957341,37.2539041,Electronics and Appliance Stores
288,sg:3a5ce6cf58364ed793f25337dde92a45,-121.775241,37.230594,60855120391,5,True,True,-121.7957341,37.2539041,Health and Personal Care Stores
289,sg:91f5c3c457d04ce48a3b9184880cf25a,-121.856321,37.332947,60855120391,4,True,False,-121.7957341,37.2539041,Restaurants and Other Eating Places
290,sg:6c496a3acd6741be827a957e2e1f2cc3,-121.804571,37.255818,60855120391,4,True,False,-121.7957341,37.2539041,Commercial and Industrial Machinery and Equipment Rental and Leasing
291,sg:45d8025b72bf4b8e8600407a4d4e47d9,-121.84916899999999,37.292207,60855120391,4,True,False,-121.7957341,37.2539041,"Sporting Goods, Hobby, and Musical Instrument Stores"
292,sg:13fe4f76365e486ab4e257859252da08,-121.79329399999999,37.253122999999995,60855120391,6,True,True,-121.7957341,37.2539041,Other Schools and Instruction
293,sg:ebaeab5eea184b7d8f5a8bb8f7a0e357,-121.899575,37.369308000000004,60855120391,4,True,False,-121.7957341,37.2539041,Building Material and Supplies Dealers
294,sg:fccf334d40d842b6bbd067400efd2cb4,-121.783667,37.254977000000004,60855120391,4,True,False,-121.7957341,37.2539041,Home Health Care Services
295,sg:48f2fc5cfca64a1b80d357774e00dce5,-121.86005,37.314192,60855120391,4,True,False,-121.7957341,37.2539041,Gasoline Stations
296,sg:8e2fb5e4e7a2415daaa810d5e8e6a5f5,-121.84264499999999,37.338077,60855035102,4,True,False,-121.8159878,37.3487437,Restaurants and Other Eating Places
297,sg:19de1ce3457141d0ad3e505eb43830b5,-121.90828,37.367382,60855035102,4,True,False,-121.8159878,37.3487437,Other Personal Services
298,sg:f19b9926e6e84463b69fd1158611a972,-121.90779099999999,37.316694,60855035102,4,True,False,-121.8159878,37.3487437,Automotive Repair and Maintenance
299,sg:235ef25a64824dfe8830750006b8ff48,-121.92308899999999,37.314561,60855035102,4,True,False,-121.8159878,37.3487437,"Justice, Public Order, and Safety Activities"
300,sg:d77ec7a5234949ed8ec6f604d067d683,-121.814628,37.350741,60855035102,4,True,False,-121.8159878,37.3487437,Religious Organizations
301,sg:fc1d8beef02d487a95dfec2f7576dd9f,-121.89605800000001,37.382267,60855035102,4,True,False,-121.8159878,37.3487437,Restaurants and Other Eating Places
302,sg:ba6abba46bec4a679ccbb6a1e38c94b2,-121.89679299999999,37.303615,60855033311,4,True,False,-121.7569595,37.294879200000004,Depository Credit Intermediation
303,sg:0d3282b8750f4713ac33731e6b06e46f,-121.759919,37.291368,60855033311,4,True,False,-121.7569595,37.294879200000004,Depository Credit Intermediation
304,sg:9c45e32bf06846579dda9b891b9a222c,-121.763046,37.300932,60855033311,4,True,False,-121.7569595,37.294879200000004,Junior Colleges
305,sg:015bfeefba5740c5b79e823acf6f6e18,-121.845922,37.287571,60855033311,8,True,True,-121.7569595,37.294879200000004,"Automotive Parts, Accessories, and Tire Stores"
306,sg:e1ba02a21bfc46e0addcef54a52a3faf,-121.758854,37.291471,60855033311,8,True,True,-121.7569595,37.294879200000004,Offices of Dentists
307,sg:698ea6ef983c4982a6f9e1e696e98f71,-121.888153,37.240210999999995,60855033311,4,True,False,-121.7569595,37.294879200000004,Child Day Care Services
308,sg:ba90f0ea93944d8cb72c6e477cef29a0,-121.93358899999998,37.262879,60855027012,19,True,True,-121.935144,37.266936,Lessors of Real Estate
309,sg:1983caa322d54c2eb0e471c43f5a8210,-121.90972,37.374927,60855027012,4,True,False,-121.935144,37.266936,Other Amusement and Recreation Industries
310,sg:1237cd049e984316b46e8cd043bd5089,-121.842894,37.302283,60855027012,6,True,True,-121.935144,37.266936,Lessors of Real Estate
311,sg:7da99cebef9f41a8aeafea730a6f4539,-121.93275700000001,37.27462,60855027012,4,True,False,-121.935144,37.266936,Other Amusement and Recreation Industries
312,sg:1ef7bcd9c9a8423b967d14e10695a3ab,-121.932057,37.262713,60855027012,5,True,True,-121.935144,37.266936,Electronics and Appliance Stores
313,sg:6d257229be84429d8c3df6d643fb70b5,-121.83878,37.239371000000006,60855027012,6,True,True,-121.935144,37.266936,Elementary and Secondary Schools
314,sg:e6d75de7888f45948b24cb234415592e,-121.93794299999999,37.412638,60855053043,4,False,False,-121.98180249999999,37.357195700000005,Restaurants and Other Eating Places
315,sg:06aa9835b67b488f81792ce74eeafa70,-121.776098,37.231177,60670065002,5,False,True,-121.4339804,38.6382554,Other Amusement and Recreation Industries
316,sg:09b9c2612ef54b9c956af4032b9c5e80,-121.878018,37.339088000000004,60855031161,4,True,False,-121.8581686,37.2771927,Religious Organizations
317,sg:a925212a211e449b94c3a91bee042af2,-121.85383,37.276111,60855031161,16,True,True,-121.8581686,37.2771927,Grocery Stores
318,sg:55ef85516d214c7d98bbc2b485c13e70,-121.931921,37.263129,60855031161,4,True,False,-121.8581686,37.2771927,Other Food Manufacturing
319,sg:aa84dea7b1634f0f82d32e12ba24f422,-121.86523799999999,37.275147,60855031161,7,True,True,-121.8581686,37.2771927,Restaurants and Other Eating Places
320,sg:9d4e30326c2943369bf1787a4cd581fb,-121.85234799999999,37.276032,60855031161,4,True,False,-121.8581686,37.2771927,Health and Personal Care Stores
321,sg:0af738a103be4d8eaf72d1c248196484,-121.924177,37.274733000000005,60855031161,4,True,False,-121.8581686,37.2771927,Child Day Care Services
322,sg:a8e7f1a4e271479280b00d533979c33f,-121.85631599999999,37.275425,60855031161,5,True,True,-121.8581686,37.2771927,Waste Treatment and Disposal
323,sg:35a1bfe0e55848cfbf010da8d85bea82,-121.850043,37.330555,60855031161,4,True,False,-121.8581686,37.2771927,Home Furnishings Stores
324,sg:86144eb72d804538a0aeb75b098892dc,-121.857579,37.274840999999995,60855031161,5,True,True,-121.8581686,37.2771927,Restaurants and Other Eating Places
325,sg:ee7ce62db5584cb583f8141f48c9b649,-121.86036599999998,37.275372,60855031161,4,True,False,-121.8581686,37.2771927,Child Day Care Services
326,sg:ed137ca6d30f48d6b0b0e3e8d7a31eab,-121.908566,37.371081,60855031161,4,True,False,-121.8581686,37.2771927,Other Motor Vehicle Dealers
327,sg:176bb64881ca4875adb61e2d0dd3568a,-121.89679,37.275218,60855031161,4,True,False,-121.8581686,37.2771927,Child Day Care Services
328,sg:eb44f412634f451986fd4c0910010764,-121.859523,37.359403,60855031161,4,True,False,-121.8581686,37.2771927,"Beer, Wine, and Liquor Stores"
329,sg:19c60dff6faa435893d49e2b821aaf55,-121.858691,37.27603,60855031161,11,True,True,-121.8581686,37.2771927,Building Material and Supplies Dealers
330,sg:56ed0b8d57a2453ca8c93df5b509d988,-121.87928400000001,37.262674,60855031161,6,True,True,-121.8581686,37.2771927,"Sporting Goods, Hobby, and Musical Instrument Stores"
331,sg:80706a1b66de4fb5a89683895b31404f,-121.85783,37.279006,60855031161,4,True,False,-121.8581686,37.2771927,Child Day Care Services
332,sg:318696e4d0ce4134bce2b27abb189525,-121.92153200000001,37.241999,60855070014,4,False,False,-121.9750655,37.2210181,"Sporting Goods, Hobby, and Musical Instrument Stores"
333,sg:1160804c5511438ab4c88d2007da09a4,-121.914727,37.236579,60855070014,4,False,False,-121.9750655,37.2210181,"Beer, Wine, and Liquor Stores"
334,sg:9d0785c9301c46688522962c545cfd98,-121.889703,37.339554,60855052023,4,True,False,-121.96113000000001,37.3714749,Restaurants and Other Eating Places
335,sg:36b21b2c845040ada91980d3173a7576,-121.850104,37.323531,60855052023,4,True,False,-121.96113000000001,37.3714749,Building Material and Supplies Dealers
336,sg:062be337c3f045029352551af1438c18,-121.870544,37.323213,60855052023,4,True,False,-121.96113000000001,37.3714749,"Beer, Wine, and Liquor Stores"
337,sg:ff70c7b6bf394e26bc91e0cd658e4cab,-121.90549399999999,37.341019,60855052023,4,True,False,-121.96113000000001,37.3714749,Florists
338,sg:58f028e8bd7b4596b466e9e0ad7d8063,-121.827481,37.322095000000004,60855052023,4,True,False,-121.96113000000001,37.3714749,Bakeries and Tortilla Manufacturing
339,sg:6259fef9dd1a49078be2783c14b4d63c,-121.87368700000002,37.397364,60855052023,4,True,False,-121.96113000000001,37.3714749,Restaurants and Other Eating Places
340,sg:b277e42057ea43dda7c0a62134e30a74,-121.851302,37.378709,60855036011,4,True,False,-121.8685818,37.360391299999996,Offices of Dentists
341,sg:4410eb96c88847c9b5e30d1304ce98d2,-121.870672,37.363571,60855036011,4,True,False,-121.8685818,37.360391299999996,Support Activities for Road Transportation
342,sg:4f3f4c505b6d4db6ba917fc3d0fbb793,-121.866703,37.357408,60855036011,8,True,True,-121.8685818,37.360391299999996,Child Day Care Services
343,sg:cb53d5da44714d4190a52b1291f581d0,-121.865673,37.356428,60855036011,4,True,False,-121.8685818,37.360391299999996,Child Day Care Services
344,sg:9b3a8e4a0a414c82a60df6685a80bbb2,-121.872628,37.363756,60855036011,4,True,False,-121.8685818,37.360391299999996,Automotive Repair and Maintenance
345,sg:4bc115b152fe454da28d2a23425c4938,-121.86581399999999,37.356465,60855036011,5,True,True,-121.8685818,37.360391299999996,Elementary and Secondary Schools
346,sg:0bd729f972fc4bee97a22f2a455b1f4b,-121.862353,37.357846,60855036011,8,True,True,-121.8685818,37.360391299999996,Restaurants and Other Eating Places
347,sg:41c04dc4f7f64a668fa19d5772e57a08,-121.871082,37.345878000000006,60855036011,4,True,False,-121.8685818,37.360391299999996,Other Amusement and Recreation Industries
348,sg:b3df89ed3c194cf1855f324b57fddb87,-121.879034,37.262951,60855011022,4,True,False,-121.88629340000001,37.352208600000004,Restaurants and Other Eating Places
349,sg:497affd2b2d94c2a98e578a48d1fdc06,-121.88715,37.354834000000004,60855011022,4,True,False,-121.88629340000001,37.352208600000004,Automotive Repair and Maintenance
350,sg:516c4cb125e94c55923c53701ac042da,-121.85748899999999,37.351564,60855011022,4,True,False,-121.88629340000001,37.352208600000004,"Automotive Parts, Accessories, and Tire Stores"
351,sg:b6acc735ff614bb6be5b7e0d4fc4c641,-121.884778,37.350411,60855011022,5,True,True,-121.88629340000001,37.352208600000004,Other Amusement and Recreation Industries
352,sg:ef9c210b28224d9db23019d0958ea3ed,-121.863877,37.303478999999996,60855011022,4,True,False,-121.88629340000001,37.352208600000004,Health and Personal Care Stores
353,sg:8831fe75c6a44c0dbde8ad20e60da9e0,-121.92161399999999,37.288737,60855011022,4,True,False,-121.88629340000001,37.352208600000004,Offices of Physicians
354,sg:ad666907f98e442aaef32a082dd5137e,-121.91955700000001,37.373065000000004,60855011022,4,True,False,-121.88629340000001,37.352208600000004,Traveler Accommodation
355,sg:5b0d4cac73d243c28dac3f72de692c67,-121.88613799999999,37.353127,60855011022,4,True,False,-121.88629340000001,37.352208600000004,Restaurants and Other Eating Places
356,sg:6d32da5d5d1146ff91b2502ef9fad354,-121.887992,37.350638000000004,60855011022,4,True,False,-121.88629340000001,37.352208600000004,Child Day Care Services
357,sg:04db17df36b7417f8860c02c4ebdfdd2,-121.93858999999999,37.322959000000004,60855011022,4,True,False,-121.88629340000001,37.352208600000004,Offices of Dentists
358,sg:1f95c65f293b440d956e1ab014fa0eb0,-121.90506599999999,37.36273,60855011022,4,True,False,-121.88629340000001,37.352208600000004,Traveler Accommodation
359,sg:6907074ac7f645f399ab52b8819263a4,-121.868977,37.309901,60855011022,4,True,False,-121.88629340000001,37.352208600000004,Home Furnishings Stores
360,sg:3c50b93e2f8b498f88c6950241d2d1ab,-121.870139,37.312166999999995,60855011022,4,True,False,-121.88629340000001,37.352208600000004,Restaurants and Other Eating Places
361,sg:88141080092c4cc692b626f1fe9e3630,-121.887721,37.354237,60855011022,4,True,False,-121.88629340000001,37.352208600000004,Automotive Repair and Maintenance
362,sg:8eb07b117e0644d093e6a02e9bee748f,-121.977166,37.316523,60855011022,4,True,False,-121.88629340000001,37.352208600000004,Traveler Accommodation
363,sg:b773622af2e5402c8236b01d12fbd39e,-121.944322,37.25085,60855022011,4,True,False,-121.91806809999999,37.3063756,Offices of Physicians
364,sg:190e225ff2e1403fb157b44cde662272,-121.930648,37.311095,60855022011,5,True,True,-121.91806809999999,37.3063756,"Beer, Wine, and Liquor Stores"
365,sg:43082685dcb640129fcc37f7a09b1ff1,-121.91608799999999,37.307488,60855022011,8,True,True,-121.91806809999999,37.3063756,"Museums, Historical Sites, and Similar Institutions"
366,sg:21dde4a7872d448293490b0de1049c31,-121.923133,37.295189,60855022011,4,True,False,-121.91806809999999,37.3063756,Medical and Diagnostic Laboratories
367,sg:385edf351e2f4805a47d3297de59ee4a,-121.898553,37.309258,60855022011,4,True,False,-121.91806809999999,37.3063756,Offices of Dentists
368,sg:6704fdc4eeab4daa85eb4e4c5f30182d,-121.90956200000001,37.303740000000005,60855022011,8,True,True,-121.91806809999999,37.3063756,"Museums, Historical Sites, and Similar Institutions"
369,sg:46695ae42c054e79856fbcb46e9119a9,-121.93158600000001,37.321851,60855022011,4,True,False,-121.91806809999999,37.3063756,Restaurants and Other Eating Places
370,sg:6625d3e2a5824631a67e4cb780367836,-121.91420900000001,37.310311999999996,60855022011,4,True,False,-121.91806809999999,37.3063756,Restaurants and Other Eating Places
371,sg:fcaa420056de4aefaf43b21501908466,-121.91672,37.306863,60855022011,4,True,False,-121.91806809999999,37.3063756,Religious Organizations
372,sg:887214aef1bc45fe9340aa271ed99062,-121.84536999999999,37.357376,60855022011,4,True,False,-121.91806809999999,37.3063756,"Automotive Parts, Accessories, and Tire Stores"
373,sg:4e14ca7c64104059909d578af33181da,-121.92998200000001,37.343525,60855022011,4,True,False,-121.91806809999999,37.3063756,Offices of Other Health Practitioners
374,sg:3ddaa47be3524b148d416215ce9d885d,-121.84234599999999,37.301961,60855022011,4,True,False,-121.91806809999999,37.3063756,Restaurants and Other Eating Places
375,sg:525b87b37dac49d19e6726c82852d1b8,-121.91703799999999,37.310282,60855022011,5,True,True,-121.91806809999999,37.3063756,Restaurants and Other Eating Places
376,sg:67c1492b5e0b4a09adf1fb4d88c4c9cd,-121.91840400000001,37.309401,60855022011,4,True,False,-121.91806809999999,37.3063756,Other Amusement and Recreation Industries
377,sg:4c0dd47f3acd4b83a6bf2c2c17ce6301,-121.841471,37.394692,60855022011,4,True,False,-121.91806809999999,37.3063756,"Museums, Historical Sites, and Similar Institutions"
378,sg:b4816c84f0784873834458272a23e053,-121.89990700000001,37.306366,60855022011,5,True,True,-121.91806809999999,37.3063756,Other Miscellaneous Store Retailers
379,sg:7ddec7de30af476183ba4f493a5198f2,-121.916647,37.310019,60855022011,12,True,True,-121.91806809999999,37.3063756,Restaurants and Other Eating Places
380,sg:ce721a1b46ec4fc7b15922aa84dcb26d,-121.91423400000001,37.293766999999995,60855022011,5,True,True,-121.91806809999999,37.3063756,"Sporting Goods, Hobby, and Musical Instrument Stores"
381,sg:bd1b43281d08461dbe8029423eb7f90d,-121.909158,37.362334000000004,60855035101,4,True,False,-121.821274,37.3517531,Grocery Stores
382,sg:c5d414b13cd941c788cbbf7370eab758,-121.84370200000001,37.371081,60855035101,4,True,False,-121.821274,37.3517531,Other Amusement and Recreation Industries
383,sg:e24c9ce8b3f24ac985a69b4047061485,-121.822907,37.349854,60855035101,17,True,True,-121.821274,37.3517531,Elementary and Secondary Schools
384,sg:ee89267e9d2e410bb8455eafdce30946,-121.81598899999999,37.351907000000004,60855035101,4,True,False,-121.821274,37.3517531,Religious Organizations
385,sg:26cca4e2c47742eda19d0dadb3c2134c,-121.82478700000001,37.351914,60855035101,4,True,False,-121.821274,37.3517531,Restaurants and Other Eating Places
386,sg:a3078f151fce4f2ea8462d33647a9b23,-121.824803,37.351914,60855035101,4,True,False,-121.821274,37.3517531,"Beer, Wine, and Liquor Stores"
387,sg:f682bdedddc44578a059a5e8675dad29,-121.840166,37.341113,60855035101,5,True,True,-121.821274,37.3517531,Religious Organizations
388,sg:d3475e15a68341fca7003e7d7e40aea7,-121.84965700000001,37.362687,60390010002,4,False,False,-119.80825959999999,36.9195705,Offices of Physicians
389,sg:da4ccee7853544428e827317700e34d5,-121.97888400000001,37.428009,60014515033,4,False,False,-121.7533834,37.6833632,"Sporting Goods, Hobby, and Musical Instrument Stores"
390,sg:3dd9aaba73a94f19b5810d8f48359a24,-121.957131,37.323865000000005,60014515033,4,False,False,-121.7533834,37.6833632,Automobile Dealers
391,sg:e0605b324a9040bba958dba9de806e75,-121.894815,37.301035,60855024002,5,True,True,-121.8986905,37.300289500000005,Religious Organizations
392,sg:08551afca6ac488091a18b9ed01a20c7,-121.89759699999999,37.302345,60855024002,5,True,True,-121.8986905,37.300289500000005,Other Amusement and Recreation Industries
393,sg:ddcbfb73a00f4d359995e92274d4bfcb,-121.899169,37.325747,60855024002,4,True,False,-121.8986905,37.300289500000005,"Automotive Parts, Accessories, and Tire Stores"
394,sg:721c4576ed71448dab6fc69739310b34,-121.894948,37.301159000000006,60855024002,5,True,True,-121.8986905,37.300289500000005,Religious Organizations
395,sg:2e703c19ffb347b19bcb70c67da01bbb,-121.898751,37.325219,60855024002,4,True,False,-121.8986905,37.300289500000005,Used Merchandise Stores
396,sg:e52e4e9b9bc2402c935786622686d7d0,-121.83888600000002,37.368832,60855066032,4,False,False,-121.97044620000001,37.279792799999996,Elementary and Secondary Schools
397,sg:0e453e4def8e4e7f8aacfaa4693b6924,-121.99873000000001,37.303891,60855066032,4,False,False,-121.97044620000001,37.279792799999996,Other Amusement and Recreation Industries
398,sg:eff207490e3745aeb7e7319ee6476dd0,-121.863747,37.420137,60855066032,4,False,False,-121.97044620000001,37.279792799999996,Child Day Care Services
399,sg:b4ef58df932041a39706fae773edff3c,-121.975305,37.279413,60855066032,9,False,True,-121.97044620000001,37.279792799999996,"Museums, Historical Sites, and Similar Institutions"
400,sg:ef8fecfded7e4ce1864be8374b855b78,-121.855354,37.278438,60855120352,5,True,True,-121.75859309999998,37.225325299999994,Amusement Parks and Arcades
401,sg:b62ae3fe1bb1453f8b6b0b0dc2e48788,-122.03265800000001,37.311916,60855120352,6,True,True,-121.75859309999998,37.225325299999994,Depository Credit Intermediation
402,sg:35cf9cb5556f47e7b6b0ff629cba5632,-121.860096,37.350885999999996,60855120352,4,True,False,-121.75859309999998,37.225325299999994,Restaurants and Other Eating Places
403,sg:2a7755b625f64dde8e353f1d86ad7c54,-121.775042,37.228068,60855120352,4,True,False,-121.75859309999998,37.225325299999994,Restaurants and Other Eating Places
404,sg:cad77a60cbdb449b9a4b3145df0f9e62,-121.82862800000001,37.250499,60855120352,4,True,False,-121.75859309999998,37.225325299999994,Restaurants and Other Eating Places
405,sg:5909889c0df34c8a85e1bcf016d105fb,-121.775672,37.23146,60855120352,4,True,False,-121.75859309999998,37.225325299999994,Restaurants and Other Eating Places
406,sg:8c888900e51b4f70a81b45a87858b0db,-121.77492099999999,37.232418,60855120352,7,True,True,-121.75859309999998,37.225325299999994,Restaurants and Other Eating Places
407,sg:bb737458b8404c1680387bd2dba06e0d,-121.773016,37.226476,60855120352,8,True,True,-121.75859309999998,37.225325299999994,"General Merchandise Stores, including Warehouse Clubs and Supercenters"
408,sg:07301a1238e14eb8b454c09d51b7e028,-121.77738899999999,37.239087,60855120352,4,True,False,-121.75859309999998,37.225325299999994,Furniture Stores
409,sg:dc0d33363d944c5a831c81989e55a865,-121.86652099999999,37.311840000000004,60855120352,4,True,False,-121.75859309999998,37.225325299999994,Drugs and Druggists' Sundries Merchant Wholesalers
410,sg:8587f5fa43c24882875528af872026be,-121.876058,37.32101,60855120352,4,True,False,-121.75859309999998,37.225325299999994,Automobile Dealers
411,sg:0b2a94d26c6547d8bddde76cd2d18c22,-121.93128100000001,37.303883,60855033291,4,True,False,-121.7785011,37.3131108,Home Health Care Services
412,sg:92f78ffb5cc2450e95006f8f51644674,-121.812933,37.309028999999995,60855033291,4,True,False,-121.7785011,37.3131108,Health and Personal Care Stores
413,sg:9f3c3ebf221c4577be06a718ce59f89e,-121.76406999999999,37.298006,60855033291,4,True,False,-121.7785011,37.3131108,Religious Organizations
414,sg:2b57ba78dc634538a69f92cb681487e5,-121.79087,37.315583000000004,60855033291,4,True,False,-121.7785011,37.3131108,Restaurants and Other Eating Places
415,sg:ad5ca1e617384e69a655f35f3dc8ce93,-121.823748,37.319331,60855033291,4,True,False,-121.7785011,37.3131108,Restaurants and Other Eating Places
416,sg:488aa4f927aa45d0b66e7cbcc358c81b,-121.77383799999998,37.313208,60855033291,4,True,False,-121.7785011,37.3131108,Restaurants and Other Eating Places
417,sg:4fafa0cd0aed4d55a42382d4cd6bb682,-121.777023,37.315449,60855033291,4,True,False,-121.7785011,37.3131108,Child Day Care Services
418,sg:26a9fd29d92842be86713cc282f2909a,-121.77381000000001,37.31321,60855033291,4,True,False,-121.7785011,37.3131108,Restaurants and Other Eating Places
419,sg:fc4ebe770881424793bbf3e3a9b88505,-121.762472,37.318943,60855033291,4,True,False,-121.7785011,37.3131108,Clothing Stores
420,sg:a4fa5df84bbc41dea3fc32b0408571bc,-121.826981,37.251847,60855033291,4,True,False,-121.7785011,37.3131108,Offices of Dentists
421,sg:8a4cdbcf8e90487688cd8f2b647b7a12,-121.775896,37.3126,60855033291,5,True,True,-121.7785011,37.3131108,"Museums, Historical Sites, and Similar Institutions"
422,sg:b8f3a08149c746f3a6160969f7faee41,-121.78016699999999,37.313868,60855033291,6,True,True,-121.7785011,37.3131108,"Museums, Historical Sites, and Similar Institutions"
423,sg:ee36506daa064b499fe611096dbca2f3,-121.774025,37.313408,60855033291,5,True,True,-121.7785011,37.3131108,Restaurants and Other Eating Places
424,sg:8296fa875dd146f69c4855dbefbce54c,-121.79266299999999,37.313359000000005,60855033291,4,True,False,-121.7785011,37.3131108,Restaurants and Other Eating Places
425,sg:24847e99955948a294b98720b835ae8e,-121.77514199999999,37.313966,60855033291,7,True,True,-121.7785011,37.3131108,"Museums, Historical Sites, and Similar Institutions"
426,sg:2932f751a5934b318c04c7cba042ccd5,-121.83358500000001,37.338784000000004,60855035041,4,True,False,-121.83876370000002,37.3378473,Restaurants and Other Eating Places
427,sg:49a709b2ba9f4ac5858568382e73892c,-121.92229099999999,37.238028,60855035041,4,True,False,-121.83876370000002,37.3378473,Child Day Care Services
428,sg:aa61d37f0ad44fbca2a9537d8c94078b,-121.84669099999999,37.280982,60855035041,4,True,False,-121.83876370000002,37.3378473,Child Day Care Services
429,sg:588e3e4172d54492898b27a49ba1e881,-121.90832900000001,37.359404,60855035041,4,True,False,-121.83876370000002,37.3378473,Gasoline Stations
430,sg:6f0a305a65554e0a80eaebf86911fb26,-121.892821,37.366252,60855035041,4,True,False,-121.83876370000002,37.3378473,Lessors of Real Estate
431,sg:3912a1f412e3474e8685dd431fae4649,-121.842349,37.339537,60855035041,4,True,False,-121.83876370000002,37.3378473,Restaurants and Other Eating Places
432,sg:92cdbbaa94f2481fbc15de5cde1156a9,-121.837002,37.34018,60855035041,4,True,False,-121.83876370000002,37.3378473,Child Day Care Services
433,sg:afdd24cf32894f69a49dea9cdc556f77,-121.83958700000001,37.336706,60855035041,4,True,False,-121.83876370000002,37.3378473,Administration of Economic Programs
434,sg:5c7b23a8873a45328ee6302253a2ffe2,-121.828383,37.319416,60014403362,4,False,False,-122.01664469999999,37.580373200000004,"Beer, Wine, and Liquor Stores"
435,sg:b8492b8f832243cbaaa0ae063e2f751e,-121.95497399999999,37.416207,60014403362,4,False,False,-122.01664469999999,37.580373200000004,Restaurants and Other Eating Places
436,sg:755bdac49f224494a4601e27f3b670ce,-121.86301599999999,37.30278,60816052001,4,False,False,-122.37565990000002,37.586752000000004,Restaurants and Other Eating Places
437,sg:8724692749544e659ae4425ab6e18b00,-121.83256399999999,37.276199,60855120202,4,True,False,-121.8370399,37.268655200000005,Automotive Repair and Maintenance
438,sg:bc8a30d72c6b436ab926cf832a0456d0,-121.838197,37.269241,60855120202,7,True,True,-121.8370399,37.268655200000005,"Museums, Historical Sites, and Similar Institutions"
439,sg:fcc77a2202234f9781ae6ca4cea96833,-121.83224399999999,37.266453000000006,60855120202,7,True,True,-121.8370399,37.268655200000005,Restaurants and Other Eating Places
440,sg:2acd3922854a445f914ae49b110e7ea8,-121.846516,37.362131,60855120202,4,True,False,-121.8370399,37.268655200000005,Offices of Dentists
441,sg:28219fbee57f4914b9ca496a03e19c2c,-121.82978,37.252987,60855120202,6,True,True,-121.8370399,37.268655200000005,"General Merchandise Stores, including Warehouse Clubs and Supercenters"
442,sg:621d3f8aa6834c588f4ac73213b17cbd,-121.841852,37.277692,60855120202,4,True,False,-121.8370399,37.268655200000005,Gasoline Stations
443,sg:c0fbec51d95a46c7b99ea03d76fe1a9d,-121.852976,37.275954,60855120202,4,True,False,-121.8370399,37.268655200000005,Restaurants and Other Eating Places
444,sg:0fccbc6c344d4b34a372b43d061ba42c,-121.829793,37.253294,60855120202,4,True,False,-121.8370399,37.268655200000005,"Automotive Parts, Accessories, and Tire Stores"
445,sg:d5ef23bb3a7f47a9bcbff738085f3498,-121.85066200000001,37.274236,60855120202,4,True,False,-121.8370399,37.268655200000005,Restaurants and Other Eating Places
446,sg:61f6e3967e2343588b3b66e89575f42e,-121.83521299999998,37.268704,60855120202,4,True,False,-121.8370399,37.268655200000005,Depository Credit Intermediation
447,sg:5157b5db2cd2426d970bdbfc2cb9ba0b,-121.83123,37.253863,60855120202,5,True,True,-121.8370399,37.268655200000005,Restaurants and Other Eating Places
448,sg:dd058b578c624941bc04bce60d264b41,-121.83769,37.271209000000006,60855120202,4,True,False,-121.8370399,37.268655200000005,Child Day Care Services
449,sg:3c9fbcf9a7b24d87bc858d503263a851,-121.833945,37.266314,60855120202,4,True,False,-121.8370399,37.268655200000005,Depository Credit Intermediation
450,sg:7707c07971674abc9655b258ab43d1fe,-121.833051,37.276378,60855120202,4,True,False,-121.8370399,37.268655200000005,Automotive Repair and Maintenance
451,sg:291e37eaeb8b447f841d3ad0ae767814,-121.832321,37.267265,60855120202,4,True,False,-121.8370399,37.268655200000005,Restaurants and Other Eating Places
452,sg:8ecd7db65da64b229b8495cbed2d26dd,-121.931409,37.318241,60855020023,6,True,True,-121.92224440000001,37.3182316,Automobile Dealers
453,sg:ccc3b60ee70e467f86a4d2b70157e270,-121.93063799999999,37.323002,60855020023,5,True,True,-121.92224440000001,37.3182316,Electronics and Appliance Stores
454,sg:870c7fb198a0491492bfa458f9b363cf,-121.922271,37.350584000000005,60855020023,4,True,False,-121.92224440000001,37.3182316,Restaurants and Other Eating Places
455,sg:473cc62d797642e091a2523e0ed74f02,-121.914323,37.321133,60855020023,4,True,False,-121.92224440000001,37.3182316,"Sporting Goods, Hobby, and Musical Instrument Stores"
456,sg:8197076be47d472fa669c364913b7676,-121.921085,37.319819,60855020023,4,True,False,-121.92224440000001,37.3182316,"Museums, Historical Sites, and Similar Institutions"
457,sg:363d63a4bb184b15a167e9380db2468a,-121.91608000000001,37.317890999999996,60855020023,7,True,True,-121.92224440000001,37.3182316,Grocery Stores
458,sg:2c0856aef36d4245a1362fda6047a132,-122.031281,37.295513,60855020023,4,True,False,-121.92224440000001,37.3182316,Restaurants and Other Eating Places
459,sg:6b83e6de159f4fe88dded7289c744120,-121.914147,37.319293,60855020023,4,True,False,-121.92224440000001,37.3182316,Building Material and Supplies Dealers
460,sg:1fb044f3588b4c11be800131320be48d,-121.932198,37.32306,60855020023,4,True,False,-121.92224440000001,37.3182316,Restaurants and Other Eating Places
461,sg:c2e55c50424147dabb9ca305b6a4eea0,-121.874875,37.291986,60855020023,7,True,True,-121.92224440000001,37.3182316,Child Day Care Services
462,sg:2015a3e9fc624a309f94b852643fd781,-121.930504,37.319395,60855020023,4,True,False,-121.92224440000001,37.3182316,Consumer Goods Rental
463,sg:27fb14ebb0354493b97985c045d9372d,-121.732781,37.225724,60855020023,4,True,False,-121.92224440000001,37.3182316,Offices of Other Health Practitioners
464,sg:cd976a2d16ec43eb8be8312f25eb04b0,-121.933388,37.271952,60855020023,4,True,False,-121.92224440000001,37.3182316,Restaurants and Other Eating Places
465,sg:a7b11dc7ab914593b7053f09c195f23b,-121.82522800000001,37.377508,60855039024,4,True,False,-121.828346,37.3773443,Automotive Repair and Maintenance
466,sg:f0c42f6d65a6455a99ed6a66eb57f014,-121.82773300000001,37.376225,60855039024,4,True,False,-121.828346,37.3773443,"Accounting, Tax Preparation, Bookkeeping, and Payroll Services"
467,sg:b5de51bdd32b4668a3285d9a7efd21d1,-121.83038300000001,37.377974,60855039024,4,True,False,-121.828346,37.3773443,Offices of Dentists
468,sg:4ce6ef4f41f44abdbc151eb01ac118ae,-121.82608,37.381555999999996,60855039024,4,True,False,-121.828346,37.3773443,Other Amusement and Recreation Industries
469,sg:1d59199de3c34e7cb66f9ed0d5f88026,-121.823959,37.372195,60855039024,4,True,False,-121.828346,37.3773443,Religious Organizations
470,sg:4910a8fc04aa40b384ea43531d3177d5,-121.797296,37.324511,60855039024,4,True,False,-121.828346,37.3773443,Gasoline Stations
471,sg:61de852844394290aa079b585947163c,-121.83504599999999,37.375071000000005,60855039024,4,True,False,-121.828346,37.3773443,Restaurants and Other Eating Places
472,sg:b1cb8a19c52f4f429e754524f11829e7,-121.86173899999999,37.386478000000004,60855039024,8,True,True,-121.828346,37.3773443,Restaurants and Other Eating Places
473,sg:dd054f9cd4c7415886ba4050d7ab5b9a,-121.826548,37.379236,60855039024,4,True,False,-121.828346,37.3773443,Other Amusement and Recreation Industries
474,sg:43a3468c78614e5ab916d0d7aabc2b25,-121.819383,37.356924,60855039024,4,True,False,-121.828346,37.3773443,Offices of Physicians
475,sg:4814abf25dd04290b2bc915f70fe9a79,-121.937881,37.324063,60855039024,4,True,False,-121.828346,37.3773443,Health and Personal Care Stores
476,sg:1544fa89e49f4bc89e30b7612c4ec786,-121.884166,37.330506,60855039024,5,True,True,-121.828346,37.3773443,Restaurants and Other Eating Places
477,sg:cfbc5adf905e40c594784e8edb130c2a,-121.850828,37.306703999999996,60855031221,4,True,False,-121.8585568,37.3117645,Lessors of Real Estate
478,sg:4412d3ccf39643b587ea1e3707ec7f1f,-121.864595,37.313769,60855031221,4,True,False,-121.8585568,37.3117645,Gasoline Stations
479,sg:8cae772aa4344c2288f07e4f647dde97,-121.825492,37.288985,60855031221,4,True,False,-121.8585568,37.3117645,Religious Organizations
480,sg:c9666ecea3b94b8d96eab627b7dd2910,-121.868449,37.31023,60855031221,4,True,False,-121.8585568,37.3117645,Furniture Stores
481,sg:14869306e7c94d74978d79caa355dbfe,-121.80756699999999,37.239862,60855031221,4,True,False,-121.8585568,37.3117645,"Sporting Goods, Hobby, and Musical Instrument Stores"
482,sg:09a2e3f462684c0f9a219df9728ad265,-121.861507,37.304486,60855031221,5,True,True,-121.8585568,37.3117645,Restaurants and Other Eating Places
483,sg:8c43b37173424e869e34b4bef9f929f0,-121.86206499999999,37.312175,60855031221,4,True,False,-121.8585568,37.3117645,Support Activities for Road Transportation
484,sg:5c065360729f4bb881b176b491ecb2f4,-121.8919,37.343253999999995,60855031221,4,True,False,-121.8585568,37.3117645,Offices of Other Health Practitioners
485,sg:c60f1da0160a4776ac52640657e1b129,-121.885251,37.329504,60855031221,4,True,False,-121.8585568,37.3117645,Other Amusement and Recreation Industries
486,sg:f957e700e22f491c9490e8b109553989,-121.852624,37.31364,60855031221,5,True,True,-121.8585568,37.3117645,Restaurants and Other Eating Places
487,sg:21ea12a6af1240aa879c7d37a22664a1,-121.86438400000002,37.306287,60855031221,5,True,True,-121.8585568,37.3117645,Other Motor Vehicle Dealers
488,sg:4519f7718c3c41d381b7fd3b21519580,-121.90893600000001,37.331472,60855031221,4,True,False,-121.8585568,37.3117645,Health and Personal Care Stores
489,sg:1daf85ef1be04de9b755cefdf8508438,-121.854381,37.312247,60855031221,4,True,False,-121.8585568,37.3117645,Specialized Freight Trucking
490,sg:d93d36991d9246b594ee3210d1f2bfc7,-121.862825,37.306381,60855031221,14,True,True,-121.8585568,37.3117645,Restaurants and Other Eating Places
491,sg:d2aef056feab4bb2a0ebba10e4f90c17,-121.86156499999998,37.309323,60855031221,5,True,True,-121.8585568,37.3117645,Couriers and Express Delivery Services
492,sg:c0434f753fdb4830bc13771bed484041,-121.867368,37.309267999999996,60855031221,4,True,False,-121.8585568,37.3117645,Furniture Stores
493,sg:e12729df639b49888e737ed10f9dd645,-121.873897,37.234759999999994,60855119072,4,True,False,-121.8507691,37.2175304,Other Amusement and Recreation Industries
494,sg:57b02e248bbc41b098efc8d9f8ad2790,-121.858527,37.249992999999996,60855119072,4,True,False,-121.8507691,37.2175304,Restaurants and Other Eating Places
495,sg:99ac86576130425bb25611495709390d,-121.777841,37.236353,60855119072,4,True,False,-121.8507691,37.2175304,Offices of Other Health Practitioners
496,sg:8be121d5f72c4d7681e8e8c00f2e3934,-121.863924,37.220224,60855119072,4,True,False,-121.8507691,37.2175304,Offices of Other Health Practitioners
497,sg:38089366972f4c73b0e3741743c24bf5,-121.79688300000001,37.194234,60855119072,4,True,False,-121.8507691,37.2175304,"Museums, Historical Sites, and Similar Institutions"
498,sg:f6e23ce6cdfb445282cf0002dc72d73c,-121.877973,37.249967,60855119072,8,True,True,-121.8507691,37.2175304,Restaurants and Other Eating Places
499,sg:53b17a9d6b0a4b8182f317fe16038ba8,-121.975254,37.316153,60855119072,5,True,True,-121.8507691,37.2175304,Gasoline Stations
500,sg:626286a0094e44b0930e248008464cc1,-121.851124,37.220595,60855119072,6,True,True,-121.8507691,37.2175304,"Museums, Historical Sites, and Similar Institutions"
501,sg:929d3a7af81f46ed8508c142796776fb,-121.845557,37.210425,60855119072,4,True,False,-121.8507691,37.2175304,Other Amusement and Recreation Industries
502,sg:618356b6a5e441c28597cc6379e51458,-121.829788,37.252633,60855119072,4,True,False,-121.8507691,37.2175304,"Sporting Goods, Hobby, and Musical Instrument Stores"
503,sg:8f659e1681bf4d9cafd1c4a3caab9561,-121.846099,37.210956,60855119072,4,True,False,-121.8507691,37.2175304,Restaurants and Other Eating Places
504,sg:134a1834d54f4478810c26409be70202,-121.844293,37.250183,60855119072,4,True,False,-121.8507691,37.2175304,Restaurants and Other Eating Places
505,sg:37c32ffdcc784103a8c1acc703195752,-121.85120500000001,37.219506,60855119072,4,True,False,-121.8507691,37.2175304,Elementary and Secondary Schools
506,sg:d77aa98ae0894fea8e73ae32ccd42f37,-121.8537,37.221821000000006,60855119072,4,True,False,-121.8507691,37.2175304,Religious Organizations
507,sg:f679542be1334810b60db47c5f3824d8,-121.86183799999999,37.219795,60855119072,7,True,True,-121.8507691,37.2175304,Restaurants and Other Eating Places
508,sg:e2933935cd37427696d495c16703af76,-121.84608600000001,37.210727,60855119072,15,True,True,-121.8507691,37.2175304,Lessors of Real Estate
509,sg:fb80dce20da4424eba32d9a85dfe1183,-121.966272,37.310546,60855063011,4,True,False,-121.9701576,37.3196778,Elementary and Secondary Schools
510,sg:3d17dcfb12e14818897641526491cecd,-121.97287,37.319127,60855063011,4,True,False,-121.9701576,37.3196778,Medical and Diagnostic Laboratories
511,sg:e11d11bd599f4ea494ba9348b0b2c6fc,-121.951098,37.308044,60855063011,4,True,False,-121.9701576,37.3196778,Restaurants and Other Eating Places
512,sg:843477130ce34b67895fad0d072f9fb0,-121.97824399999999,37.305009000000005,60855063011,4,True,False,-121.9701576,37.3196778,Restaurants and Other Eating Places
513,sg:dfaaece6fd334a0884f2a9e6c63112dd,-121.970871,37.318704,60855063011,4,True,False,-121.9701576,37.3196778,Restaurants and Other Eating Places
514,sg:28c64eca3fd640c099ef9ca967e6e77b,-121.97161100000001,37.317422,60855063011,6,True,True,-121.9701576,37.3196778,Elementary and Secondary Schools
515,sg:1f8c6dce739641faadfd4c1141c58eba,-121.969928,37.320651,60855063011,8,True,True,-121.9701576,37.3196778,Miscellaneous Durable Goods Merchant Wholesalers
516,sg:db3a58ffe3054c57a190c9da7923710a,-121.96701499999999,37.320656,60855063011,8,True,True,-121.9701576,37.3196778,Automobile Dealers
517,sg:ffea4dfdd3df42859b94d0b0af70f9c8,-121.862476,37.357784,60855033361,4,False,False,-121.8018065,37.3086558,Restaurants and Other Eating Places
518,sg:0979e048ce594a9088cd91c3221fe369,-121.80266999999999,37.306531,60855033361,6,False,True,-121.8018065,37.3086558,"Museums, Historical Sites, and Similar Institutions"
519,sg:14fa60966ed442d689c0ea781df07d73,-121.800932,37.309837,60855033361,4,False,False,-121.8018065,37.3086558,Specialty Food Stores
520,sg:c5a5863fa32f486291599394fdc22b8d,-121.80770600000001,37.311052000000004,60855033361,4,False,False,-121.8018065,37.3086558,Restaurants and Other Eating Places
521,sg:d8808e907c9645f2b620d9c731824f94,-121.80126899999999,37.306977,60855033361,4,False,False,-121.8018065,37.3086558,Elementary and Secondary Schools
522,sg:2d6410015bce4671bbeba20bd41b3a93,-121.783942,37.302436,61010505035,4,False,False,-121.639243,39.122761700000005,Building Material and Supplies Dealers
523,sg:cbfda4dbf7b942f0b1ebf74e43d4f3ec,-121.79555400000001,37.304487,61010505035,4,False,False,-121.639243,39.122761700000005,Child Day Care Services
524,sg:6c3b6b29ab2b4d87b7560c69c151a508,-121.90448700000002,37.361666,61010505035,4,False,False,-121.639243,39.122761700000005,Traveler Accommodation
525,sg:458474e85c3143b0b616bebefd615ed3,-121.908378,37.253082,60855119051,6,True,True,-121.858328,37.2147347,Health and Personal Care Stores
526,sg:be0b761f3b5e4a3f94d265d411702349,-121.94923100000001,37.253209999999996,60855119051,4,True,False,-121.858328,37.2147347,Offices of Physicians
527,sg:3c7e87f7c3074182a1e975a54af495ad,-121.866303,37.215605,60855119051,4,True,False,-121.858328,37.2147347,"Sporting Goods, Hobby, and Musical Instrument Stores"
528,sg:37dd848b93ed40e1929d77754df3930d,-121.946623,37.250814,60855119051,4,True,False,-121.858328,37.2147347,Offices of Physicians
529,sg:85a4b18b60d34c75b0ae843f916fedcc,-121.86475800000001,37.221112,60855119051,4,True,False,-121.858328,37.2147347,Electronics and Appliance Stores
530,sg:eb3e2bd534b54f2aad866707917607a9,-121.861526,37.219552,60855119051,18,True,True,-121.858328,37.2147347,Grocery Stores
531,sg:77844499508640ce85671f7ef5cb4b42,-121.864049,37.220136,60855119051,4,True,False,-121.858328,37.2147347,Offices of Dentists
532,sg:a1ddd6dd438d45818458b02032c5d134,-121.900314,37.386145,60855119051,4,True,False,-121.858328,37.2147347,Other Amusement and Recreation Industries
533,sg:91148a69fd184aa2bbb45241c47ba8da,-121.91779,37.377748,60855119051,4,True,False,-121.858328,37.2147347,"General Merchandise Stores, including Warehouse Clubs and Supercenters"
534,sg:c482998409454c168bdbee54ec57dda4,-121.85408999999999,37.210578999999996,60855119051,4,True,False,-121.858328,37.2147347,"General Merchandise Stores, including Warehouse Clubs and Supercenters"
535,sg:fb365b2b89354dc9a7b768d7471be24c,-121.87406399999999,37.283131,60855119051,4,True,False,-121.858328,37.2147347,"Museums, Historical Sites, and Similar Institutions"
536,sg:fe659f55e3bf4e8b8fb2f176e069220b,-121.86313799999999,37.21855,60855119051,4,True,False,-121.858328,37.2147347,Health and Personal Care Stores
537,sg:618f95612cc2415487edded23903969f,-121.795732,37.242334,60855119051,4,True,False,-121.858328,37.2147347,Offices of Other Health Practitioners
538,sg:da845f9fb21f4713977f4e409507e3a5,-121.94916699999999,37.253257,60855119051,4,True,False,-121.858328,37.2147347,Offices of Physicians
539,sg:7a79041c96294c8b965528b61c95a6ba,-121.93179599999999,37.262243,60855035062,4,True,False,-121.8294972,37.3425264,Restaurants and Other Eating Places
540,sg:c3a0b1c6cd004fcb9eb054bafd8ffba0,-121.820807,37.339476,60855035062,4,True,False,-121.8294972,37.3425264,Building Material and Supplies Dealers
541,sg:3e9f315d193046f2b36e9570f936122f,-121.902285,37.321845,60855035062,4,True,False,-121.8294972,37.3425264,Restaurants and Other Eating Places
542,sg:06f44a77251c4a43b7501045f4ba28ad,-121.828427,37.340864,60855035062,4,True,False,-121.8294972,37.3425264,Services to Buildings and Dwellings
543,sg:a9fb6fd3fb814886a5a7e322277eb7ed,-121.834368,37.345395,60855035062,4,True,False,-121.8294972,37.3425264,Offices of Dentists
544,sg:ebee511b469949c4a5abeced9268c91f,-121.828552,37.317129,60855035062,4,True,False,-121.8294972,37.3425264,Traveler Accommodation
545,sg:0dfa1d8a2c74484b83ca8dc56628e704,-121.840275,37.340061,60855035062,9,True,True,-121.8294972,37.3425264,Department Stores
546,sg:6b7769f5148d41d8b4c06fecd6c235dd,-121.88981799999999,37.293903,60855035062,4,True,False,-121.8294972,37.3425264,Other Amusement and Recreation Industries
547,sg:e8792b67b9d84981acbf433abc9fd041,-121.849001,37.290757,60855035062,4,True,False,-121.8294972,37.3425264,Restaurants and Other Eating Places
548,sg:ff5e90da8193482ead976bcd26970e78,-121.853277,37.274966,60855035062,5,True,True,-121.8294972,37.3425264,Depository Credit Intermediation
549,sg:34da618f82914301a6488a506bd30e68,-121.840842,37.339613,60855035062,13,True,True,-121.8294972,37.3425264,Lessors of Real Estate
550,sg:bd9d3c334d294bfe8bf853110e18be4e,-121.833601,37.345849,60855035062,4,True,False,-121.8294972,37.3425264,Offices of Dentists
551,sg:7bcf1fec614942dbab88dfeb747f2555,-121.86877,37.311978,60855119152,5,True,True,-121.87994609999998,37.244969899999994,Furniture Stores
552,sg:edee46148bbb4bc5a6c69d07f829e485,-121.87688100000001,37.259693,60855119152,4,True,False,-121.87994609999998,37.244969899999994,"Jewelry, Luggage, and Leather Goods Stores"
553,sg:370fc4c2d899456d94245b69e6943196,-121.937105,37.315707,60855119152,4,True,False,-121.87994609999998,37.244969899999994,Offices of Physicians
554,sg:3ecd1718bdda45b2bef7d5656d672ca0,-121.802209,37.235712,60855119152,5,True,True,-121.87994609999998,37.244969899999994,Other Amusement and Recreation Industries
555,sg:30f9038965c4462ca0e4420e5b0718bb,-121.875976,37.248065999999994,60855119152,4,True,False,-121.87994609999998,37.244969899999994,Waste Treatment and Disposal
556,sg:9d023cf21bc042e28b48fd40473ed8ab,-121.876975,37.251422,60855119152,4,True,False,-121.87994609999998,37.244969899999994,Department Stores
557,sg:38579b0fe2e44ba185b729c8978ba5d8,-121.87551,37.247924,60855119152,5,True,True,-121.87994609999998,37.244969899999994,Home Furnishings Stores
558,sg:87a331930532453592ac260939497f45,-121.87994199999999,37.249095000000004,60855119152,4,True,False,-121.87994609999998,37.244969899999994,Elementary and Secondary Schools
559,sg:3569f6dc62d64d34aa7fdd2f31918866,-121.876654,37.24915,60855119152,4,True,False,-121.87994609999998,37.244969899999994,Grocery Stores
560,sg:67a8253b790843fe9b76dd1461e8c8e2,-121.87553899999999,37.245205,60855119152,7,True,True,-121.87994609999998,37.244969899999994,"Museums, Historical Sites, and Similar Institutions"
561,sg:48e50e95e77b4b89b921e700e2a2a320,-121.87988,37.249035,60855119152,4,True,False,-121.87994609999998,37.244969899999994,Child Day Care Services
562,sg:ef8fbdcb9c6b4bbd9a804b5992a2cb1d,-121.91061299999998,37.318234000000004,60855119152,4,True,False,-121.87994609999998,37.244969899999994,Services to Buildings and Dwellings
563,sg:5e14c66d4ec245988a585d63171d3d10,-121.831162,37.238167,60855119152,4,True,False,-121.87994609999998,37.244969899999994,Other Amusement and Recreation Industries
564,sg:b9bda12f20284e559ba7177ecd493b78,-121.88193000000001,37.248378,60855119152,6,True,True,-121.87994609999998,37.244969899999994,Child Day Care Services
565,sg:8fd05563a9a24f04bb82da7b11ce3c6c,-121.82721599999999,37.318923999999996,60855033041,4,True,False,-121.82627679999999,37.317808299999996,Restaurants and Other Eating Places
566,sg:9ec6bb2496a24c05bcfefe5f04ce7c9b,-121.85319299999999,37.332727,60855033041,4,True,False,-121.82627679999999,37.317808299999996,Restaurants and Other Eating Places
567,sg:698f62c801124a4e8d95e7a5d60950dd,-121.89389299999999,37.330946000000004,60855033041,4,True,False,-121.82627679999999,37.317808299999996,Restaurants and Other Eating Places
568,sg:363d1fb3e74b4b3db211f7384df65163,-121.82517,37.315452,60855033041,4,True,False,-121.82627679999999,37.317808299999996,Elementary and Secondary Schools
569,sg:bee4b343f410438da75ce4d21248fbf7,-121.937547,37.326125,60855033041,4,True,False,-121.82627679999999,37.317808299999996,Offices of Physicians
570,sg:4a2deddfca7b456f96d3e8dc300df8e7,-121.825245,37.317946,60855033041,4,True,False,-121.82627679999999,37.317808299999996,"Sporting Goods, Hobby, and Musical Instrument Stores"
571,sg:659c4d2dabf749ccac0f2426c5a0bd73,-121.82511299999999,37.31649,60855033041,11,True,True,-121.82627679999999,37.317808299999996,Other Amusement and Recreation Industries
572,sg:ce05ec96731f4af09ee5b69b1a82d79f,-121.84361799999999,37.303233,60855033041,6,True,True,-121.82627679999999,37.317808299999996,Restaurants and Other Eating Places
573,sg:cc3fac311d4643639b17e7db7234d9e5,-121.852098,37.277573,60855033041,4,True,False,-121.82627679999999,37.317808299999996,Other Amusement and Recreation Industries
574,sg:90b85cd7b4324f06b0bf242778fd1fdc,-121.851822,37.354919,60855014021,4,True,False,-121.8633852,37.3469295,Specialty Food Stores
575,sg:f2ac9ec2220d469d9a3fdca8d0d1280a,-121.930516,37.403724,60855014021,4,True,False,-121.8633852,37.3469295,"Museums, Historical Sites, and Similar Institutions"
576,sg:bf1a2621a35244bc8959b84d070e2b22,-121.865559,37.348335999999996,60855014021,4,True,False,-121.8633852,37.3469295,Restaurants and Other Eating Places
577,sg:1df9f95b02d74dc39eb162824e9a11e3,-121.87050900000001,37.345864,60855014021,4,True,False,-121.8633852,37.3469295,Health and Personal Care Stores
578,sg:4062e694f9994447b21df44b6582a974,-121.862373,37.304287,60855014021,4,True,False,-121.8633852,37.3469295,Nondepository Credit Intermediation
579,sg:8049281d8c124de5aa6f5246bf05b01f,-121.862086,37.345675,60855014021,4,True,False,-121.8633852,37.3469295,Grocery Stores
580,sg:54187f40642142e39a363900a718284c,-121.891696,37.353757,60855014021,4,True,False,-121.8633852,37.3469295,Clothing Stores
581,sg:a4371f7b2b834e078bfd788e4dc6a7a7,-121.864768,37.391125,60855037033,4,True,False,-121.83753909999999,37.3452786,Religious Organizations
582,sg:ab28cd1685994a01b7b4b53078507b1a,-121.82445600000001,37.319409,60855037033,4,True,False,-121.83753909999999,37.3452786,Other Miscellaneous Store Retailers
583,sg:82301ff74cfd4960af9887570e2000fd,-121.833582,37.292279,60855037033,5,True,True,-121.83753909999999,37.3452786,Restaurants and Other Eating Places
584,sg:da9746dd4c1949c492b790624db0d8e9,-121.89656699999999,37.343662,60855037033,5,True,True,-121.83753909999999,37.3452786,Offices of Physicians
585,sg:6d0b0a916da3454897ef811d9b116586,-121.83478500000001,37.342110999999996,60855037033,10,True,True,-121.83753909999999,37.3452786,Home Furnishings Stores
586,sg:b13694cd66aa4cfdafa9c85b128c2cf5,-121.842199,37.341852,60855037033,4,True,False,-121.83753909999999,37.3452786,"Automotive Parts, Accessories, and Tire Stores"
587,sg:50f6f1e2b47549f88789261710fbb1aa,-121.838396,37.344381,60855037033,8,True,True,-121.83753909999999,37.3452786,Other Miscellaneous Store Retailers
588,sg:466b952459514bb58ac4c6f0b1507354,-121.872766,37.315829,60855037033,5,True,True,-121.83753909999999,37.3452786,Gasoline Stations
589,sg:d59cccc4e7e144b79c9aaa4c89555ee7,-121.842882,37.341494,60855037033,12,True,True,-121.83753909999999,37.3452786,Lessors of Real Estate
590,sg:1cc591482e6e4761b27373b2b3d9397c,-121.839676,37.343681,60855037033,4,True,False,-121.83753909999999,37.3452786,Services to Buildings and Dwellings
591,sg:031a893501d24ab0acc287cf996cd95f,-121.825429,37.242919,60855037033,4,True,False,-121.83753909999999,37.3452786,Gasoline Stations
592,sg:a69ce9e7043543eaaa9478bb1b23405e,-121.83606100000002,37.344264,60855037033,4,True,False,-121.83753909999999,37.3452786,Restaurants and Other Eating Places
593,sg:a4eac345c1d640dfb9bcce35b9bea87a,-121.924342,37.274949,60855029021,4,True,False,-121.9176942,37.280185100000004,Religious Organizations
594,sg:9a36d686e9e343fc86c605e0c89417cb,-121.91245500000001,37.292388,60855029021,4,True,False,-121.9176942,37.280185100000004,Florists
595,sg:83ad7c573acc45d7a83ad5e79c8fea35,-121.880946,37.231982,60855029021,4,True,False,-121.9176942,37.280185100000004,Other Amusement and Recreation Industries
596,sg:c768c474528f4d988ab1cae0e55f7e77,-121.87048100000001,37.263387,60855029021,4,True,False,-121.9176942,37.280185100000004,"Office Supplies, Stationery, and Gift Stores"
597,sg:7124d26f423a42239dd816dc9bce2d46,-121.93488799999999,37.262918,60855029021,4,True,False,-121.9176942,37.280185100000004,Restaurants and Other Eating Places
598,sg:02b481174cff497ab91068f14fcd1123,-121.908726,37.252933,60855029021,4,True,False,-121.9176942,37.280185100000004,Health and Personal Care Stores
599,sg:fbff399b52c54826801b0dd8a7c3ed61,-121.894275,37.32875,60855029021,4,True,False,-121.9176942,37.280185100000004,Restaurants and Other Eating Places
600,sg:110a1fb3884a48259eb156bb470c9181,-121.90720900000001,37.246317,60855029021,4,True,False,-121.9176942,37.280185100000004,Child Day Care Services
601,sg:c7df9883346d40b998927c3827f3304c,-121.878344,37.276354,60014507421,4,False,False,-121.85541070000001,37.6585584,Electronics and Appliance Stores
602,sg:6dfa04e0140e422e9e2375c738f5142b,-121.87811799999999,37.276024,60014507421,4,False,False,-121.85541070000001,37.6585584,"Agencies, Brokerages, and Other Insurance Related Activities"
603,sg:d082409fed304d3b86be77eea2ab6a65,-121.977176,37.316581,60855062023,4,True,False,-121.99534740000001,37.2976126,Traveler Accommodation
604,sg:66e516df663e4e5c92af554681772850,-121.997235,37.303666,60855062023,4,True,False,-121.99534740000001,37.2976126,Other Amusement and Recreation Industries
605,sg:d698340785fd4994aebd7698842a36f9,-121.99994,37.294021,60855062023,5,True,True,-121.99534740000001,37.2976126,Continuing Care Retirement Communities and Assisted Living Facilities for the Elderly
606,sg:41f309331c4a4a9ab7ce607a245545b0,-121.98980900000001,37.29436,60855062023,4,True,False,-121.99534740000001,37.2976126,Restaurants and Other Eating Places
607,sg:e6e88fc2e7a640639e4c89e9c09d20cb,-122.033111,37.304009,60855062023,5,True,True,-121.99534740000001,37.2976126,Other Amusement and Recreation Industries
608,sg:03f23a7193b64480813be1c63b78ae3f,-121.990416,37.288792,60855062023,4,True,False,-121.99534740000001,37.2976126,Other Miscellaneous Store Retailers
609,sg:6e4f535fd8cb49b690eecacb7733dce0,-121.990482,37.289858,60855062023,4,True,False,-121.99534740000001,37.2976126,Restaurants and Other Eating Places
610,sg:af86a460a73b4df799527d88d0dbb23b,-121.991391,37.291564,60855062023,5,True,True,-121.99534740000001,37.2976126,Restaurants and Other Eating Places
611,sg:1706e27943e64f5c94fc070b7da81330,-121.996852,37.29631,60855062023,4,True,False,-121.99534740000001,37.2976126,"Museums, Historical Sites, and Similar Institutions"
612,sg:60e128193e2c46e9ae52d6592a065068,-121.9991,37.294478000000005,60855062023,9,True,True,-121.99534740000001,37.2976126,Home Health Care Services
613,sg:50b12bdaf4c449ab9f861da1019343f9,-121.81068300000001,37.306222999999996,60855062023,4,True,False,-121.99534740000001,37.2976126,Restaurants and Other Eating Places
614,sg:fb36fff1a3c64031961b225e1e8db0d1,-122.012401,37.308671999999994,60855062023,4,True,False,-121.99534740000001,37.2976126,Restaurants and Other Eating Places
615,sg:ef2f2fd0765e428dbc59bab7b0afe227,-121.93283000000001,37.266165,60855062023,6,True,True,-121.99534740000001,37.2976126,Child Day Care Services
616,sg:0276c372b9694658b8afe57671edd85f,-121.990574,37.292538,60855062023,4,True,False,-121.99534740000001,37.2976126,Clothing Stores
617,sg:f0039fe43ce1451abac96884470b3514,-121.843104,37.340281,60855062023,5,True,True,-121.99534740000001,37.2976126,Restaurants and Other Eating Places
618,sg:0be1119e0eef4803bb40dadd4a705446,-121.97816399999999,37.421735999999996,60855062023,4,True,False,-121.99534740000001,37.2976126,Traveler Accommodation
619,sg:da7184dd45cc4dd7a4d18708645c98ec,-121.775821,37.231736,60855123051,4,True,False,-121.68962379999999,37.139036700000005,Department Stores
620,sg:3b032ea1f1cc45ef974573172708022c,-121.772768,37.226295,60855123051,4,True,False,-121.68962379999999,37.139036700000005,Restaurants and Other Eating Places
621,sg:f113330204934784b338116e30adcc4e,-121.929147,37.388806,60855123051,4,True,False,-121.68962379999999,37.139036700000005,"Office Supplies, Stationery, and Gift Stores"
622,sg:2a0fb1f30c284ad492ce8bab933fb432,-121.84853000000001,37.365047,60855123051,4,True,False,-121.68962379999999,37.139036700000005,Offices of Dentists
623,sg:f593aef4b4524196ad6c5ccac054381b,-121.922251,37.34066,60855123051,4,True,False,-121.68962379999999,37.139036700000005,Other Financial Investment Activities
624,sg:ecc715d0e677495cb99237c1ab01cc80,-121.894545,37.352025,60855123051,4,True,False,-121.68962379999999,37.139036700000005,Personal Care Services
625,sg:ae3878cb17934fe69f011d0cbbb6aecb,-121.872124,37.350811,60855123051,5,True,True,-121.68962379999999,37.139036700000005,Child Day Care Services
626,sg:2b75a47674e64d1f8e47b0b7e2b242f0,-121.90404299999999,37.36847,60855123051,4,True,False,-121.68962379999999,37.139036700000005,Services to Buildings and Dwellings
627,sg:eecaafa9951849efaee8fab2b4cfe597,-121.93411200000001,37.32671,60855123051,4,True,False,-121.68962379999999,37.139036700000005,Offices of Physicians
628,sg:e162d8af32734a53a25de8996628c324,-121.893274,37.349201,60855041021,4,True,False,-121.8111919,37.366689799999996,Restaurants and Other Eating Places
629,sg:c0e2a417023a486c8f9257acb3d3934c,-121.84106200000001,37.356741,60855041021,4,True,False,-121.8111919,37.366689799999996,Restaurants and Other Eating Places
630,sg:fbc9b642b88b47638e8abf8ef91f0361,-121.875515,37.349061999999996,60855041021,4,True,False,-121.8111919,37.366689799999996,Grocery Stores
631,sg:1f4584a2e8174339aa74d06d91a2cf27,-121.82775600000001,37.35075,60855041021,4,True,False,-121.8111919,37.366689799999996,Restaurants and Other Eating Places
632,sg:5c38ad35ed1641c7b6e824b383e66237,-121.775171,37.227762,60855041021,4,True,False,-121.8111919,37.366689799999996,Restaurants and Other Eating Places
633,sg:9746be82eadd4b2d9f03486d5c7463e1,-121.87554399999999,37.262837,60855041021,4,True,False,-121.8111919,37.366689799999996,Other Amusement and Recreation Industries
634,sg:8b016539637a4e46ade39db4f8019c5c,-121.843374,37.372941,60855041021,4,True,False,-121.8111919,37.366689799999996,Restaurants and Other Eating Places
635,sg:439e075e0090485a95990a1d946cc69c,-121.879038,37.341314000000004,60855041021,4,True,False,-121.8111919,37.366689799999996,Restaurants and Other Eating Places
636,sg:b4977059b94746c2bc98c0cbe3517509,-121.831849,37.327895,60855041021,6,True,True,-121.8111919,37.366689799999996,"Justice, Public Order, and Safety Activities"
637,sg:3a49f88000604206837579e5cfdaedd3,-121.83062199999999,37.34791,60855041021,4,True,False,-121.8111919,37.366689799999996,Grocery Stores
638,sg:d1abefc58ae84e7d8eb10aa9538dbdb9,-121.862155,37.388757,60855041021,4,True,False,-121.8111919,37.366689799999996,Offices of Dentists
639,sg:680896b8ee954334ac650598cb55b595,-121.851574,37.275182,60855041021,4,True,False,-121.8111919,37.366689799999996,Restaurants and Other Eating Places
640,sg:7672da0da20b44079c9f24afc166eaa2,-121.892018,37.344662,60855041021,6,True,True,-121.8111919,37.366689799999996,Automotive Repair and Maintenance
641,sg:1c095c3c331845dbaef643adbeae03ad,-121.81492,37.363724,60855041021,5,True,True,-121.8111919,37.366689799999996,Waste Treatment and Disposal
642,sg:1059eb67a80f42deb18c17c456622bfc,-121.809509,37.337219,60855041021,5,True,True,-121.8111919,37.366689799999996,"Museums, Historical Sites, and Similar Institutions"
643,sg:d9bd6d6f27e44dd6a6c1dc9fb63b5023,-121.817444,37.381118,60855041021,4,True,False,-121.8111919,37.366689799999996,Child Day Care Services
