,safegraph_place_id,longitude,latitude,cbg,visits,hotspot_origin,hotspot_destination,cbg_longitude,cbg_latitude,top_category
0,sg:0b12c9ffd88d48beb37bd28e8b47a569,-98.59070799999999,29.528064,480291815031,4,True,False,-98.603844,29.5090961,Nursing Care Facilities (Skilled Nursing Facilities)
1,sg:64fe862b1d35481a905a32b439a30795,-98.57373,29.509736,480291815031,4,True,False,-98.603844,29.5090961,Offices of Dentists
2,sg:932c557285264d008f1a30cdfd7a889b,-98.36920500000001,29.563605,480291815031,4,True,False,-98.603844,29.5090961,Religious Organizations
3,sg:02341af4a2174c04a89840dbadb71178,-98.778109,29.414777,480291815031,6,True,False,-98.603844,29.5090961,Child Day Care Services
4,sg:ae94ce3b6e6042ceb0ae7e52c3531d2b,-98.589331,29.510396999999998,480291815031,4,True,False,-98.603844,29.5090961,General Medical and Surgical Hospitals
5,sg:d220a1e20a33442fb858d6ea990d32a0,-98.387913,29.469357000000002,480291815031,4,True,False,-98.603844,29.5090961,Religious Organizations
6,sg:e68706dc899042c490181a5d224365a2,-98.58077,29.522584000000002,480291815031,5,True,False,-98.603844,29.5090961,Electronics and Appliance Stores
7,sg:625de24129a8450896eb01e455b7317b,-98.570054,29.511428000000002,480291815031,4,True,False,-98.603844,29.5090961,Restaurants and Other Eating Places
8,sg:957c11ba4ae649bc882ee8146504adcb,-98.597751,29.516832,480291815031,7,True,True,-98.603844,29.5090961,Restaurants and Other Eating Places
9,sg:1a5eeea32717431f92baf614098d615c,-98.61368900000001,29.474611,480291815031,5,True,False,-98.603844,29.5090961,"Sporting Goods, Hobby, and Musical Instrument Stores"
10,sg:886f97ba563244229d597dc84e4cd5d6,-98.46615600000001,29.448102000000002,480291815031,6,True,False,-98.603844,29.5090961,"Museums, Historical Sites, and Similar Institutions"
11,sg:d13c96a8583c4c50b7ac90737194aa3a,-98.617102,29.504126,480291815031,4,True,False,-98.603844,29.5090961,Restaurants and Other Eating Places
12,sg:346702654183424f89f232f63d49cf56,-98.656544,29.543929,480291815031,4,True,False,-98.603844,29.5090961,Gasoline Stations
13,sg:8b62edd6ab724bee996bda6faffe1e92,-98.590779,29.513734000000003,480291815031,4,True,False,-98.603844,29.5090961,Medical and Diagnostic Laboratories
14,sg:41562d438e5146dbbd36e48c06f285f9,-98.603528,29.527112,480291815031,19,True,True,-98.603844,29.5090961,Restaurants and Other Eating Places
15,sg:e7c9324a41144af1ada3f31d5fc4518d,-98.603643,29.526734,480291815031,45,True,True,-98.603844,29.5090961,Grocery Stores
16,sg:3907785a1dba41db8922765d0529128e,-98.59697800000001,29.578118,480291815031,4,True,False,-98.603844,29.5090961,Furniture Stores
17,sg:bdcb884c3f254bd7a0b59948e18d0217,-98.600491,29.511436,480291815031,9,True,True,-98.603844,29.5090961,Elementary and Secondary Schools
18,sg:4550a1254fa943f7a78c57f0547c26c1,-98.58788100000001,29.536555,480291815031,4,True,False,-98.603844,29.5090961,Offices of Dentists
19,sg:4d0b99a648b647a8915cd91455b52c47,-98.597773,29.51745,480291815031,4,True,False,-98.603844,29.5090961,Restaurants and Other Eating Places
20,sg:db47356d58b648b58e585e2a75ac5f9a,-98.486801,29.533876,480291815031,4,True,False,-98.603844,29.5090961,Depository Credit Intermediation
21,sg:50dd4f8e6be9483db83ad6c54e2d301b,-98.644141,29.667061,480291815031,4,True,False,-98.603844,29.5090961,Restaurants and Other Eating Places
22,sg:fc8deacfbdae4a229494f5e66e7f5253,-98.530129,29.468935,480291815031,4,True,False,-98.603844,29.5090961,Restaurants and Other Eating Places
23,sg:a76835cb08494eb3bd0b81393faf0838,-98.600103,29.524504999999998,480291815031,8,True,True,-98.603844,29.5090961,Other Miscellaneous Store Retailers
24,sg:c7d5206b4a774d6c9fbb6ec7d4865fb4,-98.490125,29.426331,480291815031,4,True,False,-98.603844,29.5090961,Restaurants and Other Eating Places
25,sg:ad9cfaacd2ae4176902a84953ed8032a,-98.573619,29.509745000000002,480291815031,5,True,False,-98.603844,29.5090961,Offices of Dentists
26,sg:c4d0cce0a049488088077bc8e2e9c465,-98.59962,29.522727000000003,480291815031,6,True,False,-98.603844,29.5090961,Restaurants and Other Eating Places
27,sg:be8e5fe100644b87ab05479076b4b8f8,-98.611468,29.511573,480291815031,4,True,False,-98.603844,29.5090961,Services to Buildings and Dwellings
28,sg:60565863b95b4395973da6f54f735046,-98.59530699999999,29.518718,480291815031,6,True,False,-98.603844,29.5090961,"Automotive Parts, Accessories, and Tire Stores"
29,sg:f2510ccb336d479681102f7b81459539,-98.600013,29.523063,480291815031,4,True,False,-98.603844,29.5090961,Grocery Stores
30,sg:f8d2f4fee1f94bd880ca4d98bba6383e,-98.5994,29.524789000000002,480291815031,9,True,True,-98.603844,29.5090961,Restaurants and Other Eating Places
31,sg:1efce14ceeac48baa9db0621269bdb7e,-98.640326,29.520521000000002,480291815031,4,True,False,-98.603844,29.5090961,Clothing Stores
32,sg:d6633c5fa7504f01859ee4e634a77370,-98.584665,29.505534,480291815031,6,True,False,-98.603844,29.5090961,Restaurants and Other Eating Places
33,sg:8eb5841c554c4eb6bf3c9c47d7c0a620,-98.600889,29.524775,480291815031,4,True,False,-98.603844,29.5090961,Restaurants and Other Eating Places
34,sg:28f71c25a45f404e89331a95e4ee95a7,-98.579619,29.537907,480291815031,4,True,False,-98.603844,29.5090961,Medical and Diagnostic Laboratories
35,sg:658fcd81740f40c1a3c05405a5d15c9e,-98.62025200000001,29.497312,480291815031,4,True,False,-98.603844,29.5090961,Other Amusement and Recreation Industries
36,sg:1fce924f6a714de78a2f505e4bf7e0f9,-98.504436,29.347251,480291815031,7,True,True,-98.603844,29.5090961,"Executive, Legislative, and Other General Government Support"
37,sg:cd72acb246174ac5b52921c95e1e3f1f,-98.55714300000001,29.496934000000003,480291815031,5,True,False,-98.603844,29.5090961,Restaurants and Other Eating Places
38,sg:0bdea20dedf542fd80202bca5f2fd5b5,-98.571946,29.427415000000003,480291715023,8,True,True,-98.5771843,29.4244703,Gasoline Stations
39,sg:a9ca26c9d20041bebcc08df447c23d47,-98.574026,29.412318,480291715023,4,True,False,-98.5771843,29.4244703,Gasoline Stations
40,sg:f935d47e0e2347e9bece9b156f4a0078,-98.544676,29.323597999999997,480291715023,5,True,False,-98.5771843,29.4244703,Junior Colleges
41,sg:d30593405fea4a7bb81cf9cbd5782366,-98.649406,29.436341,480291715023,6,True,False,-98.5771843,29.4244703,Restaurants and Other Eating Places
42,sg:3cd78583d2f74d4ba0a99641131ffc35,-98.556214,29.4182,480291715023,4,True,False,-98.5771843,29.4244703,Restaurants and Other Eating Places
43,sg:2946e538a236438cad8a4a92afaa17f2,-98.408261,29.515383,480291715023,4,True,False,-98.5771843,29.4244703,Offices of Other Health Practitioners
44,sg:6d232469d85849d797de325948fe0ff1,-98.578046,29.424715999999997,480291715023,4,True,False,-98.5771843,29.4244703,Automotive Repair and Maintenance
45,sg:6df654793e024ef99eb9b510a0533ca4,-98.500964,29.356054999999998,480291715023,4,True,False,-98.5771843,29.4244703,Health and Personal Care Stores
46,sg:5542b6a3ba1247bc91cc1082806ae0d4,-98.473295,29.600406,480291715023,4,True,False,-98.5771843,29.4244703,Depository Credit Intermediation
47,sg:b3f0435cd5b842dfa58441e4bf757a20,-98.568837,29.449018,480291715023,5,True,False,-98.5771843,29.4244703,Restaurants and Other Eating Places
48,sg:53c9bad0df6a4eeda45ce1295f290f93,-98.556088,29.417640999999996,480291715023,4,True,False,-98.5771843,29.4244703,"Automotive Parts, Accessories, and Tire Stores"
49,sg:deea6d465e844f46a6ec07a8b66a9dd5,-98.518683,29.418490000000002,480291715023,4,True,False,-98.5771843,29.4244703,Gasoline Stations
50,sg:da71592c737449eeb009f4b0565330bd,-98.55032800000001,29.447324,480291715023,4,True,False,-98.5771843,29.4244703,Automotive Repair and Maintenance
51,sg:58f7c8b0502b46c89779059da51be25b,-98.576353,29.472809,480291715023,4,True,False,-98.5771843,29.4244703,"Automotive Parts, Accessories, and Tire Stores"
52,sg:8a7a5a2f072344f3a5f5c6cf525ecbff,-98.494584,29.471211,480291715023,4,True,False,-98.5771843,29.4244703,Traveler Accommodation
53,sg:b0029938406d4421a76ccd3961f1c526,-98.572869,29.426218,480291715023,8,True,True,-98.5771843,29.4244703,Gasoline Stations
54,sg:77fa0694aee34c8b820721dbd0ba6888,-98.55874399999999,29.430681,480291715023,4,True,False,-98.5771843,29.4244703,Grocery Stores
55,sg:1a3e3c9e472c47629e79066cdbe0cfdc,-98.576573,29.424642,480291715023,4,True,False,-98.5771843,29.4244703,Restaurants and Other Eating Places
56,sg:db4ee3ac92ef45508db51c5a635930cd,-98.595113,29.479574,480291715023,4,True,False,-98.5771843,29.4244703,Printing and Related Support Activities
57,sg:15f6ebab5d7044afa6b31d096611cce9,-98.531389,29.357303,480291520001,8,True,True,-98.53274959999999,29.284568699999998,Grocery Stores
58,sg:8d62929da4544549add3c9f66f239477,-98.506691,29.357124,480291520001,4,True,False,-98.53274959999999,29.284568699999998,Used Merchandise Stores
59,sg:bdcdd8e2ca6d49b195173a8e52017154,-98.532749,29.357810999999998,480291520001,8,True,True,-98.53274959999999,29.284568699999998,Lessors of Real Estate
60,sg:6f14f8985a7b4f8a9051f20683704613,-98.525286,29.303673,480291520001,4,True,False,-98.53274959999999,29.284568699999998,Depository Credit Intermediation
61,sg:565631d2f8054247893064bc8135e7a5,-98.491875,29.357275,480291520001,5,True,False,-98.53274959999999,29.284568699999998,Health and Personal Care Stores
62,sg:a1d29e42220a4790a0d53555e8b4e65e,-98.491519,29.450910999999998,480291520001,7,True,True,-98.53274959999999,29.284568699999998,Other Amusement and Recreation Industries
63,sg:4f38226abe7745f2a3d8257372decf8b,-98.50250799999999,29.31833,480291520001,15,True,True,-98.53274959999999,29.284568699999998,Depository Credit Intermediation
64,sg:aacc9fa30b0546928f84f005b26c6416,-98.534399,29.395054,480291520001,4,True,False,-98.53274959999999,29.284568699999998,Restaurants and Other Eating Places
65,sg:95305bdf12eb44c7a66744361361362a,-98.507471,29.399343,480291520001,4,True,False,-98.53274959999999,29.284568699999998,Elementary and Secondary Schools
66,sg:1ab49bc9b8dd43a785c379b7590f35a6,-98.54693,29.292645,480291520001,11,True,True,-98.53274959999999,29.284568699999998,Offices of Real Estate Agents and Brokers
67,sg:523ca00aee2344769af3df2c6cc678ee,-98.53185699999999,29.319221999999996,480291520001,9,True,True,-98.53274959999999,29.284568699999998,Grocery Stores
68,sg:f813ec8cd76d4d7782440c78af773248,-98.539243,29.356209999999997,480291520001,7,True,True,-98.53274959999999,29.284568699999998,Restaurants and Other Eating Places
69,sg:31bc24637461435fbbc8fd90ddf2cd49,-98.532031,29.319182,480291520001,22,True,True,-98.53274959999999,29.284568699999998,Gasoline Stations
70,sg:3e53255d26614bbdae79f1e0262b8854,-98.583701,29.489884000000004,480291520001,4,True,False,-98.53274959999999,29.284568699999998,Book Stores and News Dealers
71,sg:9487bd41b7d24ed2b8ee534af7af0314,-98.419504,29.564588,480291520001,4,True,False,-98.53274959999999,29.284568699999998,Automotive Repair and Maintenance
72,sg:8a71ab01a3414619a1b99e01801bdd47,-98.532376,29.390040000000003,480291520001,4,True,False,-98.53274959999999,29.284568699999998,Grocery Stores
73,sg:22b525832ed443c99a2838c41c14bcd6,-98.55046800000001,29.307315000000003,480291520001,7,True,True,-98.53274959999999,29.284568699999998,Outpatient Care Centers
74,sg:3d3859c9a4104482bac547f6b44df03e,-98.548296,29.407832,480291520001,4,True,False,-98.53274959999999,29.284568699999998,Grocery Stores
75,sg:5a3db19952be45359dffac28b56156a4,-98.520984,29.390089,480291520001,4,True,False,-98.53274959999999,29.284568699999998,Restaurants and Other Eating Places
76,sg:e52ea426890b433fb6492fea0824d5a3,-98.448953,29.518316,480291520001,4,True,False,-98.53274959999999,29.284568699999998,Restaurants and Other Eating Places
77,sg:67a491552072445d87c35183dd0bd2a9,-98.573442,29.592473,480291520001,4,True,False,-98.53274959999999,29.284568699999998,Offices of Real Estate Agents and Brokers
78,sg:78b913f47c6641928c80bc5b55ee78c3,-98.54294300000001,29.262946999999997,480291520001,6,True,False,-98.53274959999999,29.284568699999998,"General Merchandise Stores, including Warehouse Clubs and Supercenters"
79,sg:97686089e64a4d788d91f0581d0eab82,-98.503395,29.315934999999996,480291520001,4,True,False,-98.53274959999999,29.284568699999998,Automotive Repair and Maintenance
80,sg:1826404d9fc14a8fb3d670b198a7a532,-98.52476899999999,29.449253000000002,480291705003,4,False,False,-98.5270667,29.450666,Gasoline Stations
81,sg:479d86978b0f4a629e3a695a95682101,-98.527578,29.447339000000003,480291705003,4,False,False,-98.5270667,29.450666,Elementary and Secondary Schools
82,sg:b3ceaed964234301a142258935b9ae5b,-98.544625,29.449704999999998,480291705003,4,False,False,-98.5270667,29.450666,Offices of Dentists
83,sg:a072efe2a26b4473aab06a3a34d5bba9,-98.527407,29.445140000000002,480291705003,4,False,False,-98.5270667,29.450666,Other Miscellaneous Store Retailers
84,sg:85d36ac6ce2f49049fead95d690b01a1,-98.618093,29.514661,480291705003,4,False,False,-98.5270667,29.450666,Religious Organizations
85,sg:6640c347dd77426c906022d213e6d966,-98.58059,29.537861,480291705003,4,False,False,-98.5270667,29.450666,Electronics and Appliance Stores
86,sg:091a91327dc0449790d24ff5dbf1d957,-98.47372,29.401051000000002,480291705003,5,False,False,-98.5270667,29.450666,Automotive Repair and Maintenance
87,sg:f0838ab10a794ae783132bf586355d1f,-98.537174,29.476088,480291705003,4,False,False,-98.5270667,29.450666,Furniture Stores
88,sg:1006ee3bbf4c41aa84077560d10a6405,-98.562557,29.436701,480291705003,4,False,False,-98.5270667,29.450666,Elementary and Secondary Schools
89,sg:db46c9acee3548d18aae58649c584f7a,-98.576723,29.473515999999996,480291705003,4,False,False,-98.5270667,29.450666,Offices of Dentists
90,sg:294a696888ab413284b3d507f560003e,-98.57520799999999,29.512791999999997,480291814021,15,True,True,-98.57562259999999,29.509209499999997,Offices of Physicians
91,sg:55c4756d2d7348c28fb714d3d427c1ef,-98.576778,29.514728,480291814021,9,True,True,-98.57562259999999,29.509209499999997,Health and Personal Care Stores
92,sg:51fe1ee5bbd24fb7b3656f56183aa47b,-98.566585,29.523982,480291814021,4,True,False,-98.57562259999999,29.509209499999997,Other Amusement and Recreation Industries
93,sg:4018e8a2dafb4b3ca3bb335714c4e6a8,-98.577024,29.507359,480291814021,44,True,True,-98.57562259999999,29.509209499999997,General Medical and Surgical Hospitals
94,sg:845118dd8bf1472d84997b563965d0d2,-98.575327,29.512808000000003,480291814021,6,True,False,-98.57562259999999,29.509209499999997,Offices of Physicians
95,sg:3801ae20b468494eaa3afa45741cb3a3,-98.579852,29.506713,480291814021,17,True,True,-98.57562259999999,29.509209499999997,Home Health Care Services
96,sg:7614733ab2c0457e9897e68459fa353c,-98.572618,29.516138,480291814021,4,True,False,-98.57562259999999,29.509209499999997,Offices of Dentists
97,sg:5bcfd40db4b541a69704ec99ab90aae3,-98.57805,29.507998999999998,480291814021,12,True,True,-98.57562259999999,29.509209499999997,Offices of Other Health Practitioners
98,sg:45f324bdb9464e9a8d5b38f60f349a53,-98.587973,29.508753999999996,480291814021,4,True,False,-98.57562259999999,29.509209499999997,Medical and Diagnostic Laboratories
99,sg:5199ab1724574173881f4f84a53ad2c5,-98.576114,29.512560999999998,480291814021,6,True,False,-98.57562259999999,29.509209499999997,Health and Personal Care Stores
100,sg:789a0dbc1e2a473a9a4286bb55bd52c4,-98.575324,29.512807000000002,480291814021,7,True,True,-98.57562259999999,29.509209499999997,Offices of Physicians
101,sg:5fbbe092c30f474fa3ea7e74e6e2c3c5,-98.57252199999999,29.51645,480291814021,4,True,False,-98.57562259999999,29.509209499999997,Offices of Physicians
102,sg:c428a13b02214ebba5fb8b322b061c5b,-98.572486,29.509618,480291814021,31,True,True,-98.57562259999999,29.509209499999997,General Medical and Surgical Hospitals
103,sg:0c11401ae4054d658567f8652c2cdd29,-98.576162,29.514053000000004,480291814021,5,True,False,-98.57562259999999,29.509209499999997,"Colleges, Universities, and Professional Schools"
104,sg:3d4c35ab58f24980ba7a014bce9186fe,-98.571529,29.516889000000003,480291814021,4,True,False,-98.57562259999999,29.509209499999997,Elementary and Secondary Schools
105,sg:e9ea0030312545e5acf1877f850b5782,-98.572251,29.513734999999997,480291814021,4,True,False,-98.57562259999999,29.509209499999997,Home Health Care Services
106,sg:fd3aaa5b078e43b791b7e355a48434f3,-98.572678,29.516346000000002,480291814021,8,True,True,-98.57562259999999,29.509209499999997,Offices of Dentists
107,sg:adda2c5714d64fb18591f79a07cd3f1c,-98.576151,29.506991999999997,480291814021,9,True,True,-98.57562259999999,29.509209499999997,Restaurants and Other Eating Places
108,sg:4c83c3251b1948569e333edd29b9fd9d,-98.554647,29.51342,480291814021,11,True,True,-98.57562259999999,29.509209499999997,Building Material and Supplies Dealers
109,sg:1483a9a87d0740908af618b72f449737,-98.57084,29.508376000000002,480291814021,7,True,True,-98.57562259999999,29.509209499999997,Restaurants and Other Eating Places
110,sg:2acef5eee6e449f6b5a03a6d20fc5fb6,-98.525812,29.436003000000003,480291803002,4,True,False,-98.5535449,29.4617098,"Automotive Parts, Accessories, and Tire Stores"
111,sg:270b4283e1d549448ddd354be7a3668b,-98.557286,29.431406,480291803002,6,True,False,-98.5535449,29.4617098,Specialty Food Stores
112,sg:820f6efc7ef34f81b7bdea8ef7cbb97a,-98.61993199999999,29.462711,480291803002,6,True,False,-98.5535449,29.4617098,Restaurants and Other Eating Places
113,sg:8f3bedb561ca469b9b45231b17dba175,-98.558755,29.460426000000002,480291803002,4,True,False,-98.5535449,29.4617098,Automotive Repair and Maintenance
114,sg:d59e0d013f284fd789e6248a639e9fb5,-98.541569,29.448468,480291803002,4,True,False,-98.5535449,29.4617098,Elementary and Secondary Schools
115,sg:8d0cd4e19f404a69a3f8827cf657750a,-98.405852,29.477332,480291803002,4,True,False,-98.5535449,29.4617098,"Automotive Parts, Accessories, and Tire Stores"
116,sg:c92d213b4974408383d01f799eff6d42,-98.48951,29.437709,480291803002,5,True,False,-98.5535449,29.4617098,Offices of Other Health Practitioners
117,sg:855b347e72b4471cbae4db83199962b1,-98.630643,29.484178000000004,480291803002,4,True,False,-98.5535449,29.4617098,Automotive Repair and Maintenance
118,sg:38066ca2d0434426aeea3bc024f86b04,-98.571852,29.519299,480291803002,6,True,False,-98.5535449,29.4617098,Building Material and Supplies Dealers
119,sg:55c8cda9e0094728afa352b60e397914,-98.727604,29.402965999999996,480291803002,4,True,False,-98.5535449,29.4617098,"General Merchandise Stores, including Warehouse Clubs and Supercenters"
120,sg:87498cccd05a4206b60bef511df46ade,-98.545514,29.464190999999996,480291803002,4,True,False,-98.5535449,29.4617098,Religious Organizations
121,sg:9326f63702644bfba4d7a2c6438f0bdd,-98.608985,29.4887,480291803002,4,True,False,-98.5535449,29.4617098,"Beer, Wine, and Liquor Stores"
122,sg:d51076d6b2d949d0913eedd71c655ab0,-98.593877,29.568494,480291803002,4,True,False,-98.5535449,29.4617098,Furniture Stores
123,sg:5f6e07129f9a4ae7a674291db33e3b0b,-98.526742,29.488014,480291803002,12,True,True,-98.5535449,29.4617098,"General Merchandise Stores, including Warehouse Clubs and Supercenters"
124,sg:4fdf75a207144027a0b9b5c60f049bec,-98.515063,29.357069,480291803002,4,True,False,-98.5535449,29.4617098,Florists
125,sg:56dcf49995d04bdf86f0b4eb456fc58e,-98.570084,29.469547,480291803002,5,True,False,-98.5535449,29.4617098,Restaurants and Other Eating Places
126,sg:52de41d0656f42c79348e735205c01fc,-98.586917,29.488151000000002,480291803002,4,True,False,-98.5535449,29.4617098,Restaurants and Other Eating Places
127,sg:2a3e00f54b384c75b0e2b68862472c28,-98.550667,29.45696,480291803002,4,True,False,-98.5535449,29.4617098,Elementary and Secondary Schools
128,sg:b3809d1dbca24b7a8e3392acfa0104f5,-98.63115,29.403734999999998,480291803002,6,True,False,-98.5535449,29.4617098,Restaurants and Other Eating Places
129,sg:4015b11572b745cdbee6382872c9b7b8,-98.493589,29.411735999999998,480291803002,4,True,False,-98.5535449,29.4617098,Gasoline Stations
130,sg:e275407670614d4da58776da17e61919,-98.554474,29.465338,480291803002,4,True,False,-98.5535449,29.4617098,Grocery Stores
131,sg:10d59ebe71b24a8391e9bb4ab8a0f23e,-98.45406700000001,29.369148,480291803002,5,True,False,-98.5535449,29.4617098,Traveler Accommodation
132,sg:3987479859c84a2fa3a3aa0d359811e0,-98.522015,29.534526,480291821031,4,True,False,-98.73575770000001,29.669730199999997,Restaurants and Other Eating Places
133,sg:e92848541e424b889ed5c337b1139d78,-98.70213299999999,29.493698,480291821031,4,True,False,-98.73575770000001,29.669730199999997,Depository Credit Intermediation
134,sg:654fac1948ef429489185dde512bd53f,-98.604763,29.616475,480291821031,5,True,False,-98.73575770000001,29.669730199999997,Restaurants and Other Eating Places
135,sg:76e111d797f94fdf9254595229f1ad18,-98.491564,29.428054,480291821031,4,True,False,-98.73575770000001,29.669730199999997,Restaurants and Other Eating Places
136,sg:c8d9dccfbc484a30b67eac595462010b,-98.477752,29.571960999999998,480291821031,4,True,False,-98.73575770000001,29.669730199999997,Employment Services
137,sg:31496b0cd3f643dcb2e07869a8b02fe4,-98.563921,29.414632,480291821031,4,True,False,-98.73575770000001,29.669730199999997,Restaurants and Other Eating Places
138,sg:0e684304f11642a187ec7fc477793fcf,-98.650451,29.569426,480291821031,5,True,False,-98.73575770000001,29.669730199999997,Restaurants and Other Eating Places
139,sg:a426f2f46fc943738d155ae7456232a2,-98.49771700000001,29.610302,480291821031,4,True,False,-98.73575770000001,29.669730199999997,Restaurants and Other Eating Places
140,sg:c94442d6c53a4707b45738d09502d835,-98.66716600000001,29.555532,480291821031,11,True,True,-98.73575770000001,29.669730199999997,Restaurants and Other Eating Places
141,sg:f865565a0e394bc482aed87b734828f9,-98.640281,29.665036999999998,480291821031,4,True,False,-98.73575770000001,29.669730199999997,Child Day Care Services
142,sg:b952bea84dd54099b7f7b8f9ab1d00e8,-98.684911,29.682596000000004,480291821031,4,True,False,-98.73575770000001,29.669730199999997,Automotive Repair and Maintenance
143,sg:b47cca988a2c42bb97d10a4a7023f7be,-98.66420699999999,29.547365999999997,480291821031,4,True,False,-98.73575770000001,29.669730199999997,Health and Personal Care Stores
144,sg:b301ca50dd834157870c1ad12d56d11a,-98.60001199999999,29.605337,480291821031,4,True,False,-98.73575770000001,29.669730199999997,Restaurants and Other Eating Places
145,sg:0b31f6726a2e49649567481023b93e8f,-98.611509,29.593062,480291821031,4,True,False,-98.73575770000001,29.669730199999997,Home Furnishings Stores
146,sg:6b507fc75cc943a6b777b55eeac03919,-98.490713,29.421279,480291821031,4,True,False,-98.73575770000001,29.669730199999997,Restaurants and Other Eating Places
147,sg:ba28c6cf680d4e01bf41cb702711736e,-98.61818000000001,29.660567999999998,480291821031,5,True,False,-98.73575770000001,29.669730199999997,Other Personal Services
148,sg:1a2c70696a7a4e9f9a1741226896323b,-98.521895,29.535034000000003,480291821031,4,True,False,-98.73575770000001,29.669730199999997,Other Amusement and Recreation Industries
149,sg:6169d22621fe43b99da793a742e81573,-98.641134,29.408733,480291821031,4,True,False,-98.73575770000001,29.669730199999997,Elementary and Secondary Schools
150,sg:7314e760e05545eba0b75947142247b0,-98.66163,29.557005,480291821031,4,True,False,-98.73575770000001,29.669730199999997,Restaurants and Other Eating Places
151,sg:322a339beb3b422395091403fd615e10,-98.64519,29.494621999999996,480291821031,4,True,False,-98.73575770000001,29.669730199999997,Child Day Care Services
152,sg:6f38610aa03f4a05bc2e51a3e5cb492a,-98.65038299999999,29.669003000000004,480291821031,10,True,True,-98.73575770000001,29.669730199999997,Gasoline Stations
153,sg:1de4fa449db74124af2ec25c7a81f9b4,-98.591739,29.497269,480291821031,4,True,False,-98.73575770000001,29.669730199999997,Elementary and Secondary Schools
154,sg:29998bb2902a4197989def76f7d790ba,-98.614465,29.592481,480291821031,7,True,True,-98.73575770000001,29.669730199999997,Lessors of Real Estate
155,sg:8b1545e06145410f9277f74a240c44c7,-98.475061,29.446554,480291821031,4,True,False,-98.73575770000001,29.669730199999997,Restaurants and Other Eating Places
156,sg:d8c016f8889c44a3b4dadbe6b71a14be,-98.630382,29.666133000000002,480291821031,4,True,False,-98.73575770000001,29.669730199999997,Depository Credit Intermediation
157,sg:9e8ff52808054c8b81837e0d204d9f37,-98.66487,29.550569,480291821031,13,True,True,-98.73575770000001,29.669730199999997,Restaurants and Other Eating Places
158,sg:87fa97fd4ff4438bad1e3703c23da708,-98.659805,29.536663,480291821031,4,True,False,-98.73575770000001,29.669730199999997,Building Equipment Contractors
159,sg:49af55e7a98b4e6ab273360c86cd6e07,-98.483722,29.371381,480291821031,4,True,False,-98.73575770000001,29.669730199999997,Other Miscellaneous Manufacturing
160,sg:b5ff3f8826834c7aa9f581d4c29ed206,-98.640015,29.40894,480291821031,4,True,False,-98.73575770000001,29.669730199999997,Child Day Care Services
161,sg:fcebb5c270dd472dabed721a1f1bd8af,-98.593473,29.565502000000002,480291821031,4,True,False,-98.73575770000001,29.669730199999997,Electronics and Appliance Stores
162,sg:3f50c295314b4d2f8c118775b9ff6135,-98.623387,29.647681,480291819021,22,True,True,-98.633613,29.632163800000004,Health and Personal Care Stores
163,sg:67a4c3d8323e474391a0612e60a4c60e,-98.627834,29.658603000000003,480291819021,4,True,False,-98.633613,29.632163800000004,Other Amusement and Recreation Industries
164,sg:d455ac05a2f4480eb9f0328857fca7fe,-98.623286,29.642954,480291819021,12,True,True,-98.633613,29.632163800000004,Depository Credit Intermediation
165,sg:3a4691948aea445dbe601fb5e70d6ab3,-98.636639,29.618082,480291819021,4,True,False,-98.633613,29.632163800000004,Services to Buildings and Dwellings
166,sg:be53c5296470407cac04c76bae230934,-98.583235,29.553335999999998,480291819021,4,True,False,-98.633613,29.632163800000004,Automobile Dealers
167,sg:4871e00b0cac49f2ad75b641b064fa99,-98.480586,29.457369,480291819021,4,True,False,-98.633613,29.632163800000004,Other Financial Investment Activities
168,sg:f67668f7b231469f85580b7c97e6e07b,-98.53508199999999,29.556240999999996,480291819021,4,True,False,-98.633613,29.632163800000004,Depository Credit Intermediation
169,sg:3a901a46a7d04389afd79cb31fa3c883,-98.587166,29.562390999999998,480291819021,4,True,False,-98.633613,29.632163800000004,"General Merchandise Stores, including Warehouse Clubs and Supercenters"
170,sg:adfadfd3991c4efba891b97967cfd019,-98.62063,29.637462,480291819021,4,True,False,-98.633613,29.632163800000004,Building Material and Supplies Dealers
171,sg:c1c9ce0cc86942b49dca636d65440db8,-98.511072,29.379284000000002,480291819021,4,True,False,-98.633613,29.632163800000004,Offices of Physicians
172,sg:933cc4f8ac8642af9931495e03749225,-98.57659100000001,29.530423,480291819021,4,True,False,-98.633613,29.632163800000004,"Automotive Parts, Accessories, and Tire Stores"
173,sg:7f6e795f2cb9432c936059048a0b6e55,-98.664625,29.510074,480291819021,4,True,False,-98.633613,29.632163800000004,"Colleges, Universities, and Professional Schools"
174,sg:dc65408aef7b47058dc2259aed2de3ed,-98.490225,29.608276,480291819021,4,True,False,-98.633613,29.632163800000004,"Agencies, Brokerages, and Other Insurance Related Activities"
175,sg:2eab996738d14d6997d4d50a081701b0,-98.58323299999999,29.448401,480291819021,4,True,False,-98.633613,29.632163800000004,"Agencies, Brokerages, and Other Insurance Related Activities"
176,sg:43d506ea379447f5aedd7ae2b72325f5,-98.583848,29.590363,480291819021,4,True,False,-98.633613,29.632163800000004,
177,sg:b493604ed18b4ea7a1ded61ed16f6317,-98.469895,29.419428000000003,480291819021,4,True,False,-98.633613,29.632163800000004,Automotive Repair and Maintenance
178,sg:dec4b4ddb5824dcf8395f0c28e7fd19e,-98.509159,29.51932,480291819021,5,True,False,-98.633613,29.632163800000004,"Office Supplies, Stationery, and Gift Stores"
179,sg:3d4c6a0240ab40bb8dd4ffc0985f4a97,-98.600144,29.562490999999998,480291819021,4,True,False,-98.633613,29.632163800000004,Wired and Wireless Telecommunications Carriers
180,sg:4860c8d9dd6c4c998265295caeaa430d,-98.478999,29.546256,480291819021,4,True,False,-98.633613,29.632163800000004,Other Leather and Allied Product Manufacturing
181,sg:04d1d617d4094fac9ebaa40d3e900f59,-98.602198,29.612706,480291819021,7,True,True,-98.633613,29.632163800000004,Restaurants and Other Eating Places
182,sg:a20b2889c8e44040a168447fca13acb8,-98.598801,29.607739000000002,480291819021,4,True,False,-98.633613,29.632163800000004,"Sporting Goods, Hobby, and Musical Instrument Stores"
183,sg:787c927b45d143b893c7b3a60b3aeec3,-98.546755,29.508290000000002,480291819021,4,True,False,-98.633613,29.632163800000004,Home Health Care Services
184,sg:778a52ab7a5e49428a4fc094335d22ea,-98.62782,29.661391,480291819021,6,True,False,-98.633613,29.632163800000004,Restaurants and Other Eating Places
185,sg:4b7b2ef6655d4b86ab97675ba01c70f4,-98.56496700000001,29.50765,480291819021,4,True,False,-98.633613,29.632163800000004,Offices of Dentists
186,sg:40caa6cc121745aa8d20bd246581a771,-98.62294200000001,29.647066,480291819021,5,True,False,-98.633613,29.632163800000004,Other Amusement and Recreation Industries
187,sg:a19622c6a61944b6b4637821e87167e5,-98.571901,29.505508000000003,480291819021,6,True,False,-98.633613,29.632163800000004,Traveler Accommodation
188,sg:a844adcaa97b429b9670f535d1475afa,-98.628569,29.501521999999998,480291819021,4,True,False,-98.633613,29.632163800000004,Building Equipment Contractors
189,sg:72152db86e1a4f6ab14cf4e36440be03,-98.646737,29.588569,480291819021,4,True,False,-98.633613,29.632163800000004,Services to Buildings and Dwellings
190,sg:f63945d7d31f4dd9b3c610f2c44d6422,-98.620356,29.637605999999998,480291819021,12,True,True,-98.633613,29.632163800000004,Lessors of Real Estate
191,sg:aa2ef41573a9418aae82aa77f4af4b79,-98.634913,29.635170000000002,480291819021,33,True,True,-98.633613,29.632163800000004,"Museums, Historical Sites, and Similar Institutions"
192,sg:f8ae8d2f23c7419db1c862e84bff3d79,-98.495078,29.422221,480291819021,6,True,False,-98.633613,29.632163800000004,Restaurants and Other Eating Places
193,sg:d9ac5e67f1cd4dc59c42075c557c4e73,-98.59744599999999,29.525116999999998,480291819021,4,True,False,-98.633613,29.632163800000004,Gasoline Stations
194,sg:aba22753b1ef412cbef8d499a069e876,-98.512251,29.379891999999998,480291819021,4,True,False,-98.633613,29.632163800000004,Gasoline Stations
195,sg:fcf1d7749fa741da9887db2327444fda,-98.60505400000001,29.616395,480291819021,5,True,False,-98.633613,29.632163800000004,Restaurants and Other Eating Places
196,sg:2beac46b98c747d68e4a7434eaaf591f,-98.468932,29.604502,480291819021,4,True,False,-98.633613,29.632163800000004,Restaurants and Other Eating Places
197,sg:5ac99034fb374e99a794f8c9b9c33b9a,-98.564842,29.596882,480291819021,4,True,False,-98.633613,29.632163800000004,Other Amusement and Recreation Industries
198,sg:dc96005187ca4dc1b791f75cde1f4f3d,-98.615767,29.625034000000003,480291819021,6,True,False,-98.633613,29.632163800000004,Depository Credit Intermediation
199,sg:587cd8b049db42d1bf2e668474017dd7,-98.498558,29.470501000000002,480291819021,4,True,False,-98.633613,29.632163800000004,Grocery Stores
200,sg:176109cf69a5459faf8127f8ac1eb164,-98.618758,29.640414,480291819021,7,True,True,-98.633613,29.632163800000004,Automobile Dealers
201,sg:158c96e1d66148fbb3e8c54f972c02de,-98.502555,29.453245000000003,480291819021,4,True,False,-98.633613,29.632163800000004,Electronics and Appliance Stores
202,sg:d3101b2d410a416793be5c8ecd8bd718,-98.574399,29.522016999999998,480291819021,4,True,False,-98.633613,29.632163800000004,Restaurants and Other Eating Places
203,sg:4f398aa8050241e586a3f802f1461009,-98.624278,29.645046999999998,480291819021,9,True,True,-98.633613,29.632163800000004,Child Day Care Services
204,sg:e582e368ece54900a74515f94bc88ed7,-98.635579,29.644371000000003,480291819021,4,True,False,-98.633613,29.632163800000004,"Colleges, Universities, and Professional Schools"
205,sg:502a5c3826d8475a8653cb8d5490e139,-98.417381,29.599083,480291819021,4,True,False,-98.633613,29.632163800000004,Restaurants and Other Eating Places
206,sg:ca9d460d8517478f8c57c24c5c97d40b,-98.609898,29.622021999999998,480291819021,5,True,False,-98.633613,29.632163800000004,"Other Professional, Scientific, and Technical Services"
207,sg:773d6eea9290429f829cfda6a8578c03,-98.591444,29.569224,480291819021,6,True,False,-98.633613,29.632163800000004,Automobile Dealers
208,sg:8513f3318bfe485bbcf94a9c3d6e67ca,-98.493189,29.624578000000003,480291819021,4,True,False,-98.633613,29.632163800000004,"Agencies, Brokerages, and Other Insurance Related Activities"
209,sg:4af01903d04c4b919082f7ed2be0e886,-98.579047,29.513509000000003,480291819021,4,True,False,-98.633613,29.632163800000004,Offices of Physicians
210,sg:be6e3244887645d6a5954e4a1c4b8eb1,-98.601122,29.607733000000003,480291819021,6,True,False,-98.633613,29.632163800000004,Restaurants and Other Eating Places
211,sg:28b38cfddaf4467d825e68e7bf446aa7,-98.627627,29.61171,480291819021,7,True,True,-98.633613,29.632163800000004,Elementary and Secondary Schools
212,sg:77f5ac88e8f74dde9b2158785137aec8,-98.525553,29.482144,480291819021,4,True,False,-98.633613,29.632163800000004,Grocery Stores
213,sg:feb31d261f8042429ceb226acdd329fa,-98.604054,29.61457,480291819021,16,True,True,-98.633613,29.632163800000004,Restaurants and Other Eating Places
214,sg:4dc4f00b846349bd9530abc45efe694e,-98.394276,29.535080999999998,480291918171,4,True,False,-98.4802165,29.623079600000004,Grocery Stores
215,sg:b349521394554986ab3bd341bc93125f,-98.47326600000001,29.609054999999998,480291918171,4,True,False,-98.4802165,29.623079600000004,Elementary and Secondary Schools
216,sg:8261e19fdc6147b0a14f482832922a7f,-98.504478,29.422959000000002,480291918171,4,True,False,-98.4802165,29.623079600000004,Other Personal Services
217,sg:04033c4459f64637a2ae1eb90ccea8b4,-98.49663000000001,29.413102000000002,480291918171,4,True,False,-98.4802165,29.623079600000004,"Museums, Historical Sites, and Similar Institutions"
218,sg:8c38a7450cd74d56a4f97fddc20e51f3,-98.48490799999999,29.614279999999997,480291918171,4,True,False,-98.4802165,29.623079600000004,Other Amusement and Recreation Industries
219,sg:bf4c6a75849d4e53bc74433b64012d08,-98.565182,29.600168,480291918171,4,True,False,-98.4802165,29.623079600000004,Offices of Physicians
220,sg:21bf901104f1470484e341277ca973a7,-98.485264,29.521380999999998,480291918171,4,True,False,-98.4802165,29.623079600000004,Traveler Accommodation
221,sg:74b920e0b4154f1f9a43fa992138a7f3,-98.506811,29.611204999999998,480291918171,4,True,False,-98.4802165,29.623079600000004,Restaurants and Other Eating Places
222,sg:74556e3cc1ca4c7880baeb670bba63a4,-98.468252,29.637890000000002,480291918171,10,True,True,-98.4802165,29.623079600000004,Elementary and Secondary Schools
223,sg:ad60690696a5499d9d9c4edda22d509a,-98.511351,29.60991,480291918171,4,True,False,-98.4802165,29.623079600000004,"Jewelry, Luggage, and Leather Goods Stores"
224,sg:68b9acc59e344e60b5018c96e543b009,-98.475492,29.61213,480291918171,47,True,True,-98.4802165,29.623079600000004,"General Merchandise Stores, including Warehouse Clubs and Supercenters"
225,sg:480aa9dcb4874200ac4dd4e90dded646,-98.489926,29.612306,480291918171,4,True,False,-98.4802165,29.623079600000004,"Agencies, Brokerages, and Other Insurance Related Activities"
226,sg:b3a11364224a437c85591d9573b7a922,-98.469029,29.615307,480291918171,4,True,False,-98.4802165,29.623079600000004,Lessors of Real Estate
227,sg:83aac402c3a34935880fb6bb9a5b98e6,-98.452156,29.635971,480291918171,4,True,False,-98.4802165,29.623079600000004,Restaurants and Other Eating Places
228,sg:36a7b3aafc5548f2b124ddece992321e,-98.491029,29.615270000000002,480291918171,4,True,False,-98.4802165,29.623079600000004,Offices of Real Estate Agents and Brokers
229,sg:7e822cc9dc154703b9126fe5ac483388,-98.45306500000001,29.641262,480291918171,7,True,True,-98.4802165,29.623079600000004,Used Merchandise Stores
230,sg:6a9b6b37c49a4cb6833b6727ad9109d2,-98.474508,29.637420000000002,480291918171,7,True,True,-98.4802165,29.623079600000004,Services to Buildings and Dwellings
231,sg:b9a81b98190e4d1d86bbc4af08def76a,-98.491381,29.620521999999998,480291918171,8,True,True,-98.4802165,29.623079600000004,Restaurants and Other Eating Places
232,sg:0e78af5e592b48f094e2402ecc43dd60,-98.45319599999999,29.566587,480291918171,4,True,False,-98.4802165,29.623079600000004,Restaurants and Other Eating Places
233,sg:58c87dc41023426d951b853f92400397,-98.47496899999999,29.615957,480291918171,5,True,False,-98.4802165,29.623079600000004,Offices of Physicians
234,sg:69f00b4f047c4bc4956db3757c2403dd,-98.453011,29.517007,480291918171,4,True,False,-98.4802165,29.623079600000004,Nondepository Credit Intermediation
235,sg:45e53fcc7abb4f9897f8f5cf36601ee7,-98.59705,29.571699,480291918171,4,True,False,-98.4802165,29.623079600000004,Restaurants and Other Eating Places
236,sg:e8c3995736014fde9facb007817e959d,-98.49168399999999,29.614071999999997,480291918171,4,True,False,-98.4802165,29.623079600000004,Personal Care Services
237,sg:f8f3b79dfec7478a8bb61e9b8e2a36f1,-98.476513,29.611397999999998,480291918171,4,True,False,-98.4802165,29.623079600000004,Restaurants and Other Eating Places
238,sg:6d72307f81894ec0b7bfb03067891fb6,-98.484513,29.614138,480291918171,17,True,True,-98.4802165,29.623079600000004,Lessors of Real Estate
239,sg:e281427e57094369b27dc4eb148ec088,-98.484207,29.611038,480291918171,5,True,False,-98.4802165,29.623079600000004,Electronics and Appliance Stores
240,sg:0ccdb4bea345484c884c0caef8d158e7,-98.488431,29.551090000000002,480291918171,4,True,False,-98.4802165,29.623079600000004,Building Material and Supplies Dealers
241,sg:fbe7f703f95b4cc38534f5d044abf2b5,-98.481212,29.642711,480291918171,18,True,True,-98.4802165,29.623079600000004,Restaurants and Other Eating Places
242,sg:2a745d23790747c3b18b87a9ae0311cc,-98.534164,29.584462,480291918171,4,True,False,-98.4802165,29.623079600000004,Restaurants and Other Eating Places
243,sg:c94a50381d904473b7a6214300a9e1e4,-98.508904,29.607701000000002,480291918171,4,True,False,-98.4802165,29.623079600000004,Restaurants and Other Eating Places
244,sg:0f83e8498c2e45f4baec7a8ad98a017e,-98.48134399999999,29.642173,480291918171,6,True,False,-98.4802165,29.623079600000004,Restaurants and Other Eating Places
245,sg:92bbbb377a58403e81559e03cd4451d2,-98.469566,29.608137,480291918171,5,True,False,-98.4802165,29.623079600000004,Restaurants and Other Eating Places
246,sg:675b8e81f8fe40fe9a4a7051c5b6cada,-98.469153,29.633214000000002,480291918171,4,True,False,-98.4802165,29.623079600000004,Other Amusement and Recreation Industries
247,sg:c6ff3201bea242aeaa9a2b63ca57d7d1,-98.454849,29.642401,480291918171,4,True,False,-98.4802165,29.623079600000004,Building Material and Supplies Dealers
248,sg:0eb309f7b2584c43ad4eb415f96a7a02,-98.486447,29.61641,480291918171,4,True,False,-98.4802165,29.623079600000004,"Other Professional, Scientific, and Technical Services"
249,sg:f6a349d1c60c4120b0f44d0440f328d0,-98.513434,29.62057,480291918171,6,True,False,-98.4802165,29.623079600000004,Restaurants and Other Eating Places
250,sg:e678b5d582cb4b7e9392c623291a4cad,-98.474441,29.619642,480291918171,10,True,True,-98.4802165,29.623079600000004,Depository Credit Intermediation
251,sg:3e2ab9ac84194596b6deafeb76249ba5,-98.45822700000001,29.638889000000002,480291918171,4,True,False,-98.4802165,29.623079600000004,Restaurants and Other Eating Places
252,sg:77f057bb45854bbf9a2bfcba04b718bb,-98.491066,29.620486,480291918171,14,True,True,-98.4802165,29.623079600000004,General Medical and Surgical Hospitals
253,sg:c92089248d084201953d57fbd067a3f9,-98.457162,29.633651,480291918171,6,True,False,-98.4802165,29.623079600000004,"Automotive Parts, Accessories, and Tire Stores"
254,sg:6a1c36bfc49d4d6d9a312d1fd0bef50e,-98.488838,29.619794,480291918171,4,True,False,-98.4802165,29.623079600000004,Elementary and Secondary Schools
255,sg:50550efcabe64842a2c87fe9ea93b392,-98.493775,29.627501000000002,480291918171,4,True,False,-98.4802165,29.623079600000004,Used Merchandise Stores
256,sg:24140b38367947ce975d501aff3bc681,-98.483995,29.6126,480291918171,5,True,False,-98.4802165,29.623079600000004,Other Amusement and Recreation Industries
257,sg:6e8920aa4d4f4e7e8d60c8c6d4e21420,-98.470665,29.612347999999997,480291918171,79,True,True,-98.4802165,29.623079600000004,"General Merchandise Stores, including Warehouse Clubs and Supercenters"
258,sg:c72ad9767de04c708c34c0697efea1ba,-98.50409,29.523898,480291918171,4,True,False,-98.4802165,29.623079600000004,Restaurants and Other Eating Places
259,sg:8b9e2d10a9ac46a8b48550fea0def7f5,-98.484925,29.61471,480291918171,7,True,True,-98.4802165,29.623079600000004,Restaurants and Other Eating Places
260,sg:fedf63c5d0184032954758aaf8169748,-98.451299,29.635937,480291918171,4,True,False,-98.4802165,29.623079600000004,"Other Professional, Scientific, and Technical Services"
261,sg:dd9bfaf3169f493eacf41eee8acc3324,-98.489262,29.616795,480291918171,4,True,False,-98.4802165,29.623079600000004,Health and Personal Care Stores
262,sg:cc9e80681e754c81b95aad14daf1803f,-98.480646,29.612656,480291918171,4,True,False,-98.4802165,29.623079600000004,Offices of Physicians
263,sg:b159a7bbe79441ae9191f78c35c6231e,-98.391929,29.562191,480291918171,7,True,True,-98.4802165,29.623079600000004,Gasoline Stations
264,sg:5d4bd9d69f13436a9b70bca90d396d54,-98.479537,29.642006,480291918171,4,True,False,-98.4802165,29.623079600000004,Other Amusement and Recreation Industries
265,sg:342d0d034f504e31b6ac48dceba3cab5,-98.466757,29.611671,480291918171,5,True,False,-98.4802165,29.623079600000004,Restaurants and Other Eating Places
266,sg:46e0a14123ba47068b6fe780a1d05fc4,-98.44158900000001,29.365188,480291918171,4,True,False,-98.4802165,29.623079600000004,Wired and Wireless Telecommunications Carriers
267,sg:4a411bd155c74d098b5ec5dca59078e1,-98.459334,29.608310999999997,480291918171,4,True,False,-98.4802165,29.623079600000004,"Sporting Goods, Hobby, and Musical Instrument Stores"
268,sg:43df0e1a6a8b417798ee3e48650a4b27,-98.53565400000001,29.604598,480291918171,4,True,False,-98.4802165,29.623079600000004,"Automotive Parts, Accessories, and Tire Stores"
269,sg:72700747d6c54e91b305d135b8f733d5,-98.43578000000001,29.662247999999998,480291918171,4,True,False,-98.4802165,29.623079600000004,Depository Credit Intermediation
270,sg:e95139b2cba342cc809fa2cfac4c582a,-98.47675,29.618171999999998,480291918171,4,True,False,-98.4802165,29.623079600000004,"Jewelry, Luggage, and Leather Goods Stores"
271,sg:d4c6c66cfe8f4dc0aac2ff60b84e99b9,-98.570095,29.512564,480291918171,4,True,False,-98.4802165,29.623079600000004,Restaurants and Other Eating Places
272,sg:2ebf330015294a8894e896aedf5cb0f2,-98.46990600000001,29.608553999999998,480291918171,10,True,True,-98.4802165,29.623079600000004,Restaurants and Other Eating Places
273,sg:fec1a0abad2c48ae87fad7bdb32f311a,-98.430764,29.34538,480291918171,4,True,False,-98.4802165,29.623079600000004,"Other Professional, Scientific, and Technical Services"
274,sg:93b0d451613048ad87c831daf41a94ff,-98.508573,29.613076,480291918171,4,True,False,-98.4802165,29.623079600000004,Depository Credit Intermediation
275,sg:8d02d3edc4ee4466bfe3e3bef77a7ea5,-98.449741,29.647608,480291918171,7,True,True,-98.4802165,29.623079600000004,Furniture Stores
276,sg:169caba60f8f4255a3f38068eaea24f2,-98.410713,29.543616999999998,480291918171,4,True,False,-98.4802165,29.623079600000004,Restaurants and Other Eating Places
277,sg:27809ea2efe84535aab3126c83d61224,-98.468939,29.610763000000002,480291918171,14,True,True,-98.4802165,29.623079600000004,Restaurants and Other Eating Places
278,sg:17bd2f867e974acd83a0865fe58299bb,-98.45683100000001,29.637116,480291918171,4,True,False,-98.4802165,29.623079600000004,Gasoline Stations
279,sg:5a3fb29a61934d37b99efa626d5f1377,-98.409426,29.571975,480291918171,4,True,False,-98.4802165,29.623079600000004,Building Material and Supplies Dealers
280,sg:813b0104c42e44c8a978b6342e0334da,-98.495455,29.626274,480291918171,11,True,True,-98.4802165,29.623079600000004,Gasoline Stations
281,sg:c001c55f6e14444289073f793b329797,-98.472234,29.610740999999997,480291918171,5,True,False,-98.4802165,29.623079600000004,Depository Credit Intermediation
282,sg:fceaa6ad2cb647f0b29e3086f7bdfa9f,-98.43544200000001,29.491413,480291918171,4,True,False,-98.4802165,29.623079600000004,Other Amusement and Recreation Industries
283,sg:9876d4cca8474c82abbd1635b5774fdd,-98.53429100000001,29.584362,480291918171,4,True,False,-98.4802165,29.623079600000004,Restaurants and Other Eating Places
284,sg:a01ca9cb27ad4c9c97ca7b0b5f4c63bd,-98.49301,29.615804999999998,480291918171,20,True,True,-98.4802165,29.623079600000004,Health and Personal Care Stores
285,sg:ed5c86d423c248f59e789523f018d865,-98.484537,29.560997999999998,480291918171,4,True,False,-98.4802165,29.623079600000004,Furniture Stores
286,sg:4101e815fc514c578431a1f7effab495,-98.492937,29.612214,480291918171,6,True,False,-98.4802165,29.623079600000004,Restaurants and Other Eating Places
287,sg:154c9f5c18254c0998045c61c26b51e3,-98.46483,29.518232,480291918171,4,True,False,-98.4802165,29.623079600000004,Restaurants and Other Eating Places
288,sg:f8a059e3b2094454a0cee76feb1a5c40,-98.464943,29.545785,480291918171,5,True,False,-98.4802165,29.623079600000004,"Office Supplies, Stationery, and Gift Stores"
289,sg:e49d984e16524232830c460a13d64d21,-98.491726,29.614440999999996,480291918171,5,True,False,-98.4802165,29.623079600000004,Child Day Care Services
290,sg:77ae1e11527340a784681284f54fcb95,-98.495739,29.62818,480291918171,9,True,True,-98.4802165,29.623079600000004,Restaurants and Other Eating Places
291,sg:51c38bc79ea741e39dd6f06356e89d70,-98.573762,29.510902,480291918171,4,True,False,-98.4802165,29.623079600000004,Home Health Care Services
292,sg:d4e8a9d8209e46a7b14fe6d861c5f0ef,-98.470298,29.59388,480291918171,4,True,False,-98.4802165,29.623079600000004,Used Merchandise Stores
293,sg:5d320a5d718f4a458ba4e5bdb486f9d6,-98.634179,29.665066999999997,480291821023,19,True,True,-98.6673593,29.692914000000002,Restaurants and Other Eating Places
294,sg:d3124d8e3dc74856ad9c0b0792f1e522,-98.57964,29.544199,480291821023,4,True,False,-98.6673593,29.692914000000002,Gasoline Stations
295,sg:40014c20c33e47b8955df39367022561,-98.631514,29.663442,480291821023,16,True,True,-98.6673593,29.692914000000002,Restaurants and Other Eating Places
296,sg:6ab169ec43f341209b72803e3b49cea2,-98.661159,29.556348999999997,480291821023,5,True,False,-98.6673593,29.692914000000002,Restaurants and Other Eating Places
297,sg:94b203b286c14e0b9eac9708b6997ede,-98.647349,29.672981,480291821023,8,True,True,-98.6673593,29.692914000000002,Elementary and Secondary Schools
298,sg:867f5af4096944b4a5b9a9db80f0553c,-98.520649,29.528963,480291821023,4,True,False,-98.6673593,29.692914000000002,Offices of Other Health Practitioners
299,sg:19a77e01ae8249729c081cbf6430c337,-98.593682,29.609909000000002,480291821023,5,True,False,-98.6673593,29.692914000000002,"General Merchandise Stores, including Warehouse Clubs and Supercenters"
300,sg:220c649792d7406a8a3d9a2d678a3b36,-98.578067,29.508022999999998,480291821023,8,True,True,-98.6673593,29.692914000000002,Offices of Physicians
301,sg:b7e2ecb5850847a5bed9b46fb9191f39,-98.539351,29.487127,480291821023,4,True,False,-98.6673593,29.692914000000002,Offices of Physicians
302,sg:8a88769b722c448fb61559b932ec70cf,-98.534037,29.601527,480291821023,4,True,False,-98.6673593,29.692914000000002,Other Amusement and Recreation Industries
303,sg:aceb907b774a4f66819b0ff109d2933c,-98.63412199999999,29.663418,480291821023,4,True,False,-98.6673593,29.692914000000002,Child Day Care Services
304,sg:150f2f82dd5341dda0a334d803671e0f,-98.638485,29.67657,480291821023,4,True,False,-98.6673593,29.692914000000002,Offices of Physicians
305,sg:aaa4211a14b94bfa8602d58997d12206,-98.63810699999999,29.676969,480291821023,4,True,False,-98.6673593,29.692914000000002,Restaurants and Other Eating Places
306,sg:3dd99697b75849eb8317416fce32aba6,-98.448379,29.651448,480291821023,4,True,False,-98.6673593,29.692914000000002,Other Amusement and Recreation Industries
307,sg:df2387768a0843798690e6545e49a113,-98.63101,29.662626,480291821023,16,True,True,-98.6673593,29.692914000000002,Restaurants and Other Eating Places
308,sg:bd6977c0764a40d392042bfea93a170a,-98.58372299999999,29.589133,480291821023,4,True,False,-98.6673593,29.692914000000002,Building Material and Supplies Dealers
309,sg:a4e73ab363cb438ca8a575745c49e76e,-98.571303,29.594448999999997,480291821023,4,True,False,-98.6673593,29.692914000000002,Other Financial Investment Activities
310,sg:12dd1af816a24615bdfee1cb1950ed15,-98.61050300000001,29.632463,480291821023,4,True,False,-98.6673593,29.692914000000002,"Museums, Historical Sites, and Similar Institutions"
311,sg:8217e6ec629a49a3be0c77d1d1ccfa31,-98.551971,29.599791999999997,480291821023,4,True,False,-98.6673593,29.692914000000002,Health and Personal Care Stores
312,sg:3e86a478dc774ed2a5fb59f24445192a,-98.634261,29.665507,480291821023,17,True,True,-98.6673593,29.692914000000002,Restaurants and Other Eating Places
313,sg:99312422086543f4abb3cf86bb1ad8fd,-98.573938,29.596140999999996,480291821023,4,True,False,-98.6673593,29.692914000000002,"Sporting Goods, Hobby, and Musical Instrument Stores"
314,sg:1aad54fad0364aa38136aed4bfb8ce23,-98.472296,29.238709000000004,480291821023,7,True,True,-98.6673593,29.692914000000002,Elementary and Secondary Schools
315,sg:40f81988b55a426cbc435c6e5e3b4e68,-98.55411099999999,29.50907,480291821023,4,True,False,-98.6673593,29.692914000000002,Automotive Repair and Maintenance
316,sg:f81f1d19aa4c4cd0a2831ba974914038,-98.585679,29.50522,480291821023,4,True,False,-98.6673593,29.692914000000002,Health and Personal Care Stores
317,sg:4aa7a0c1158d48c68cebd1b6e1d61f26,-98.62439300000001,29.649093,480291821023,4,True,False,-98.6673593,29.692914000000002,Restaurants and Other Eating Places
318,sg:68f22bb85238486e89ed812cb7e65557,-98.586611,29.564059999999998,480291821023,4,True,False,-98.6673593,29.692914000000002,Restaurants and Other Eating Places
319,sg:cd5ab62937cf4b6ca104847f4a424cb5,-98.63199499999999,29.664238,480291821023,10,True,True,-98.6673593,29.692914000000002,"General Merchandise Stores, including Warehouse Clubs and Supercenters"
320,sg:133fc352e4e14c389eda2b6db3c3a4e4,-98.636286,29.67421,480291821023,14,True,True,-98.6673593,29.692914000000002,Restaurants and Other Eating Places
321,sg:09d0568366c44b62953e6d7c130ca98d,-98.599204,29.610058000000002,480291821023,4,True,False,-98.6673593,29.692914000000002,Restaurants and Other Eating Places
322,sg:cf16a3d40d3e4390a2dfaa16f8ba0f92,-98.647904,29.675921000000002,480291821023,7,True,True,-98.6673593,29.692914000000002,Waste Treatment and Disposal
323,sg:53a83e6e6b124ee1a804265a3581df68,-98.52178599999999,29.532846000000003,480291821023,4,True,False,-98.6673593,29.692914000000002,Used Merchandise Stores
324,sg:c36d71dd121b4dabb8c72dc4df0f27d2,-98.427918,29.329957,480291821023,4,True,False,-98.6673593,29.692914000000002,Support Activities for Road Transportation
325,sg:e7ff1c3338534509947b765b8070a5bc,-98.63261700000001,29.66605,480291821023,7,True,True,-98.6673593,29.692914000000002,Restaurants and Other Eating Places
326,sg:1ff8c0e2b0ec4425afa627ca02439216,-98.605538,29.616599,480291821023,5,True,False,-98.6673593,29.692914000000002,Restaurants and Other Eating Places
327,sg:de7d01e4e5314995a282344e042cd5a5,-98.633689,29.664406,480291821023,16,True,True,-98.6673593,29.692914000000002,"Sporting Goods, Hobby, and Musical Instrument Stores"
328,sg:846c70b8fd5c4ce48db992d64257b8df,-98.490746,29.642926,480291918131,15,True,True,-98.5005681,29.6471159,Lessors of Real Estate
329,sg:055b636cd65c4d719d5511ad79d63ad7,-98.491349,29.610337,480291918131,4,True,False,-98.5005681,29.6471159,Clothing Stores
330,sg:3a1d6b5178d244b49f3eb31e9e7473a9,-98.457996,29.649725,480291918131,4,True,False,-98.5005681,29.6471159,Other Personal Services
331,sg:3b8830b15adf46de8c4a52283f023abb,-98.486986,29.6157,480291918131,4,True,False,-98.5005681,29.6471159,Child Day Care Services
332,sg:941651966df54089be8fccb89b12ea0d,-98.410381,29.438603000000004,480291918131,5,True,False,-98.5005681,29.6471159,Home Furnishings Stores
333,sg:ac838a880a6f40eaa780de7f3dae757e,-98.477273,29.613357,480291918131,6,True,False,-98.5005681,29.6471159,General Medical and Surgical Hospitals
334,sg:34ecac12200e4f149a37e9beb1eb28e8,-98.497697,29.631975,480291918131,4,True,False,-98.5005681,29.6471159,Child Day Care Services
335,sg:719e0c24e08c4588b055af1d73d09437,-98.504263,29.525288,480291918131,4,True,False,-98.5005681,29.6471159,Offices of Dentists
336,sg:560d3857c8294f348e30f25ad9b3c047,-98.504677,29.647608,480291918131,4,True,False,-98.5005681,29.6471159,Child Day Care Services
337,sg:7f67f90cdb28415ead8ae7dc977ec872,-98.448171,29.450846000000002,480291918131,4,True,False,-98.5005681,29.6471159,Restaurants and Other Eating Places
338,sg:3b6f3684f5884198912f7ae67c93e2b7,-98.509056,29.609709999999996,480291918131,4,True,False,-98.5005681,29.6471159,Clothing Stores
339,sg:149c9157da944509b802a5fcec8ac988,-98.495351,29.625319,480291918131,4,True,False,-98.5005681,29.6471159,Building Equipment Contractors
340,sg:d21d32e08f9647eb813a8beae759889c,-98.491095,29.642809999999997,480291918131,4,True,False,-98.5005681,29.6471159,Used Merchandise Stores
341,sg:d310269b0ddc44328a39edf29c6a7e6d,-98.488035,29.610003000000003,480291918131,4,True,False,-98.5005681,29.6471159,Restaurants and Other Eating Places
342,sg:0b64bcdf9f3f49f3a324aa0ab0cd5540,-98.512929,29.620332,480291918131,6,True,False,-98.5005681,29.6471159,Lessors of Real Estate
343,sg:a445b63186b94b86963349fe1e3527d8,-98.471952,29.593718,480291918131,6,True,False,-98.5005681,29.6471159,Restaurants and Other Eating Places
344,sg:a7f0f773d2124842809c39be8265fbed,-98.67234499999999,29.5506,480291918131,5,True,False,-98.5005681,29.6471159,Traveler Accommodation
345,sg:84f23fab24e84816bfb9db3ebe34942c,-98.45423199999999,29.635159,480291918131,4,True,False,-98.5005681,29.6471159,Other Amusement and Recreation Industries
346,sg:585e99b7ab074042a12931f160b84eac,-98.491681,29.64501,480291918131,4,True,False,-98.5005681,29.6471159,Gasoline Stations
347,sg:491eb938afa54c44a59e08a01b354ed6,-98.509676,29.609489,480291918131,4,True,False,-98.5005681,29.6471159,Restaurants and Other Eating Places
348,sg:95603bc44099456a86d69399dd02cdc3,-98.462257,29.473628,480291918131,4,True,False,-98.5005681,29.6471159,Clothing Stores
349,sg:aa9ff6b2c37c412bb4fc0cf9fa1a8bec,-98.497633,29.644022999999997,480291918131,4,True,False,-98.5005681,29.6471159,Clothing Stores
350,sg:7f1596e6a83a4f3e8c147cc09b4c6989,-98.531402,29.518117999999998,480291918131,4,True,False,-98.5005681,29.6471159,Other Amusement and Recreation Industries
351,sg:4ffc879a5bee4fc8827089d31ebc43eb,-98.49754300000001,29.656401000000002,480291918131,20,True,True,-98.5005681,29.6471159,Elementary and Secondary Schools
352,sg:56edbc09f7fa434c98be0a753e0730be,-98.49284899999999,29.612951000000002,480291918131,4,True,False,-98.5005681,29.6471159,Restaurants and Other Eating Places
353,sg:9f9d777b2e5d433dafd8db3dc0f4588e,-98.499851,29.633537,480291918131,7,True,True,-98.5005681,29.6471159,Continuing Care Retirement Communities and Assisted Living Facilities for the Elderly
354,sg:30f5192406c44412845eda597b28893e,-98.690026,29.50341,480291918131,4,True,False,-98.5005681,29.6471159,Health and Personal Care Stores
355,sg:5d15c07d553c47038c159cd45c8f48e2,-98.477825,29.611807000000002,480291918131,4,True,False,-98.5005681,29.6471159,Other Amusement and Recreation Industries
356,sg:0ecd480bf48940608cb8f138385a5746,-98.495662,29.628607000000002,480291918131,4,True,False,-98.5005681,29.6471159,Restaurants and Other Eating Places
357,sg:080222603576473c85eb58365f899af6,-98.493796,29.632115000000002,480291918131,4,True,False,-98.5005681,29.6471159,Health and Personal Care Stores
358,sg:ea22e02deeb440b686de7c51eaae78d0,-98.495337,29.528104,480291918131,4,True,False,-98.5005681,29.6471159,Used Merchandise Stores
359,sg:fc2568e237574ef9ba9f31bfac759efd,-98.509313,29.601852,480291918131,4,True,False,-98.5005681,29.6471159,Drycleaning and Laundry Services
360,sg:c8b4e188ef86408d96b03c4762af45d8,-98.512212,29.609464000000003,480291918131,4,True,False,-98.5005681,29.6471159,Restaurants and Other Eating Places
361,sg:8318548d97ba4d9fad683bf43037140f,-98.496511,29.629040000000003,480291918131,4,True,False,-98.5005681,29.6471159,Other Amusement and Recreation Industries
362,sg:ae209f18d88c4f5daa312844afbe6575,-98.499054,29.659334,480291918131,25,True,True,-98.5005681,29.6471159,Rail Transportation
363,sg:4c8d997e59d0461388241f7063df62cc,-98.493349,29.644882,480291918131,5,True,False,-98.5005681,29.6471159,Child Day Care Services
364,sg:4b8828aeea954b6885e82b7ffc1a026b,-98.494087,29.62299,480291918131,4,True,False,-98.5005681,29.6471159,Offices of Physicians
365,sg:897ef618bf854dd6bf49c38c3588477f,-98.458958,29.376771,480291411013,4,False,False,-98.4436598,29.3574237,Clothing Stores
366,sg:583d79abd95b44c0883cbdeb3f1d175e,-98.432025,29.407272,480291411013,4,False,False,-98.4436598,29.3574237,Offices of Physicians
367,sg:e80a90387cf9432eb3ff795fb7dd5bfb,-98.442786,29.359063,480291411013,4,False,False,-98.4436598,29.3574237,Religious Organizations
368,sg:43b14cbcaeab4014bb266ab79d2b05b4,-98.424661,29.355207,480291411013,7,False,True,-98.4436598,29.3574237,Depository Credit Intermediation
369,sg:3485105785e94f5996edd2e822f1fc8d,-98.469893,29.437595,480291411013,4,False,False,-98.4436598,29.3574237,Restaurants and Other Eating Places
370,sg:bb2424dcf4a94684990b474e48bb03b3,-98.503926,29.373089,480291411013,4,False,False,-98.4436598,29.3574237,Restaurants and Other Eating Places
371,sg:9f4d3912b9b044deb3c1b0348a9721a8,-98.679407,29.518165000000003,480291411013,4,False,False,-98.4436598,29.3574237,Automotive Repair and Maintenance
372,sg:915b709e58c343ccb2685f2a972da70f,-98.442965,29.368418,480291720021,5,True,False,-98.76837890000002,29.398788399999997,Restaurants and Other Eating Places
373,sg:92133972f8cc467fb4dbded5c56ffa0f,-98.545047,29.486787,480291720021,4,True,False,-98.76837890000002,29.398788399999997,"Sporting Goods, Hobby, and Musical Instrument Stores"
374,sg:aae952638f8c4b7d99c32572a899a26b,-98.499641,29.513979,480291720021,4,True,False,-98.76837890000002,29.398788399999997,"Automotive Parts, Accessories, and Tire Stores"
375,sg:db2d05aacfbf4ea0a9f823dfdda2b399,-98.703801,29.433868,480291720021,9,True,True,-98.76837890000002,29.398788399999997,Grocery Stores
376,sg:746bc1b3c6b14042860a577aa131ef05,-98.738212,29.430172,480291720021,12,True,True,-98.76837890000002,29.398788399999997,Other Amusement and Recreation Industries
377,sg:021b52b42dea4c11b420f11ea2efdd1a,-98.597329,29.369178,480291720021,4,True,False,-98.76837890000002,29.398788399999997,Depository Credit Intermediation
378,sg:0c2377d07e0e4124871bddd2a88ce0f9,-98.605538,29.485805,480291720021,5,True,False,-98.76837890000002,29.398788399999997,Automobile Dealers
379,sg:87c288fa9d9644dbb713cf9f7bf04afa,-98.759139,29.402340000000002,480291720021,5,True,False,-98.76837890000002,29.398788399999997,Other Amusement and Recreation Industries
380,sg:55757fe50b61425e90035162e400914e,-98.662414,29.444251,480291720021,9,True,True,-98.76837890000002,29.398788399999997,Restaurants and Other Eating Places
381,sg:59c9a5c8874e4fdd99c9a56c17ac0786,-98.74824100000001,29.430537,480291720021,20,True,True,-98.76837890000002,29.398788399999997,Restaurants and Other Eating Places
382,sg:f475f835cd014d5ba00a0edee2ad5205,-98.684561,29.465452000000003,480291720021,4,True,False,-98.76837890000002,29.398788399999997,Offices of Physicians
383,sg:baba840069b14666acfc7cb0cf9a6aea,-98.65591500000001,29.438812,480291720021,5,True,False,-98.76837890000002,29.398788399999997,Restaurants and Other Eating Places
384,sg:56fec17dcb9a48568dade5f8cba9e583,-98.73597099999999,29.382540000000002,480291720021,8,True,True,-98.76837890000002,29.398788399999997,Continuing Care Retirement Communities and Assisted Living Facilities for the Elderly
385,sg:7cdab21e425a4dfbb540df5487c787c9,-98.492127,29.453546999999997,480291720021,4,True,False,-98.76837890000002,29.398788399999997,Offices of Other Health Practitioners
386,sg:3ace205ceb494e16b560ff452f8c4c57,-98.66350200000001,29.551067,480291720021,4,True,False,-98.76837890000002,29.398788399999997,Restaurants and Other Eating Places
387,sg:6087386d30cb40a8bf5a7f56f6d78955,-98.501292,29.355867,480291720021,4,True,False,-98.76837890000002,29.398788399999997,"Colleges, Universities, and Professional Schools"
388,sg:768302ab000d445e900fc18fddaae098,-98.47535699999999,29.511358,480291720021,4,True,False,-98.76837890000002,29.398788399999997,Home Health Care Services
389,sg:f9be88b9afd145169b5e125f2047ec86,-98.713193,29.430569000000002,480291720021,4,True,False,-98.76837890000002,29.398788399999997,"Sporting Goods, Hobby, and Musical Instrument Stores"
390,sg:07b049ed4573443daed321337badd847,-98.665593,29.477109000000002,480291720021,4,True,False,-98.76837890000002,29.398788399999997,Offices of Physicians
391,sg:e1c6d708087f4025af3b2afd86ab95d7,-98.745374,29.424502,480291720021,4,True,False,-98.76837890000002,29.398788399999997,Elementary and Secondary Schools
392,sg:f4aeea9295d34eefbf357c6c0dc89304,-98.716513,29.433863,480291720021,23,True,True,-98.76837890000002,29.398788399999997,Gasoline Stations
393,sg:7d87fc85714b435391024e7b75402bf7,-98.767876,29.420739,480291720021,29,True,True,-98.76837890000002,29.398788399999997,Gasoline Stations
394,sg:6539b02027494e5da24797adff4e848a,-98.792176,29.426353000000002,480291720021,4,True,False,-98.76837890000002,29.398788399999997,Depository Credit Intermediation
395,sg:1ec46f7f23a4436f8963be2d7d6171bc,-98.706562,29.487785,480291720021,5,True,False,-98.76837890000002,29.398788399999997,Restaurants and Other Eating Places
396,sg:2f5e5b4615a349abb12cea5cd7bc0489,-98.687062,29.462467999999998,480291720021,4,True,False,-98.76837890000002,29.398788399999997,Offices of Physicians
397,sg:993a3328fa35408ca292c9658d440930,-98.70626800000001,29.436007,480291720021,7,True,True,-98.76837890000002,29.398788399999997,Restaurants and Other Eating Places
398,sg:86f7c8b46a4b4ec492ccbe6c195d32c9,-98.738116,29.429035,480291720021,36,True,True,-98.76837890000002,29.398788399999997,Health and Personal Care Stores
399,sg:bde11c9b14264abda01d577df81cc0d6,-98.66547800000001,29.441786999999998,480291720021,4,True,False,-98.76837890000002,29.398788399999997,Restaurants and Other Eating Places
400,sg:d792634cce8b42daa904d48c4a7e3794,-98.625629,29.461266,480291720021,4,True,False,-98.76837890000002,29.398788399999997,Restaurants and Other Eating Places
401,sg:dc8022432f434d9eb802735cb4a46d25,-98.588894,29.553414,480291720021,4,True,False,-98.76837890000002,29.398788399999997,Traveler Accommodation
402,sg:e41f70c19cb14e46b98f512006376b82,-98.762909,29.418289,480291720021,6,True,False,-98.76837890000002,29.398788399999997,Building Material and Supplies Dealers
403,sg:7a6b4545d01444c2bd82101e8a808f92,-98.556533,29.522458,480291720021,4,True,False,-98.76837890000002,29.398788399999997,Home Health Care Services
404,sg:82e26665cda545b7a23926e854864182,-98.684596,29.451884000000003,480291720021,4,True,False,-98.76837890000002,29.398788399999997,Offices of Other Health Practitioners
405,sg:56edf6d4bb754116a1cd65289b586799,-98.709998,29.436846000000003,480291720021,19,True,True,-98.76837890000002,29.398788399999997,Restaurants and Other Eating Places
406,sg:111c49ec991f416996ad7a9653166fa8,-98.421665,29.507941,480291720021,4,True,False,-98.76837890000002,29.398788399999997,Other Amusement and Recreation Industries
407,sg:869ca884f2704c3880faa62c53d2ab97,-98.730399,29.431521999999998,480291720021,4,True,False,-98.76837890000002,29.398788399999997,"Automotive Parts, Accessories, and Tire Stores"
408,sg:53a3948ef4e54c89a19d294996a155f1,-98.7023,29.435233,480291720021,55,True,True,-98.76837890000002,29.398788399999997,Restaurants and Other Eating Places
409,sg:5adc8307a8b14f7592db65d08a52f2c1,-98.75924,29.386233,480291720021,43,True,True,-98.76837890000002,29.398788399999997,Other Amusement and Recreation Industries
410,sg:d1868b47a60b4d51a3f0ccd46eaee289,-98.748622,29.430190000000003,480291720021,16,True,True,-98.76837890000002,29.398788399999997,Restaurants and Other Eating Places
411,sg:40bc52cc8e7c498d829bfa966d0238c2,-98.506497,29.418534,480291720021,4,True,False,-98.76837890000002,29.398788399999997,"Beer, Wine, and Liquor Stores"
412,sg:1442e46a9ebf42b3b1f56e6829419a02,-98.459848,29.518302000000002,480291720021,4,True,False,-98.76837890000002,29.398788399999997,Restaurants and Other Eating Places
413,sg:f0930bb43bbd4405bff41b8e832fb7d5,-98.591548,29.530313,480291720021,4,True,False,-98.76837890000002,29.398788399999997,Offices of Physicians
414,sg:c860d414daa54df99dbccefc866f20ac,-98.491215,29.549405,480291720021,4,True,False,-98.76837890000002,29.398788399999997,Medical and Diagnostic Laboratories
415,sg:48508932bda240969dcd7832543b0fb9,-98.776362,29.421978000000003,480291720021,14,True,True,-98.76837890000002,29.398788399999997,Restaurants and Other Eating Places
416,sg:6cfd869e687f4d62879ccd63374514b1,-98.59917,29.368109999999998,480291720021,4,True,False,-98.76837890000002,29.398788399999997,Grocery Stores
417,sg:86c3d537826d492495dc3d7c586e177d,-98.65243199999999,29.444415999999997,480291720021,4,True,False,-98.76837890000002,29.398788399999997,Child Day Care Services
418,sg:f2a81efb6678415883830bd927c3fa45,-98.794526,29.419989,480291720021,4,True,False,-98.76837890000002,29.398788399999997,Depository Credit Intermediation
419,sg:1c4d70cb6fcf48ae9bdaf60d2f474ff6,-98.708271,29.436224,480291720021,4,True,False,-98.76837890000002,29.398788399999997,Restaurants and Other Eating Places
420,sg:486b3a0413214500a9fde8835cb01d80,-98.631149,29.403705,480291720021,4,True,False,-98.76837890000002,29.398788399999997,Restaurants and Other Eating Places
421,sg:a4aaabe7d349474d8d878fa7549e7681,-98.599322,29.483962,480291720021,4,True,False,-98.76837890000002,29.398788399999997,Building Material and Supplies Dealers
422,sg:2349d0ebbbb04d9fa9b99a79c35b4699,-98.647426,29.437115000000002,480291720021,4,True,False,-98.76837890000002,29.398788399999997,Restaurants and Other Eating Places
423,sg:33b3fb9a86cf45d7b6fd1c875a499772,-98.617751,29.493715,480291720021,4,True,False,-98.76837890000002,29.398788399999997,"Museums, Historical Sites, and Similar Institutions"
424,sg:880c195cdd1846c089e2b6c62cbfaea7,-98.654269,29.436002000000002,480291720021,9,True,True,-98.76837890000002,29.398788399999997,Restaurants and Other Eating Places
425,sg:55d91ed50fc5408691411b5d22a50575,-98.572461,29.516168,480291720021,4,True,False,-98.76837890000002,29.398788399999997,Offices of Dentists
426,sg:f67e1e8e137242b181f8c092d3cd760c,-98.463949,29.464365,480291720021,4,True,False,-98.76837890000002,29.398788399999997,"Jewelry, Luggage, and Leather Goods Stores"
427,sg:1a4adadf2e9b4426a9f01b8250f5efe5,-98.47649399999999,29.583886,480291720021,4,True,False,-98.76837890000002,29.398788399999997,"Sporting Goods, Hobby, and Musical Instrument Stores"
428,sg:f97dede5e05b407097b4aded37b7c828,-98.650796,29.504509999999996,480291720021,5,True,False,-98.76837890000002,29.398788399999997,"Sporting Goods, Hobby, and Musical Instrument Stores"
429,sg:5220b196f9df4537a4c73d484df12010,-98.66115400000001,29.444858,480291720021,6,True,False,-98.76837890000002,29.398788399999997,Restaurants and Other Eating Places
430,sg:2ecd795997ae42f6b592c060441c5b3d,-98.608302,29.483290000000004,480291720021,4,True,False,-98.76837890000002,29.398788399999997,Health and Personal Care Stores
431,sg:38767469680d4f13921f79bebad1b053,-98.431331,29.516636,480291720021,4,True,False,-98.76837890000002,29.398788399999997,Offices of Physicians
432,sg:c23098bbe35f475882f8181e47fb3922,-98.74865600000001,29.429854,480291720021,4,True,False,-98.76837890000002,29.398788399999997,Gasoline Stations
433,sg:e6b10a4585ec4e44b47b7a97879abde9,-98.710111,29.437765000000002,480291720021,23,True,True,-98.76837890000002,29.398788399999997,Restaurants and Other Eating Places
434,sg:f9ab21e269ee4fe5a5492539db194e3d,-98.739977,29.429053000000003,480291720021,6,True,False,-98.76837890000002,29.398788399999997,"Automotive Parts, Accessories, and Tire Stores"
435,sg:e2f40aa64ca242488fd1cef7e19f4a40,-98.709634,29.487641999999997,480291720021,4,True,False,-98.76837890000002,29.398788399999997,Restaurants and Other Eating Places
436,sg:95d327084c4146009f49be812077e38e,-98.661454,29.504834000000002,480291817132,4,False,False,-98.6407525,29.4837905,Furniture Stores
437,sg:c5dd67dba538410595c79f38e726d8af,-98.697276,29.465885999999998,480291817132,6,False,False,-98.6407525,29.4837905,Offices of Physicians
438,sg:8a5c1fd49fa94fc6bb1fe638151b79b5,-98.636335,29.481258,480291817132,4,False,False,-98.6407525,29.4837905,Building Equipment Contractors
439,sg:deca69bbee72485f8347c8b130cd7db5,-98.569975,29.427553000000003,480291817132,4,False,False,-98.6407525,29.4837905,Restaurants and Other Eating Places
440,sg:2f585027f1414ad9b95e5d987cf4c507,-98.637158,29.480884999999997,480291817132,4,False,False,-98.6407525,29.4837905,"General Merchandise Stores, including Warehouse Clubs and Supercenters"
441,sg:d222436de8a24e9abc8ed7619d543953,-98.57694000000001,29.486555,480291817132,4,False,False,-98.6407525,29.4837905,"Sporting Goods, Hobby, and Musical Instrument Stores"
442,sg:acc2aaa3a0bc4898b406c007e0460c58,-98.58983,29.448697999999997,480291817132,4,False,False,-98.6407525,29.4837905,Grocery Stores
443,sg:6831e637f7fa41fab4fd17792a58ef6d,-98.53783100000001,29.446717,480291817132,4,False,False,-98.6407525,29.4837905,Automobile Dealers
444,sg:90bfe283c6ae46448840699d462426f8,-98.482277,29.381894,480291817132,4,False,False,-98.6407525,29.4837905,"Museums, Historical Sites, and Similar Institutions"
445,sg:a70c73165ee54f45b48ba0955c8bb428,-98.49454300000001,29.532845000000002,480291817132,4,False,False,-98.6407525,29.4837905,Restaurants and Other Eating Places
446,sg:9f6fe39a92844ae5a816a9c110d5b77b,-98.48713599999999,29.407133,480291218041,4,True,False,-98.37351679999999,29.571066499999997,"Sporting Goods, Hobby, and Musical Instrument Stores"
447,sg:6284f4d5414d403eaada9dd36f2162f5,-98.374739,29.574673999999998,480291218041,5,True,False,-98.37351679999999,29.571066499999997,Depository Credit Intermediation
448,sg:2c7478e86ba54a4c973c89ba0b024d92,-98.460265,29.501140000000003,480291218041,4,True,False,-98.37351679999999,29.571066499999997,Elementary and Secondary Schools
449,sg:479fa98d86e8462e8fa36917730ed434,-98.47721899999999,29.432083000000002,480291218041,4,True,False,-98.37351679999999,29.571066499999997,Clothing Stores
450,sg:87c9f3e145cb4cd7a0e30b7e18049e92,-98.573718,29.509409,480291218041,5,True,False,-98.37351679999999,29.571066499999997,"Colleges, Universities, and Professional Schools"
451,sg:02dba4b6297e451ebcbf81e38aa8e428,-98.47606400000001,29.418353000000003,480291218041,4,True,False,-98.37351679999999,29.571066499999997,Restaurants and Other Eating Places
452,sg:24fd2eac40854f24be6b3e774894c0a8,-98.412578,29.53045,480291218041,4,True,False,-98.37351679999999,29.571066499999997,"Electric Power Generation, Transmission and Distribution"
453,sg:f930b57383d34698940d232f61551329,-98.371235,29.5748,480291218041,4,True,False,-98.37351679999999,29.571066499999997,"Agencies, Brokerages, and Other Insurance Related Activities"
454,sg:5508db9e349d47d19fd04da7da6bc336,-98.371862,29.568608,480291218041,4,True,False,-98.37351679999999,29.571066499999997,Services to Buildings and Dwellings
455,sg:05de22cace464320bccb61c552547c70,-98.44866999999999,29.516776,480291218041,4,True,False,-98.37351679999999,29.571066499999997,Couriers and Express Delivery Services
456,sg:e2a0066497d54bfa97e493fafe56db77,-98.374546,29.575896000000004,480291218041,4,True,False,-98.37351679999999,29.571066499999997,"Sporting Goods, Hobby, and Musical Instrument Stores"
457,sg:d0b9d69612904e9ca32b7496a21b55ef,-98.377496,29.573977000000003,480291218041,7,True,True,-98.37351679999999,29.571066499999997,Gasoline Stations
458,sg:10cad77620c948f0969c28dd46eded72,-98.414201,29.539482,480291218041,4,True,False,-98.37351679999999,29.571066499999997,Electronics and Appliance Stores
459,sg:a782abfe97bd4d1486f60a7ee87f66f4,-98.379414,29.571303000000004,480291218041,4,True,False,-98.37351679999999,29.571066499999997,Child Day Care Services
460,sg:ae2067d340f143ecb42cb7d47970e5ec,-98.621315,29.582183,480291218041,4,True,False,-98.37351679999999,29.571066499999997,Spectator Sports
461,sg:0dd60bf170c84aa5a763ed7730655aa1,-98.409838,29.547352000000004,480291218041,8,True,True,-98.37351679999999,29.571066499999997,Restaurants and Other Eating Places
462,sg:ae71d3023f1a40a8b8bcfb308c5d01fd,-98.52905200000001,29.544869,482014509001,6,False,False,-95.56231629999999,29.7419374,Offices of Dentists
463,sg:cc756aa73114482888e1cb81d5eaf8e2,-98.485125,29.440837,484930003002,4,False,False,-98.1619902,29.113663199999998,"Museums, Historical Sites, and Similar Institutions"
464,sg:adbba61811284ca8a14bdfe57979a804,-98.494426,29.424611,484930003002,4,False,False,-98.1619902,29.113663199999998,Other Miscellaneous Store Retailers
465,sg:d6b7334397c34cfd9f49209f473bec43,-98.499854,29.358157000000002,484930003002,4,False,False,-98.1619902,29.113663199999998,Offices of Physicians
466,sg:cfab2a007c2e499e87cc5182613c2ff2,-98.51456999999999,29.577609999999996,480190003002,4,False,False,-98.88746090000001,29.6563843,Offices of Dentists
467,sg:c8e083d31d1f4c12b81110f8eb2d791d,-98.568505,29.596356,480190003002,4,False,False,-98.88746090000001,29.6563843,Offices of Physicians
468,sg:c0deb8fde752416481cd891a9f0a84cf,-98.56544699999999,29.535659000000003,480190003002,4,False,False,-98.88746090000001,29.6563843,Other Amusement and Recreation Industries
469,sg:4cc98b3a6aff4afebef27fdbcc90fc31,-98.700115,29.506006,480190003002,5,False,False,-98.88746090000001,29.6563843,Other Amusement and Recreation Industries
470,sg:c5f79d04cb14476097598f46e889f896,-98.534684,29.558569,480190003002,4,False,False,-98.88746090000001,29.6563843,Grocery Stores
471,sg:4b440dc2a75d4facbae7a0ac5205d912,-98.56761,29.523367999999998,480190003002,4,False,False,-98.88746090000001,29.6563843,Personal Care Services
472,sg:d40a010ced8f40febc87a214d259eae0,-98.46655,29.460903000000002,480291920003,4,False,False,-98.4661881,29.455615500000004,Restaurants and Other Eating Places
473,sg:eda916a492fc4ff5ac9fc6f7b5736173,-98.46139000000001,29.45516,480291920003,6,False,False,-98.4661881,29.455615500000004,Grocery Stores
474,sg:db425de3087a485cbad7d9cbfd7ac5c6,-98.617438,29.636487,480291920003,4,False,False,-98.4661881,29.455615500000004,Continuing Care Retirement Communities and Assisted Living Facilities for the Elderly
475,sg:4bfcd9302c704f4c87d8672a4889cdef,-98.453807,29.358227000000003,480291920003,4,False,False,-98.4661881,29.455615500000004,Elementary and Secondary Schools
476,sg:c73f1520215647c886ea8c6a1d2b237d,-98.46999100000001,29.455665000000003,480291920003,4,False,False,-98.4661881,29.455615500000004,Restaurants and Other Eating Places
477,sg:367aae77e8d94f9aa5bb71f64097678d,-98.468336,29.454827,480291920003,5,False,False,-98.4661881,29.455615500000004,"Museums, Historical Sites, and Similar Institutions"
478,sg:08a24389ddea4df39b7e490921bffa88,-98.499488,29.460962,480291920003,5,False,False,-98.4661881,29.455615500000004,Offices of Dentists
479,sg:db0d7935196347e7b0f380b4a45c98f2,-98.624717,29.57668,480291818192,4,True,False,-98.6121958,29.5652342,Restaurants and Other Eating Places
480,sg:71d9b839c2f0443e9f5f5f604ed37a6e,-98.443986,29.578318,480291818192,4,True,False,-98.6121958,29.5652342,Restaurants and Other Eating Places
481,sg:2ef029c7a24c427383ee7c1f87fce9ab,-98.602063,29.563457,480291818192,9,True,True,-98.6121958,29.5652342,Restaurants and Other Eating Places
482,sg:06e33c7b46eb4399b4aa5e0fb6d1fb17,-98.591953,29.561363,480291818192,4,True,False,-98.6121958,29.5652342,Other Miscellaneous Store Retailers
483,sg:199a4e520d754bd18b50ec4a9921ab14,-98.511234,29.401522999999997,480291818192,6,True,False,-98.6121958,29.5652342,Restaurants and Other Eating Places
484,sg:dc789c9ef22e4f1ea69f36fb9ab4ce26,-98.47829499999999,29.432457,480291818192,4,True,False,-98.6121958,29.5652342,Drinking Places (Alcoholic Beverages)
485,sg:845be0df70194a11ba502c9ba8e39a14,-98.615404,29.556774,480291818192,4,True,False,-98.6121958,29.5652342,Restaurants and Other Eating Places
486,sg:5d94d6d9f7cf4a6ea99844d26c0db811,-98.615515,29.556733,480291818192,4,True,False,-98.6121958,29.5652342,Gasoline Stations
487,sg:edd8523c3f434164a219420e71f0465f,-98.40389,29.409715999999996,480291818192,4,True,False,-98.6121958,29.5652342,Home Health Care Services
488,sg:2f24138251bc4eaea80438ab6f05faa5,-98.588122,29.563191999999997,480291818192,8,True,True,-98.6121958,29.5652342,Restaurants and Other Eating Places
489,sg:6ef017a8e4e74da4a85a71780794eb19,-98.604984,29.563487,480291818192,8,True,True,-98.6121958,29.5652342,"Automotive Parts, Accessories, and Tire Stores"
490,sg:dde8c98d9c4c443b8560d72b2cea1dc4,-98.612735,29.562576,480291818192,4,True,False,-98.6121958,29.5652342,Restaurants and Other Eating Places
491,sg:fd013d9567384347ac876a7f16b77955,-98.40563900000001,29.514551,480291818192,4,True,False,-98.6121958,29.5652342,Motion Picture and Video Industries
492,sg:1c5e5de719c544adb8aa7f2b181de2ba,-98.43979,29.527101000000002,480291818192,4,True,False,-98.6121958,29.5652342,Restaurants and Other Eating Places
493,sg:5b1de644b4a545f0a99da4951c86b0ce,-98.596,29.567988,480291818192,6,True,False,-98.6121958,29.5652342,Traveler Accommodation
494,sg:39c9b98a00f14408914ed9f16043a949,-98.501937,29.413096999999997,480291818192,4,True,False,-98.6121958,29.5652342,Other Miscellaneous Store Retailers
495,sg:68024d3b1d094cfbb5f7cca9ed0c4cfb,-98.610254,29.562586,480291818192,4,True,False,-98.6121958,29.5652342,Other Amusement and Recreation Industries
496,sg:b960b473a5e54c6ebcd4162c69434af3,-98.489715,29.540188,480291818192,4,True,False,-98.6121958,29.5652342,"Sporting Goods, Hobby, and Musical Instrument Stores"
497,sg:a6a241f00f2f4ab5947cf90f0dba5d14,-98.49893900000001,29.44305,480291818192,8,True,True,-98.6121958,29.5652342,Restaurants and Other Eating Places
498,sg:b38c818218744bfb8e0e0e941fd4231d,-98.599994,29.560153999999997,480291818192,4,True,False,-98.6121958,29.5652342,Furniture Stores
499,sg:1358512f017743279b3357dee53ff0b3,-98.567882,29.600037,480291818192,4,True,False,-98.6121958,29.5652342,Furniture Stores
500,sg:9c5ea770bade42918107c923070a77d2,-98.575785,29.51257,480291818192,4,True,False,-98.6121958,29.5652342,Offices of Physicians
501,sg:5e0e07d650d34b03917559cfbe10e100,-98.501296,29.357171,480291818192,4,True,False,-98.6121958,29.5652342,Depository Credit Intermediation
502,sg:29207f59fd4f45ba99ab2da3bb736a2d,-98.394752,29.53823,480291818192,5,True,False,-98.6121958,29.5652342,Gasoline Stations
503,sg:7f426ee5c9824f33b813ab6e6e500ad3,-98.613823,29.561121999999997,480291818192,4,True,False,-98.6121958,29.5652342,Automotive Equipment Rental and Leasing
504,sg:21f110614cf54e1980fbc5b28d5be34b,-98.60272900000001,29.565238,480291818192,11,True,True,-98.6121958,29.5652342,"General Merchandise Stores, including Warehouse Clubs and Supercenters"
505,sg:c69bbf3a615c4d3994a350f7e3e3e551,-98.589524,29.561488,480291818192,11,True,True,-98.6121958,29.5652342,Restaurants and Other Eating Places
506,sg:d6f5039733094ed08d06974c6fa13a74,-98.623775,29.564775,480291818192,21,True,True,-98.6121958,29.5652342,"Museums, Historical Sites, and Similar Institutions"
507,sg:4f5cad8d6e87458bbad74a64818a4a0d,-98.601665,29.563578000000003,480291818192,4,True,False,-98.6121958,29.5652342,Grocery Stores
508,sg:9e9866db0b554124bb75985bb578aa2d,-98.6054,29.563655999999998,480291818192,7,True,True,-98.6121958,29.5652342,"Office Supplies, Stationery, and Gift Stores"
509,sg:bfaf082fe8544195947202ff4322b303,-98.620962,29.591378999999996,480291818192,4,True,False,-98.6121958,29.5652342,Motion Picture and Video Industries
510,sg:a3e04faa564b4607b613de7030fa4eab,-98.493589,29.618487,480291818192,4,True,False,-98.6121958,29.5652342,Offices of Physicians
511,sg:4ca001b5281f462d88a19523a848dbd2,-98.585541,29.565721999999997,480291818192,13,True,True,-98.6121958,29.5652342,Restaurants and Other Eating Places
512,sg:8b73090d73cf4f42928ab6b0c7a1e331,-98.596062,29.564569,480291818192,77,True,True,-98.6121958,29.5652342,"General Merchandise Stores, including Warehouse Clubs and Supercenters"
513,sg:f0a4507bfc6844b29853d9039e25a611,-98.589225,29.563291999999997,480291818192,14,True,True,-98.6121958,29.5652342,Restaurants and Other Eating Places
514,sg:4b3f01bf663e42508de9194443499986,-98.60822900000001,29.563782,480291818192,6,True,False,-98.6121958,29.5652342,Religious Organizations
515,sg:19a8976d25e34974baa2d9e069a82071,-98.586579,29.563815,480291818192,4,True,False,-98.6121958,29.5652342,Clothing Stores
516,sg:4906e78b26204dadab96132ad7a9dfb4,-98.58925500000001,29.550767999999998,480291818192,4,True,False,-98.6121958,29.5652342,"Colleges, Universities, and Professional Schools"
517,sg:06cc5d2a4bd84f1f85952feec9fd7082,-98.54301600000001,29.487074,480291818192,4,True,False,-98.6121958,29.5652342,Home Health Care Services
518,sg:bed1bd40201b45ad91fbb3aeb0e46cb8,-98.599315,29.562659999999997,480291818192,6,True,False,-98.6121958,29.5652342,Restaurants and Other Eating Places
519,sg:f7111ecf6f434ee9a95125ecaf79bc16,-98.615588,29.54642,480291818192,4,True,False,-98.6121958,29.5652342,Restaurants and Other Eating Places
520,sg:ba05823303cf4bc3b2ee651dc737fccb,-98.60453100000001,29.518114,480291818192,4,True,False,-98.6121958,29.5652342,Restaurants and Other Eating Places
521,sg:08b67d97a92d49659ba14e06d5c536ba,-98.568236,29.512876000000002,480291818192,4,True,False,-98.6121958,29.5652342,Restaurants and Other Eating Places
522,sg:b341c245d9824db8a3046ae9dfa529b9,-98.58716899999999,29.562014,480291818192,87,True,True,-98.6121958,29.5652342,Lessors of Real Estate
523,sg:ea8f093978034e6ab0d246d4386affe2,-98.614399,29.562005,480291818192,13,True,True,-98.6121958,29.5652342,Gasoline Stations
524,sg:eb6d7426a634424eb0fae7cdd70d0929,-98.60034300000001,29.525612,480291818192,4,True,False,-98.6121958,29.5652342,Restaurants and Other Eating Places
525,sg:464b01132ca645469d549091c9dd299a,-98.501646,29.428156,480291818192,4,True,False,-98.6121958,29.5652342,"Accounting, Tax Preparation, Bookkeeping, and Payroll Services"
526,sg:01af3f1052d84fe1836e5b27c2ba1a72,-98.61927,29.496048,480291818192,4,True,False,-98.6121958,29.5652342,"Sporting Goods, Hobby, and Musical Instrument Stores"
527,sg:94dc6bd6bb8b43abb138708636363dde,-98.615493,29.556739,480291818192,5,True,False,-98.6121958,29.5652342,Gasoline Stations
528,sg:f666518a50494755ac28bfd8dddb6425,-98.601616,29.563407,480291818192,10,True,True,-98.6121958,29.5652342,Gasoline Stations
529,sg:f0f1a210978d4e508c8d0d4af9d7acbc,-98.588078,29.562082,480291818192,53,True,True,-98.6121958,29.5652342,Grocery Stores
530,sg:f59109ec7616430ea32442df5a352914,-98.614368,29.552599,480291818192,8,True,True,-98.6121958,29.5652342,"General Merchandise Stores, including Warehouse Clubs and Supercenters"
531,sg:957c17746e2b4f28bd466a2ec0b609b4,-98.577473,29.518356,480291818192,4,True,False,-98.6121958,29.5652342,Elementary and Secondary Schools
532,sg:2b991ad42bd64b579a8f7775c788e5dc,-98.62492900000001,29.511496,480291818192,4,True,False,-98.6121958,29.5652342,Automotive Repair and Maintenance
533,sg:df7f35f792ab4ed582ef2a158f19ae15,-98.48609599999999,29.396544,480291402004,4,False,False,-98.4833662,29.396439899999997,Other Amusement and Recreation Industries
534,sg:fc5bf653caa140db98ac4f29dc0f6af2,-98.481257,29.395640000000004,480291402004,5,False,False,-98.4833662,29.396439899999997,Restaurants and Other Eating Places
535,sg:b3434ee3af4c49ad8c29b77fdc108c67,-98.47796899999999,29.408471999999996,480291402004,4,False,False,-98.4833662,29.396439899999997,Beverage Manufacturing
536,sg:80dbf7b60a224f1e96309e0ca2c14360,-98.494958,29.42355,480291402004,5,False,False,-98.4833662,29.396439899999997,Restaurants and Other Eating Places
537,sg:28022c99854547469769982c09e98ddb,-98.472572,29.352152,480291402004,4,False,False,-98.4833662,29.396439899999997,Florists
538,sg:e06195cd05ee4d51ac3120715c3ea904,-98.453161,29.352932,480291402004,4,False,False,-98.4833662,29.396439899999997,Restaurants and Other Eating Places
539,sg:e6bc4089d56b4ba788411a05559ca41b,-98.41548,29.539534999999997,480913105022,4,False,False,-98.0780308,29.704849600000003,"Colleges, Universities, and Professional Schools"
540,sg:2bb890c8900b4b1ab9000d992a447160,-98.083937,29.718334000000002,480913105022,22,False,True,-98.0780308,29.704849600000003,"Museums, Historical Sites, and Similar Institutions"
541,sg:8652ed3590cd427b8e5b5c0d52641955,-98.47455,29.5073,480913105022,4,False,False,-98.0780308,29.704849600000003,Restaurants and Other Eating Places
542,sg:2eab90d697f74ff5b2ede95b00794707,-98.663993,29.554708,480913105022,4,False,False,-98.0780308,29.704849600000003,Offices of Other Health Practitioners
543,sg:f3df4ea75a7945b5aa95be1395ab5f13,-98.591813,29.533337,480291914052,4,False,False,-98.5284684,29.563477600000002,Medical and Diagnostic Laboratories
544,sg:118a705dd363453793c50a15d63f5620,-98.43470400000001,29.436279,480291914052,4,False,False,-98.5284684,29.563477600000002,Automotive Equipment Rental and Leasing
545,sg:2b53fded1a244583aa431d0e41e0b76a,-98.410474,29.517457,480291914052,5,False,False,-98.5284684,29.563477600000002,Restaurants and Other Eating Places
546,sg:6a2eda9131a94808a11b3d53de43366d,-98.512002,29.577278999999997,480291914052,4,False,False,-98.5284684,29.563477600000002,Offices of Dentists
547,sg:1247321d02724ef0acfd1760d4eddb20,-98.473514,29.422209000000002,480291914052,4,False,False,-98.5284684,29.563477600000002,Religious Organizations
548,sg:73caa63c6b874b7380758793423f740d,-98.529843,29.603778000000002,480291914052,4,False,False,-98.5284684,29.563477600000002,Depository Credit Intermediation
549,sg:b8c0b0ce3ce14ccb8b005e5e4e432776,-98.486575,29.391389,480291914052,4,False,False,-98.5284684,29.563477600000002,Restaurants and Other Eating Places
550,sg:de7c8b61b98d477d8a4235c0565d7e26,-98.534318,29.566415999999997,480291914052,6,False,False,-98.5284684,29.563477600000002,Continuing Care Retirement Communities and Assisted Living Facilities for the Elderly
551,sg:0ad2640aa046497c9bca014ffbef164b,-98.48401199999999,29.564718,480291923004,5,False,False,-98.49030429999999,29.567125300000004,"Office Supplies, Stationery, and Gift Stores"
552,sg:46573beafcbb475ebedf4e3484994261,-98.487713,29.568209999999997,480291923004,5,False,False,-98.49030429999999,29.567125300000004,Lessors of Real Estate
553,sg:e6f3663b26e04768b24ef6f1152fdab1,-98.488662,29.565690999999998,480291923004,4,False,False,-98.49030429999999,29.567125300000004,"Office Supplies, Stationery, and Gift Stores"
554,sg:8c052677e20d4376a443cd2e67868c3a,-98.48530500000001,29.553666999999997,480291923004,4,False,False,-98.49030429999999,29.567125300000004,Depository Credit Intermediation
555,sg:57f5fd5fbebb4f30b6a02b0564ea7895,-98.48877,29.565440000000002,480291923004,4,False,False,-98.49030429999999,29.567125300000004,"Office Supplies, Stationery, and Gift Stores"
556,sg:db9af40abf0f4b40b1ad623844decb22,-98.414276,29.517034999999996,480291923004,4,False,False,-98.49030429999999,29.567125300000004,Child Day Care Services
557,sg:fe8db1375e7c430c9f801165372aa03e,-98.451044,29.645148,480291923004,5,False,False,-98.49030429999999,29.567125300000004,Furniture Stores
558,sg:59ac4674dacb444ca12f51d389d05beb,-98.487955,29.56849,480291923004,4,False,False,-98.49030429999999,29.567125300000004,
559,sg:105bb6548b0e42ef9fd83137f548d332,-98.68144000000001,29.437023999999997,480291719142,4,True,False,-98.6843397,29.433063300000004,Grocery Stores
560,sg:a5ae18491683445dbe3b4e34ec829615,-98.620712,29.458235,480291719142,7,True,True,-98.6843397,29.433063300000004,Building Material and Supplies Dealers
561,sg:f4c6a1c2570b4699877fe1f79188970c,-98.658439,29.545554,480291719142,5,True,False,-98.6843397,29.433063300000004,Building Material and Supplies Dealers
562,sg:bb8590de5f934888b75a39f5b0094624,-98.681613,29.432545,480291719142,4,True,False,-98.6843397,29.433063300000004,Automotive Repair and Maintenance
563,sg:a719c234a23542b4be4216fee49f49ff,-98.535409,29.489715999999998,480291719142,4,True,False,-98.6843397,29.433063300000004,"Sporting Goods, Hobby, and Musical Instrument Stores"
564,sg:cd62352f398b440b9a0547b8b35ac10c,-98.64745400000001,29.418516999999998,480291719142,4,True,False,-98.6843397,29.433063300000004,"Automotive Parts, Accessories, and Tire Stores"
565,sg:971c08c120884b6baea2b8d24eeee6a0,-98.461106,29.420633000000002,480291719142,4,True,False,-98.6843397,29.433063300000004,"Automotive Parts, Accessories, and Tire Stores"
566,sg:f58e1d83813f4dd9bfb8c25674d42c1a,-98.438385,29.344862,480291719142,4,True,False,-98.6843397,29.433063300000004,Medical and Diagnostic Laboratories
567,sg:c971872b9bb040d7b11e2403593bdffc,-98.532719,29.585278999999996,480291719142,4,True,False,-98.6843397,29.433063300000004,Restaurants and Other Eating Places
568,sg:be98d1f89b7046cb96811b913e00d1ac,-98.68666800000001,29.49284,480291719142,8,True,True,-98.6843397,29.433063300000004,Child Day Care Services
569,sg:20cea1c419f64b7a89c8e75c717f374b,-98.682816,29.453466,480291719142,4,True,False,-98.6843397,29.433063300000004,Offices of Physicians
570,sg:77e5fd8bc7d3475184bbed85974cb2d0,-98.487999,29.427134000000002,480291719142,4,True,False,-98.6843397,29.433063300000004,Other Amusement and Recreation Industries
571,sg:e0d47c8eda3040bb80491f22fc97715e,-98.608385,29.518031,480291719142,5,True,False,-98.6843397,29.433063300000004,Traveler Accommodation
572,sg:1bf55004959a4368a3e23b6c726164a6,-98.48732199999999,29.463657,480291720022,4,True,False,-98.723742,29.4214783,Other Information Services
573,sg:3a54b32bac9d4f50b96569faa14775c6,-98.714062,29.433839000000003,480291720022,135,True,True,-98.723742,29.4214783,"General Merchandise Stores, including Warehouse Clubs and Supercenters"
574,sg:08bd4c510a93481e9f9b91162fba537a,-98.704011,29.433651,480291720022,15,True,True,-98.723742,29.4214783,Electronics and Appliance Stores
575,sg:70f137b2ac914ad1a2755604ddb10a2a,-98.70998900000001,29.435158,480291720022,30,True,True,-98.723742,29.4214783,Grocery Stores
576,sg:444468172316442d961c1d8f183f4b21,-98.547124,29.354499,480291720022,4,True,False,-98.723742,29.4214783,Offices of Physicians
577,sg:6a5c7291f5db4090ac6a374e1126502f,-98.71005500000001,29.436190000000003,480291720022,25,True,True,-98.723742,29.4214783,Restaurants and Other Eating Places
578,sg:e68112e5508b40bb9fa88827ad3da509,-98.599326,29.559244,480291720022,5,True,False,-98.723742,29.4214783,"Sporting Goods, Hobby, and Musical Instrument Stores"
579,sg:78c7f7555dfb490aa258efa7fa2cfe07,-98.48648299999999,29.462047,480291720022,4,True,False,-98.723742,29.4214783,Child Day Care Services
580,sg:4aa7ece5d6a24b3faa8e0776344c74e0,-98.69787,29.510588000000002,480291720022,4,True,False,-98.723742,29.4214783,Child Day Care Services
581,sg:2de180ba41fb4dc7bf7d36342cf79bfe,-98.551849,29.334901000000002,480291720022,5,True,False,-98.723742,29.4214783,Other Information Services
582,sg:b37bc3a15c594bc583875a7d2da52787,-98.709941,29.435153999999997,480291720022,5,True,False,-98.723742,29.4214783,Restaurants and Other Eating Places
583,sg:4b72c3d67ab14953adf8c0cc67ce7f59,-98.630208,29.508415999999997,480291720022,5,True,False,-98.723742,29.4214783,Restaurants and Other Eating Places
584,sg:eca2512e83784065bc1936937a016bf8,-98.736992,29.426868,480291720022,4,True,False,-98.723742,29.4214783,Home Furnishings Stores
585,sg:0ca66e0e78d5438183004776721fa8dd,-98.7911,29.523203999999996,480291720022,6,True,False,-98.723742,29.4214783,Depository Credit Intermediation
586,sg:58bb266a52ad4527aa06e987450ba496,-98.369651,29.396696999999996,480291720022,4,True,False,-98.723742,29.4214783,Support Activities for Road Transportation
587,sg:2d3e441ae7ab4dfe8fe186859d14ca43,-98.701926,29.492366999999998,480291720022,4,True,False,-98.723742,29.4214783,Building Material and Supplies Dealers
588,sg:07c799f414cb425198e08e975e3f9d7e,-98.473906,29.420917,480291720022,4,True,False,-98.723742,29.4214783,Used Merchandise Stores
589,sg:4a0520cf75d54385ad6002c39c693bf9,-98.683532,29.43621,480291720022,4,True,False,-98.723742,29.4214783,Other Amusement and Recreation Industries
590,sg:f2f1e81e1cb7408c845fa53b01fc25a6,-98.595477,29.566623999999997,480291720022,8,True,True,-98.723742,29.4214783,Gasoline Stations
591,sg:54a55aa9a8144afabdedf6bfb55d9e97,-98.750201,29.444172,480291720022,4,True,False,-98.723742,29.4214783,"Sporting Goods, Hobby, and Musical Instrument Stores"
592,sg:4783694d8e7b4b2f84abeb33cc266f69,-98.725471,29.431519,480291720022,5,True,False,-98.723742,29.4214783,Grocery Stores
593,sg:659f4ecb1e4d44ba94cc02d06d4cab75,-98.50631700000001,29.518152,480291720022,4,True,False,-98.723742,29.4214783,Restaurants and Other Eating Places
594,sg:7137c3e4128e40dd802ff1f382d307b0,-98.70439300000001,29.433635,480291720022,9,True,True,-98.723742,29.4214783,Health and Personal Care Stores
595,sg:3edb349e09f046af839da63d91a5c1cf,-98.703802,29.433875,480291720022,8,True,True,-98.723742,29.4214783,"Beer, Wine, and Liquor Stores"
596,sg:e5309dc4f2bc46df997073a452ff67de,-98.732783,29.430039,480291720022,6,True,False,-98.723742,29.4214783,Restaurants and Other Eating Places
597,sg:ddd7cb641c464326b224ebde4af68ffc,-98.716773,29.419254,480291720022,4,True,False,-98.723742,29.4214783,Other Miscellaneous Store Retailers
598,sg:d85a679715e8418a885d4943d3a7f9e3,-98.729446,29.430646000000003,480291720022,23,True,True,-98.723742,29.4214783,"General Merchandise Stores, including Warehouse Clubs and Supercenters"
599,sg:abd97d9dc1de4b3ba4bbddd85343447a,-98.500137,29.425041999999998,480291720022,4,True,False,-98.723742,29.4214783,Restaurants and Other Eating Places
600,sg:af7ee98f8c754ccb9bfbde68b3725269,-98.49320300000001,29.433190000000003,480291720022,5,True,False,-98.723742,29.4214783,"Museums, Historical Sites, and Similar Institutions"
601,sg:6b74ba3737bb46bb9a5778dfab4fa20a,-98.660595,29.444937,480291720022,6,True,False,-98.723742,29.4214783,Restaurants and Other Eating Places
602,sg:830441956a7b43cba295d5cc57bc779a,-98.550392,29.459003000000003,480291720022,4,True,False,-98.723742,29.4214783,Grocery Stores
603,sg:a7dd397ba8fc422c86fab5aff9d5e856,-98.621539,29.384079999999997,480291720022,4,True,False,-98.723742,29.4214783,"Museums, Historical Sites, and Similar Institutions"
604,sg:750caf3e22394ad0bbca49bdbdc565b8,-98.60423399999999,29.481863,480291720022,4,True,False,-98.723742,29.4214783,Offices of Physicians
605,sg:9dd618751c17477282d385cdb173371c,-98.684487,29.464665999999998,480291720022,6,True,False,-98.723742,29.4214783,Offices of Physicians
606,sg:4252b5f38d394c7a9a845fee1b066ec3,-98.516272,29.635199,480291720022,4,True,False,-98.723742,29.4214783,Other Amusement and Recreation Industries
607,sg:9896a7767dcc457081682a0f1e667e87,-98.572006,29.515052,480291720022,4,True,False,-98.723742,29.4214783,Child Day Care Services
608,sg:9e7dd4a621ef4ed297644ecbc7ed8534,-98.726522,29.432125,480291720022,28,True,True,-98.723742,29.4214783,Gasoline Stations
609,sg:8bbb6f1343174024b312d71c7b80487f,-98.636477,29.443402000000003,480291720022,4,True,False,-98.723742,29.4214783,Restaurants and Other Eating Places
610,sg:1356428adde449329c93c90e37e2ca95,-98.64911,29.467901,480291720022,4,True,False,-98.723742,29.4214783,Child Day Care Services
611,sg:7125c463a19c4b02bc48d695461a0879,-98.737004,29.433909999999997,480291720022,12,True,True,-98.723742,29.4214783,Elementary and Secondary Schools
612,sg:efdb169331f64dfdb4398703ebbd9d5d,-98.730271,29.430597,480291720022,14,True,True,-98.723742,29.4214783,Restaurants and Other Eating Places
613,sg:86f0340544604e2f902ef7e409a901de,-98.516778,29.635831,480291720022,4,True,False,-98.723742,29.4214783,Other Amusement and Recreation Industries
614,sg:8d2c56520da944e89f416500d20b798a,-98.736373,29.429144,480291720022,4,True,False,-98.723742,29.4214783,"Automotive Parts, Accessories, and Tire Stores"
615,sg:5f438e84bf6140e0a52082ca112536a6,-98.71001700000001,29.438246000000003,480291720022,15,True,True,-98.723742,29.4214783,Restaurants and Other Eating Places
616,sg:f3b30df951f741689e69dfe0e1d1548a,-98.683412,29.436244,480291720022,4,True,False,-98.723742,29.4214783,Restaurants and Other Eating Places
617,sg:a5217c97b12341e89bb30036be5244f6,-98.569287,29.486695,480291720022,4,True,False,-98.723742,29.4214783,Grocery Stores
618,sg:d69783c630f741a3bb323cf44cce6255,-98.72986,29.430701000000003,480291720022,7,True,True,-98.723742,29.4214783,Restaurants and Other Eating Places
619,sg:16eecaa996dd404b83083bfe15a2e11f,-98.49080500000001,29.620548,480291720022,4,True,False,-98.723742,29.4214783,Offices of Physicians
620,sg:58580bc880294100a59539be7a1c0841,-98.410391,29.528864000000002,480291720022,4,True,False,-98.723742,29.4214783,Child Day Care Services
621,sg:3b3a1072a2924787a85a1eca66d9eec0,-98.500875,29.522299,480291720022,4,True,False,-98.723742,29.4214783,Restaurants and Other Eating Places
622,sg:498c49165c9f46faaac778bcde0358bb,-98.527997,29.408107,480291720022,4,True,False,-98.723742,29.4214783,Restaurants and Other Eating Places
623,sg:45d5e991ce104632a078c57c616a61cb,-98.671581,29.439153000000005,480291720022,4,True,False,-98.723742,29.4214783,Religious Organizations
624,sg:4d56a9ba6b43469882258d17e6fccb88,-98.713635,29.428344,480291720022,17,True,True,-98.723742,29.4214783,Lessors of Real Estate
625,sg:a46a48d0442b412bbc92e8b69c2c6222,-98.72091999999999,29.413145,480291720022,4,True,False,-98.723742,29.4214783,Other Personal Services
626,sg:226af6cf03fc4d939891df8e9e74dbbc,-98.690979,29.463693,480291720022,4,True,False,-98.723742,29.4214783,Restaurants and Other Eating Places
627,sg:982a75848c6642bcb8bfcb6ee87d99c2,-98.710095,29.435603999999998,480291720022,6,True,False,-98.723742,29.4214783,Restaurants and Other Eating Places
628,sg:4965d05c9c274347a0dc98b90ddd0505,-98.590705,29.513782,480291720022,6,True,False,-98.723742,29.4214783,Offices of Dentists
629,sg:44037af3f03c48a993ed816a6836e1a2,-98.725528,29.431659999999997,480291720022,54,True,True,-98.723742,29.4214783,Gasoline Stations
630,sg:47f1c610c15f4b52ae33076a056095aa,-98.72585699999999,29.419571,480291720022,7,True,True,-98.723742,29.4214783,Medical and Diagnostic Laboratories
631,sg:0442f65019024ea7bf901a12871dd1b5,-98.579204,29.642431,480291720022,6,True,False,-98.723742,29.4214783,Restaurants and Other Eating Places
632,sg:ebf1faa7735447689852e1e5dd09e214,-98.715752,29.434271000000003,480291720022,14,True,True,-98.723742,29.4214783,Restaurants and Other Eating Places
633,sg:1fef641047d946a6aaf88b8d6b270017,-98.378208,29.57422,480291720022,4,True,False,-98.723742,29.4214783,Child Day Care Services
634,sg:89eff79745af49dc903faa1984181e86,-98.683837,29.436241,480291720022,5,True,False,-98.723742,29.4214783,Lessors of Real Estate
635,sg:c3825574487847a295d1d4ab094bd849,-98.715188,29.418896999999998,480291720022,4,True,False,-98.723742,29.4214783,Electronics and Appliance Stores
636,sg:03476e7a8bfd42139a5f04bfcb69fe39,-98.692642,29.419187,480291720022,4,True,False,-98.723742,29.4214783,Depository Credit Intermediation
637,sg:ee9a1ef8f6cb4c79abb0e680465bdb6c,-98.709362,29.48981,480291720022,5,True,False,-98.723742,29.4214783,"Sporting Goods, Hobby, and Musical Instrument Stores"
638,sg:20f9aa3cae41427288441221582768a0,-98.587108,29.48767,480291720022,4,True,False,-98.723742,29.4214783,Gasoline Stations
639,sg:360faf49a8004c9784d91f234a0c7f50,-98.603616,29.637021999999998,480291918071,23,True,True,-98.6135898,29.653356,Elementary and Secondary Schools
640,sg:11a6ce3c40984dd38425a92da9fda8c5,-98.556472,29.49633,480291918071,6,True,False,-98.6135898,29.653356,Other Financial Investment Activities
641,sg:265b02a076414247a98242076dd19813,-98.627443,29.663006,480291918071,4,True,False,-98.6135898,29.653356,Other Amusement and Recreation Industries
642,sg:af9e895127d8484f9392e2a35e9e747a,-98.60298399999999,29.611890999999996,480291918071,5,True,False,-98.6135898,29.653356,Restaurants and Other Eating Places
643,sg:408cd550ff9c40c4a7f3f8d2aadf3361,-98.599083,29.605411,480291918071,7,True,True,-98.6135898,29.653356,Electronics and Appliance Stores
