,safegraph_place_id,longitude,latitude,cbg,visits,hotspot_origin,hotspot_destination,cbg_longitude,cbg_latitude,top_category
0,sg:1646943c1ca547cd97c1ac73e8094e45,-97.893535,30.256572,482090109104,4,True,False,-97.8662059,29.9898149,"Sporting Goods, Hobby, and Musical Instrument Stores"
1,sg:a9ec3cae309e41bbbc36acdf3e6460c8,-97.715317,30.386939,482090109104,4,True,False,-97.8662059,29.9898149,"Office Supplies, Stationery, and Gift Stores"
2,sg:b5591a16fdbb499793fbf9a2c96a6af7,-97.747377,30.399814000000003,482090109104,4,True,False,-97.8662059,29.9898149,"Beer, Wine, and Liquor Stores"
3,sg:84669f24edde4260b973c55351839788,-97.783289,30.175559999999997,482090109104,4,True,False,-97.8662059,29.9898149,"Beer, Wine, and Liquor Stores"
4,sg:2e9ca3a5937c481b8e3899e4ee3258d1,-97.772662,30.247922999999997,482090109104,4,True,False,-97.8662059,29.9898149,Other Miscellaneous Store Retailers
5,sg:f62f231bcb0143f8b2199328a4cb73ea,-97.860107,29.994507000000002,482090109104,15,True,True,-97.8662059,29.9898149,"Museums, Historical Sites, and Similar Institutions"
6,sg:de4310f726aa482bbdb41f6c486f54eb,-97.760924,30.240606,482090109104,5,True,True,-97.8662059,29.9898149,Restaurants and Other Eating Places
7,sg:2c7829d393d64be685cd128eb9b94928,-97.732902,30.358976000000002,482090109104,4,True,False,-97.8662059,29.9898149,Elementary and Secondary Schools
8,sg:ed4f3cb1b6144e2ea5997855b04b66d8,-97.738488,30.260324,482090109104,4,True,False,-97.8662059,29.9898149,Restaurants and Other Eating Places
9,sg:8ee28c497bbd4cfca8a67813b7a71e9c,-97.865911,30.233103999999997,482090109104,4,True,False,-97.8662059,29.9898149,"Sporting Goods, Hobby, and Musical Instrument Stores"
10,sg:773379c1f9c74db7bca330a6aa4e63e1,-97.74011800000001,30.188621,482090109104,6,True,True,-97.8662059,29.9898149,Elementary and Secondary Schools
11,sg:69441686a431472cb5134c50d2eb8156,-97.81134200000001,30.204644000000002,482090109104,6,True,True,-97.8662059,29.9898149,Offices of Dentists
12,sg:1fe9a606d7744c88ac9e3d58241fc313,-97.930341,30.397104,484530017661,4,True,False,-97.99352890000002,30.5486587,Building Material and Supplies Dealers
13,sg:6cb88ede1e894e2a8bc67c96a43c6104,-97.755425,30.340653999999997,484530017661,7,True,True,-97.99352890000002,30.5486587,Offices of Other Health Practitioners
14,sg:a61dbeae977c46ae99cdee2e4ffc4684,-97.72375100000001,30.402915999999998,484530017661,4,True,False,-97.99352890000002,30.5486587,Restaurants and Other Eating Places
15,sg:ece97f27419142089dd4aed3fa2370b8,-97.68123100000001,30.331545000000002,484530017661,4,True,False,-97.99352890000002,30.5486587,Home Health Care Services
16,sg:3293493942ba4f9687e54aed1ba82255,-97.71565799999999,30.304312,484530017661,4,True,False,-97.99352890000002,30.5486587,Restaurants and Other Eating Places
17,sg:29d12696e123486e80a01fec47bd24f7,-97.92726800000001,30.411796000000002,484530017661,4,True,False,-97.99352890000002,30.5486587,Restaurants and Other Eating Places
18,sg:d42dbb2366c5439ab49f062bc19ee8a2,-97.71995600000001,30.275090000000002,484530017661,4,True,False,-97.99352890000002,30.5486587,Other Miscellaneous Store Retailers
19,sg:045985072f4a4faeb97266109c28ab74,-97.738826,30.36468,484530017661,5,True,True,-97.99352890000002,30.5486587,Health and Personal Care Stores
20,sg:1fff6eeaa1b2487bb246b4359f52b06e,-97.816571,30.206571999999998,484530017503,4,True,False,-97.8173682,30.2143085,Other Amusement and Recreation Industries
21,sg:773e2c8c549f4753a12c8a9e7711d41a,-97.79992800000001,30.215639000000003,484530017503,4,True,False,-97.8173682,30.2143085,Other Amusement and Recreation Industries
22,sg:50a40120c9c942c590e3fd8b8f1f931f,-97.800259,30.215496,484530017503,5,True,True,-97.8173682,30.2143085,Other Miscellaneous Store Retailers
23,sg:2bf51dc3aa6a46d983b226d3763c4f73,-97.742071,30.266625,484530017503,4,True,False,-97.8173682,30.2143085,Drinking Places (Alcoholic Beverages)
24,sg:030dea8faaca495ab2afa65806062821,-97.754424,30.248762,484530017503,4,True,False,-97.8173682,30.2143085,"Museums, Historical Sites, and Similar Institutions"
25,sg:e956788bea9f4051a9d566b598acfe53,-97.845486,30.181028,484530017503,4,True,False,-97.8173682,30.2143085,Home Health Care Services
26,sg:5783d37457164bd8ac8f4b6153816562,-97.80627700000001,30.20369,484530017503,4,True,False,-97.8173682,30.2143085,Health and Personal Care Stores
27,sg:669c996d61484098b0dc72d2061fb881,-97.82952399999999,30.166748,484530017503,4,True,False,-97.8173682,30.2143085,"Office Supplies, Stationery, and Gift Stores"
28,sg:d1e61b6302b64985a6bfcb22b64baa8a,-97.81727099999999,30.208308000000002,484530017503,4,True,False,-97.8173682,30.2143085,Restaurants and Other Eating Places
29,sg:450723ed3b1a4483bb236e2a1d2926c6,-97.797127,30.172139,484530017503,4,True,False,-97.8173682,30.2143085,Depository Credit Intermediation
30,sg:cdc038f8cb624960948ca190c7a3ae7a,-97.831722,30.213996999999996,484530017503,4,True,False,-97.8173682,30.2143085,Health and Personal Care Stores
31,sg:2b53448d1df947aca47edf7f395c5e49,-97.874086,30.235731,484530017503,4,True,False,-97.8173682,30.2143085,Offices of Other Health Practitioners
32,sg:25b7dbb1669d4595a80bea3172334371,-97.772856,30.288646999999997,482730204004,4,False,False,-97.8632316,27.4786706,Building Material and Supplies Dealers
33,sg:26f233424b794db2a4f2c9a39f914cbb,-97.99832099999999,30.197342,482090108054,26,True,True,-97.9788608,30.175417699999997,Health and Personal Care Stores
34,sg:7eed1548255644cb96c1417786f2df25,-97.978872,30.204437,482090108054,13,True,True,-97.9788608,30.175417699999997,Other Amusement and Recreation Industries
35,sg:3c9a781f993e461e9d9748aa7a96fe3f,-97.978504,30.203772999999998,482090108054,12,True,True,-97.9788608,30.175417699999997,Restaurants and Other Eating Places
36,sg:26ab5c7aeb294f2e8136e4c10aebd47e,-97.975225,30.206945,482090108054,7,True,True,-97.9788608,30.175417699999997,Health and Personal Care Stores
37,sg:937f6d9afd5f4d699a8b354864b21bdd,-97.978326,30.203896000000004,482090108054,5,True,True,-97.9788608,30.175417699999997,Restaurants and Other Eating Places
38,sg:64e75129a04243aead9e868d932be621,-97.740315,30.332194,482090108054,7,True,True,-97.9788608,30.175417699999997,Restaurants and Other Eating Places
39,sg:fe7ac9bf3a5440738b8efc2a3e0ca2ba,-97.70188,30.325233,482090108054,4,True,False,-97.9788608,30.175417699999997,Personal Care Services
40,sg:c9e8e6bbacde4eb0860426694698c503,-97.983563,30.193897999999997,482090108054,5,True,True,-97.9788608,30.175417699999997,Other Personal Services
41,sg:f52689ad3e634390ab5fe2821efb8f5a,-97.96854599999999,30.210419,482090108054,4,True,False,-97.9788608,30.175417699999997,Electronics and Appliance Stores
42,sg:69a752314c114034b854a742d5d4ccc4,-97.866027,30.233472999999996,482090108054,4,True,False,-97.9788608,30.175417699999997,Restaurants and Other Eating Places
43,sg:e3ebbad87df249c59042dc448d1d474c,-97.95922,30.167655,482090108054,4,True,False,-97.9788608,30.175417699999997,Building Material and Supplies Dealers
44,sg:c19e4faf9d934a8b9b986b435874c9dd,-97.820987,30.177128000000003,482090108054,4,True,False,-97.9788608,30.175417699999997,Automotive Repair and Maintenance
45,sg:fee35eab3fcc414d869cf2ad6cec051c,-97.974317,30.208472999999998,482090108054,4,True,False,-97.9788608,30.175417699999997,Personal Care Services
46,sg:e39e146510804c60a68945aa03a7ea2f,-97.982922,30.192110999999997,482090108054,4,True,False,-97.9788608,30.175417699999997,Elementary and Secondary Schools
47,sg:b775d21e25a5430c91bb9f5609acb596,-97.980366,30.193429,482090108054,13,True,True,-97.9788608,30.175417699999997,Continuing Care Retirement Communities and Assisted Living Facilities for the Elderly
48,sg:28ede60fb6304cc08bd1d92af7738cb9,-97.967698,30.210953999999997,482090108054,7,True,True,-97.9788608,30.175417699999997,Gasoline Stations
49,sg:89f25439279a434082a19cb890da1ef9,-97.838178,30.202627000000003,482090108054,4,True,False,-97.9788608,30.175417699999997,Restaurants and Other Eating Places
50,sg:254d1112eb024b88b36cab1a874257fa,-97.978397,30.205377000000002,482090108054,8,True,True,-97.9788608,30.175417699999997,Restaurants and Other Eating Places
51,sg:a1301d95ff104082a85479f98ef757e1,-97.982977,30.203095,482090108054,4,True,False,-97.9788608,30.175417699999997,"Jewelry, Luggage, and Leather Goods Stores"
52,sg:f71a11f0193d4410a2ae6617c6ad2812,-97.749758,30.248595,482090108054,4,True,False,-97.9788608,30.175417699999997,Other Miscellaneous Store Retailers
53,sg:55bde0a89bb241f0b6d5ed2c50832830,-97.75475,30.249683,482090108054,4,True,False,-97.9788608,30.175417699999997,Restaurants and Other Eating Places
54,sg:76f4ef9b00c84e53a20c9c7d3bc76c88,-97.724461,30.231971,482090108054,7,True,True,-97.9788608,30.175417699999997,Lessors of Real Estate
55,sg:90c0bd3e077b4661b9139818ee96510f,-97.979487,30.204835,482090108054,6,True,True,-97.9788608,30.175417699999997,Restaurants and Other Eating Places
56,sg:627f46b22de54839a91e539bd093ba0a,-97.734195,30.349914000000002,482090108054,4,True,False,-97.9788608,30.175417699999997,Nondepository Credit Intermediation
57,sg:6d944745197a48b4a91027e9e20a9248,-97.840396,30.237385999999997,482090108054,4,True,False,-97.9788608,30.175417699999997,"Sporting Goods, Hobby, and Musical Instrument Stores"
58,sg:9d849a8079484a3d95c90078a932ee1a,-97.744162,30.230032,482090108054,4,True,False,-97.9788608,30.175417699999997,Restaurants and Other Eating Places
59,sg:b2c660d7871a468cbb2be525c3489419,-97.979123,30.203560999999997,482090108054,9,True,True,-97.9788608,30.175417699999997,Other Amusement and Recreation Industries
60,sg:d7cb44bb183c4802b3a5da9d12d6b6a6,-97.838113,30.231307,482090108054,4,True,False,-97.9788608,30.175417699999997,Clothing Stores
61,sg:21142ef233ef4ced9ba97331258d7746,-97.97737,30.205925,482090108054,34,True,True,-97.9788608,30.175417699999997,Restaurants and Other Eating Places
62,sg:61316002043143d8be6e7e03c12750ec,-97.683448,30.429203,482090108054,5,True,True,-97.9788608,30.175417699999997,Couriers and Express Delivery Services
63,sg:12e0183aad644261b963b8eb7423b813,-97.704084,30.261043,482090108054,4,True,False,-97.9788608,30.175417699999997,Grocery Stores
64,sg:2f26077947d14185886d9479ac5fa20e,-97.697422,30.439606,484530018472,5,True,True,-97.689204,30.4292277,Grocery Stores
65,sg:e467ac3fcd9d419894623774a7627617,-97.738495,30.302558,484530018472,4,True,False,-97.689204,30.4292277,Restaurants and Other Eating Places
66,sg:1d925417d731493dae1118a23da17054,-97.73265500000001,30.389872999999998,484530018472,13,True,True,-97.689204,30.4292277,Lessors of Real Estate
67,sg:c3b47aead56f400e8b4c1d00c4e7ae74,-97.696208,30.439403000000002,484530018472,10,True,True,-97.689204,30.4292277,Health and Personal Care Stores
68,sg:ece23c044afd40858937493bb5e2bfe8,-97.68711,30.475042,484530018472,4,True,False,-97.689204,30.4292277,Automobile Dealers
69,sg:75f5e176bc5141f1a0ff1431c28c5562,-97.686358,30.400503999999998,484530018472,7,True,True,-97.689204,30.4292277,"Museums, Historical Sites, and Similar Institutions"
70,sg:5b396516abc1411c9a2dfc522f4ae62c,-97.761217,30.429440000000003,484530018472,4,True,False,-97.689204,30.4292277,Gasoline Stations
71,sg:90eaec21b81649d3ae2fd7de6eaf3bf0,-97.692392,30.437248999999998,484530018472,4,True,False,-97.689204,30.4292277,Automobile Dealers
72,sg:6f96f4f8d7e1439f89658c2ad90212bb,-97.697546,30.434699,484530018472,4,True,False,-97.689204,30.4292277,Depository Credit Intermediation
73,sg:55063dcc5ae24567a3ac71a2d7668b43,-97.72891700000001,30.399881,484530018472,4,True,False,-97.689204,30.4292277,Traveler Accommodation
74,sg:9929f7636bb245ab960e6984e6b53aab,-97.695387,30.433265999999996,484530018472,6,True,True,-97.689204,30.4292277,Building Material and Supplies Dealers
75,sg:a4ea2153e3c848d58b6893f4ab92b446,-97.681983,30.428990000000002,484530018472,5,True,True,-97.689204,30.4292277,Restaurants and Other Eating Places
76,sg:d061eb2f99184bb3a5e91baddde7769c,-97.703801,30.417061999999998,484530018472,8,True,True,-97.689204,30.4292277,Other Amusement and Recreation Industries
77,sg:16731f2ec9e441fab5d111af2f5b5b52,-97.697417,30.439746000000003,484530018472,9,True,True,-97.689204,30.4292277,Gasoline Stations
78,sg:02e8c504d0954ae5946dbb7a51bdf78a,-97.703391,30.417053000000003,484530018472,9,True,True,-97.689204,30.4292277,Other Miscellaneous Store Retailers
79,sg:9f87a4154a0b47e89517cb35b9b9741d,-97.701124,30.420503999999998,484530018472,6,True,True,-97.689204,30.4292277,"General Merchandise Stores, including Warehouse Clubs and Supercenters"
80,sg:374473c40f894deb9e35b5847b3f6e9b,-97.684102,30.387741,484530018472,4,True,False,-97.689204,30.4292277,Restaurants and Other Eating Places
81,sg:257dc6d3a42d453ea8920e4110e9ac14,-97.755686,30.3165,484530018472,4,True,False,-97.689204,30.4292277,Personal Care Services
82,sg:41c91c90ac9e4d05b76fe1276117f53c,-97.72801,30.261133,484530018472,4,True,False,-97.689204,30.4292277,Building Material and Supplies Dealers
83,sg:1beba81803a54c3b947dbcc9cda13084,-97.690341,30.414545,484530018472,7,True,True,-97.689204,30.4292277,Health and Personal Care Stores
84,sg:819fe6dfdbf7411c8646fc8b4864ae08,-97.696601,30.430228999999997,484530018472,5,True,True,-97.689204,30.4292277,"Sporting Goods, Hobby, and Musical Instrument Stores"
85,sg:4ab6f66fcd764f9fa25a00d52b608523,-97.697098,30.439348,484530018472,7,True,True,-97.689204,30.4292277,Restaurants and Other Eating Places
86,sg:be445e829cd045ebb58a1f02817f9387,-97.68815699999999,30.413364,484530018472,6,True,True,-97.689204,30.4292277,Restaurants and Other Eating Places
87,sg:753ec449d2084eeaab1fa525c4912c67,-97.766793,30.199669,484530018472,6,True,True,-97.689204,30.4292277,Restaurants and Other Eating Places
88,sg:4e12ba1936104a4f983eea6dee5abf2a,-97.68714399999999,30.413128000000004,484530018472,7,True,True,-97.689204,30.4292277,Used Merchandise Stores
89,sg:25ac32e81b9d44cca195a13d0fa3cb6c,-97.736104,30.412456,484530018472,4,True,False,-97.689204,30.4292277,Other Information Services
90,sg:07390e6e1bb64decbd7ae7a28fb52b1c,-97.702838,30.417455,484530018472,22,True,True,-97.689204,30.4292277,Grocery Stores
91,sg:181d1193b39648848cabbdfe3724f0db,-97.70327900000001,30.419024,484530018472,10,True,True,-97.689204,30.4292277,Restaurants and Other Eating Places
92,sg:8458c4c407d34bbb9bd54e80e6f62313,-97.696101,30.414864,484530018472,9,True,True,-97.689204,30.4292277,Restaurants and Other Eating Places
93,sg:5407eaa38b724a49a58131a03fd95d25,-97.715314,30.361811,484530018472,4,True,False,-97.689204,30.4292277,Restaurants and Other Eating Places
94,sg:313f2532451b4782af1369f6456ca2b0,-97.79194100000001,30.451118,484910204082,4,True,False,-97.7866517,30.456160999999998,"Sporting Goods, Hobby, and Musical Instrument Stores"
95,sg:ad586c61cb34484da50eab76e8b79a2b,-97.781689,30.446607,484910204082,6,True,True,-97.7866517,30.456160999999998,Building Material and Supplies Dealers
96,sg:2dd70d940f5b4be29fbebe082e13e0b3,-97.789323,30.458312,484910204082,8,True,True,-97.7866517,30.456160999999998,Services to Buildings and Dwellings
97,sg:e13743f54170483dba97bb0d2bd37edd,-97.795351,30.461163,484910204082,9,True,True,-97.7866517,30.456160999999998,Restaurants and Other Eating Places
98,sg:8ac0f262ca114992a3ef3a20dccc4a08,-97.795457,30.461871000000002,484910204082,4,True,False,-97.7866517,30.456160999999998,"Beer, Wine, and Liquor Stores"
99,sg:74724eb3324b4dff8e5e34dceb4f6463,-97.789847,30.468776000000002,484910204082,6,True,True,-97.7866517,30.456160999999998,Gasoline Stations
100,sg:48436e24f9b24196ad19294e2f972667,-97.78015500000001,30.213653000000004,484910204082,4,True,False,-97.7866517,30.456160999999998,"Sporting Goods, Hobby, and Musical Instrument Stores"
101,sg:c265a9a9e30c42c0b762fc106c8d3383,-97.7927,30.461306,484910204082,5,True,True,-97.7866517,30.456160999999998,Grocery Stores
102,sg:2e84e96ffb1046818d13948eb9917edf,-97.74786800000001,30.253474,484910204082,4,True,False,-97.7866517,30.456160999999998,"Museums, Historical Sites, and Similar Institutions"
103,sg:906766e74d324694a7310c8d8e3ec67d,-97.787738,30.449139000000002,484910204082,4,True,False,-97.7866517,30.456160999999998,Personal Care Services
104,sg:19c66f08dc6a4928969c3031d925f3f3,-97.789001,30.449640999999996,484910204082,4,True,False,-97.7866517,30.456160999999998,Other Amusement and Recreation Industries
105,sg:bade7307dd4641cd8f4aa81f0ac1d1fa,-97.708318,30.305123,484910204082,4,True,False,-97.7866517,30.456160999999998,Health and Personal Care Stores
106,sg:edab47ae76014082bc0c1db92c42dec2,-97.792385,30.448791999999997,484910204082,4,True,False,-97.7866517,30.456160999999998,Restaurants and Other Eating Places
107,sg:781fa4fc526941d7853ea58fd59b8ea8,-97.724598,30.378622999999997,484910204082,4,True,False,-97.7866517,30.456160999999998,Other Miscellaneous Store Retailers
108,sg:75e801450cb54b80a739c04205acf62e,-97.79136700000001,30.457199,484910204082,6,True,True,-97.7866517,30.456160999999998,Restaurants and Other Eating Places
109,sg:3bd47fc1e1bb4257b1badc1dd9490bf8,-97.726972,30.257662,484910204082,5,True,True,-97.7866517,30.456160999999998,Gasoline Stations
110,sg:c681c38b6d21463dbb84b93583c6b273,-97.69154,30.411199,484910204082,4,True,False,-97.7866517,30.456160999999998,Other Personal Services
111,sg:8e1d776147044cf1b578f2fbabd3bf7d,-97.692532,30.239240999999996,484910204082,4,True,False,-97.7866517,30.456160999999998,Restaurants and Other Eating Places
112,sg:8950f271b0db420e8dd14ace114e2290,-97.754064,30.352790000000002,484910204082,4,True,False,-97.7866517,30.456160999999998,Restaurants and Other Eating Places
113,sg:f521a9970bfb4d858027f8028f0bcb83,-97.74895,30.278163,484910204082,4,True,False,-97.7866517,30.456160999999998,Other Amusement and Recreation Industries
114,sg:1f575a756f1b47e997be06175ac4cf6d,-97.790433,30.457922999999997,484910204082,13,True,True,-97.7866517,30.456160999999998,Traveler Accommodation
115,sg:0efe176fa23a469ba641990000c4b504,-97.707187,30.411265000000004,484910204082,4,True,False,-97.7866517,30.456160999999998,Offices of Physicians
116,sg:796d45ad321b49088169a229295293d9,-97.796549,30.462593,484910204082,4,True,False,-97.7866517,30.456160999999998,"Sporting Goods, Hobby, and Musical Instrument Stores"
117,sg:0febb8bfce5746a4857aefd72e66bc87,-97.78789300000001,30.457966,484910204082,11,True,True,-97.7866517,30.456160999999998,Depository Credit Intermediation
118,sg:47582ec440004e9db0a1bd9b646feffb,-97.81475,30.210088,484530020041,5,True,True,-97.78799509999999,30.237091600000003,Offices of Dentists
119,sg:a3e95bfc7f7648beb0ed5ca99982284e,-97.784287,30.238895,484530020041,4,True,False,-97.78799509999999,30.237091600000003,Offices of Physicians
120,sg:ecd15cad9d374317b4e6f3c5e792e93c,-97.84039399999999,30.203886999999998,484530020041,4,True,False,-97.78799509999999,30.237091600000003,Child Day Care Services
121,sg:f55110952e5147a9abe4c08a8ef71711,-97.741116,30.230753999999997,484530020041,4,True,False,-97.78799509999999,30.237091600000003,Electronics and Appliance Stores
122,sg:d12e96dfbe644d6ba92f3e418520913a,-97.704927,30.252319,484530020041,4,True,False,-97.78799509999999,30.237091600000003,Automobile Dealers
123,sg:a95061a523f740328466477f00730679,-97.78805,30.230990999999996,484530020041,4,True,False,-97.78799509999999,30.237091600000003,"Automotive Parts, Accessories, and Tire Stores"
124,sg:cf86ed57dc0f4a60a3e6244689ff8d66,-97.729703,30.212196999999996,484530020041,4,True,False,-97.78799509999999,30.237091600000003,Restaurants and Other Eating Places
125,sg:ad814955179a4e09abe5772ed1fc4cd4,-97.771171,30.225793,484530020041,4,True,False,-97.78799509999999,30.237091600000003,Restaurants and Other Eating Places
126,sg:69c1021992b04a3e89ca50343a19e4fd,-97.796483,30.237987,484530020041,4,True,False,-97.78799509999999,30.237091600000003,Health and Personal Care Stores
127,sg:ab6bcdefb5054d03bd4a494ef6c40a64,-97.786948,30.239316,484530020041,4,True,False,-97.78799509999999,30.237091600000003,Depository Credit Intermediation
128,sg:3f5e3a2ea62d4de2bb861036e227553a,-97.783596,30.23927,484530020041,4,True,False,-97.78799509999999,30.237091600000003,Personal and Household Goods Repair and Maintenance
129,sg:beb677f2f5fc470cbd87ca18feadf775,-97.726577,30.291242999999998,484530020041,4,True,False,-97.78799509999999,30.237091600000003,Restaurants and Other Eating Places
130,sg:bab3a790e5a848cf9ce4f998bbd53a79,-97.787809,30.238979999999998,484530020041,7,True,True,-97.78799509999999,30.237091600000003,Other Amusement and Recreation Industries
131,sg:65e1c7da4a96429c8c99d7b41ce0a867,-97.790387,30.234625,484530020041,4,True,False,-97.78799509999999,30.237091600000003,Specialty Food Stores
132,sg:4926beec8a3a4363af0a45c84ad50a1a,-97.878615,30.234938,484530019082,4,True,False,-97.88749840000001,30.2558164,Amusement Parks and Arcades
133,sg:63686fb8ca9a4b94b0a4f80454332e03,-97.788782,30.19647,484530019082,6,True,True,-97.88749840000001,30.2558164,Used Merchandise Stores
134,sg:ef546c2fe7284d3088a7e1053430a8c1,-97.764824,30.200878999999997,484530019082,5,True,True,-97.88749840000001,30.2558164,Other Miscellaneous Manufacturing
135,sg:245b04a306b94a0c8f5f5e93e1dcf54f,-97.77711500000001,30.228295000000003,484530019082,4,True,False,-97.88749840000001,30.2558164,"Colleges, Universities, and Professional Schools"
136,sg:ed56ce20522740628c72a6b15fa9681d,-97.78325799999999,30.203390999999996,484530019082,4,True,False,-97.88749840000001,30.2558164,Automotive Repair and Maintenance
137,sg:e1d907ba4d82458b939a89b97083923f,-97.76949300000001,30.225763,484530019082,5,True,True,-97.88749840000001,30.2558164,Gasoline Stations
138,sg:a129d166603141a7a67ed425bea452e7,-97.820378,30.235594,484530019082,18,True,True,-97.88749840000001,30.2558164,Lessors of Real Estate
139,sg:e35cd0beb0a345ee9473d6860860143e,-97.877404,30.254664000000002,484530019082,4,True,False,-97.88749840000001,30.2558164,Religious Organizations
140,sg:a152341f79ca4f25ad6dd7b35366d817,-97.795745,30.23235,484530019082,5,True,True,-97.88749840000001,30.2558164,Restaurants and Other Eating Places
141,sg:92c0f599d262432bbe77b647c30b5a3f,-97.87583199999999,30.235235,484530019082,16,True,True,-97.88749840000001,30.2558164,Restaurants and Other Eating Places
142,sg:776626774ee047caa6d40bd795289c2e,-97.84666,30.235336,484530019082,4,True,False,-97.88749840000001,30.2558164,"Office Supplies, Stationery, and Gift Stores"
143,sg:6cd099974dd84af8ba7b6350fd5498ee,-97.717497,30.386051000000002,484530019082,4,True,False,-97.88749840000001,30.2558164,"Hardware, and Plumbing and Heating Equipment and Supplies Merchant Wholesalers"
144,sg:2be7fd1d2d8445bdbf01c2eaf86843a8,-97.888615,30.247595,484530019082,7,True,True,-97.88749840000001,30.2558164,Gasoline Stations
145,sg:7d46757143d841faa2320f5a2a95b683,-97.719792,30.333387,484530019082,4,True,False,-97.88749840000001,30.2558164,Automobile Dealers
146,sg:7c253eb418c34712a027dceda4333ae9,-97.85571999999999,30.235746999999996,484530019082,4,True,False,-97.88749840000001,30.2558164,Restaurants and Other Eating Places
147,sg:2ec1b480516f4454b768e84377b5ce0b,-97.940586,30.229126,484530019082,4,True,False,-97.88749840000001,30.2558164,Automotive Repair and Maintenance
148,sg:8f3af01bb46349739f0e1333f3384bfc,-97.78280699999999,30.44296,484530019082,4,True,False,-97.88749840000001,30.2558164,"Sporting Goods, Hobby, and Musical Instrument Stores"
149,sg:8c99b8417a654c2db71ea08a512a508b,-97.877624,30.234840000000002,484530019082,18,True,True,-97.88749840000001,30.2558164,Lessors of Real Estate
150,sg:9704218e7e9d44cb8236fcbdfe0718d2,-97.86411,30.230751,484530019082,16,True,True,-97.88749840000001,30.2558164,Health and Personal Care Stores
151,sg:331a5fc860fc454e9a33586fffc4c603,-97.71813399999999,30.255107000000002,484530019082,4,True,False,-97.88749840000001,30.2558164,Restaurants and Other Eating Places
152,sg:1dbc3cd6d4ae4f5aa71993787e72a295,-97.876779,30.234581,484530019082,5,True,True,-97.88749840000001,30.2558164,Restaurants and Other Eating Places
153,sg:fc903e6c49e94b77a667447ad2e065c1,-97.72192700000001,30.403890999999998,484530019082,4,True,False,-97.88749840000001,30.2558164,Clothing Stores
154,sg:783c35015af54bf38621a6d2ccde0bf5,-97.888408,30.257777,484530019082,4,True,False,-97.88749840000001,30.2558164,Child Day Care Services
155,sg:d237a965d8f548da8e66e86d9b78a3f9,-97.77000600000001,30.487724,484530019082,4,True,False,-97.88749840000001,30.2558164,Personal Care Services
156,sg:6c18428b05b5431f9f7b4ce66fce1801,-97.870083,30.200419,484530019082,5,True,True,-97.88749840000001,30.2558164,Other Amusement and Recreation Industries
157,sg:a6d5e65c53fe4261b508fc71a60cbbcd,-97.88164599999999,30.242463,484530019082,4,True,False,-97.88749840000001,30.2558164,Home Furnishings Stores
158,sg:ab0e4588597349fdae609d22c1e6fa36,-97.695072,30.277165999999998,484530019082,4,True,False,-97.88749840000001,30.2558164,Religious Organizations
159,sg:042ffbe354b847fc929215aa88592872,-97.865854,30.229699,484530019082,4,True,False,-97.88749840000001,30.2558164,Child Day Care Services
160,sg:89e8456ee96443228aa3946de8c8ba36,-97.803166,30.234114,484530019082,4,True,False,-97.88749840000001,30.2558164,Continuing Care Retirement Communities and Assisted Living Facilities for the Elderly
161,sg:68a9fbca781047e99b06c3d697e2be6c,-97.874351,30.235765999999998,484530019082,4,True,False,-97.88749840000001,30.2558164,Wired and Wireless Telecommunications Carriers
162,sg:39a428335f9f4573bc6546f54133e2be,-97.70486600000001,30.328812,484530019082,4,True,False,-97.88749840000001,30.2558164,Restaurants and Other Eating Places
163,sg:f651d836a1974131bbf39d78e3c55a35,-97.741665,30.263448999999998,484530019082,4,True,False,-97.88749840000001,30.2558164,Restaurants and Other Eating Places
164,sg:9b07d6b75bc9418e9a1a48cfa1c4ab24,-97.847243,30.185046999999997,484530019082,4,True,False,-97.88749840000001,30.2558164,Restaurants and Other Eating Places
165,sg:62fad0d4ec6948b6a0b60c124772e700,-97.685858,30.225572999999997,484530019082,6,True,True,-97.88749840000001,30.2558164,"Executive, Legislative, and Other General Government Support"
166,sg:cc7b109bc872497283023fcd9ebf6b62,-97.873866,30.23508,484530019082,48,True,True,-97.88749840000001,30.2558164,Grocery Stores
167,sg:eaa3b3e2e4784ec49bcc71643093c848,-97.869384,30.255321999999996,484530019082,4,True,False,-97.88749840000001,30.2558164,Motion Picture and Video Industries
168,sg:04e78b31201e457389d4704180fc7ae1,-97.872791,30.253363,484530019082,4,True,False,-97.88749840000001,30.2558164,Offices of Real Estate Agents and Brokers
169,sg:f31c0adf7fc3486e9a22c58637261564,-97.877418,30.244495,484530019082,5,True,True,-97.88749840000001,30.2558164,Depository Credit Intermediation
170,sg:6cc8a098d8bc48f8bcf84d00be45584b,-97.881449,30.241923,484530019082,4,True,False,-97.88749840000001,30.2558164,Lessors of Real Estate
171,sg:15e9e628a7c3454ebd6dfcfaa3cbc065,-97.836958,30.221396000000002,484530019082,8,True,True,-97.88749840000001,30.2558164,Depository Credit Intermediation
172,sg:0037d834c0c0476196f007702979a6a0,-97.860341,30.229961,484530019082,4,True,False,-97.88749840000001,30.2558164,"Jewelry, Luggage, and Leather Goods Stores"
173,sg:76627a581744460caaf8dbf223b8a130,-97.87453000000001,30.235785999999997,484530019082,7,True,True,-97.88749840000001,30.2558164,"Automotive Parts, Accessories, and Tire Stores"
174,sg:cf6e329fd42a40c0b01aaa5e3540bbfe,-97.752608,30.238874,484530019082,4,True,False,-97.88749840000001,30.2558164,Health and Personal Care Stores
175,sg:72d05d6a337a4586ab925ee54ca9c03f,-97.88127,30.241967,484530019082,4,True,False,-97.88749840000001,30.2558164,Restaurants and Other Eating Places
176,sg:90ebcec4991c4bd0a9e813641176769e,-97.86186,30.229190999999997,484530019082,4,True,False,-97.88749840000001,30.2558164,Electronics and Appliance Stores
177,sg:de75dcd4ebe64a9282856817cb887997,-97.69945200000001,30.323964,484530019082,5,True,True,-97.88749840000001,30.2558164,Offices of Physicians
178,sg:7b33f9ade8fa40868404b35f74595fcf,-97.892317,30.259109000000002,484530019082,8,True,True,-97.88749840000001,30.2558164,Depository Credit Intermediation
179,sg:4e1d6f265027490496f24b485f643648,-97.745458,30.266565000000003,484530018581,4,True,False,-97.56143979999999,30.470231199999997,Restaurants and Other Eating Places
180,sg:ef311b3968934fd39d0d133b7e7f734f,-97.753152,30.270531,484530018581,4,True,False,-97.56143979999999,30.470231199999997,Restaurants and Other Eating Places
181,sg:77f1efad6a624953811bfed7280383e4,-97.667445,30.450167999999998,484530018581,4,True,False,-97.56143979999999,30.470231199999997,"Automotive Parts, Accessories, and Tire Stores"
182,sg:17b5dbf094d9436089646326caa4cbea,-97.73948100000001,30.271559999999997,484530018581,5,True,True,-97.56143979999999,30.470231199999997,"Executive, Legislative, and Other General Government Support"
183,sg:ad2de56aed874fe192ea1c19400b952b,-97.75511800000001,30.250659000000002,484530018581,8,True,True,-97.56143979999999,30.470231199999997,Restaurants and Other Eating Places
184,sg:2678dfe251b344b38f0dad729d7ee0bb,-97.706336,30.411325,484530018581,12,True,True,-97.56143979999999,30.470231199999997,General Medical and Surgical Hospitals
185,sg:8654513a3273475385bc6b7923134480,-97.802655,30.465627,484530018581,4,True,False,-97.56143979999999,30.470231199999997,Grocery Stores
186,sg:f71ded22632d4386b11a9367c06d479b,-97.757965,30.356188,484530018581,4,True,False,-97.56143979999999,30.470231199999997,Florists
187,sg:411a6eea6d4349a686a92a7428ae21c0,-97.67121,30.438757,484530018581,5,True,True,-97.56143979999999,30.470231199999997,Restaurants and Other Eating Places
188,sg:0129a3c3c8634b3d94240628ab976a35,-97.823173,30.175915000000003,484530018581,4,True,False,-97.56143979999999,30.470231199999997,Gasoline Stations
189,sg:08d5456979f04f7d883f384b9d0c5c0a,-97.73359599999999,30.266189,484530018581,9,True,True,-97.56143979999999,30.470231199999997,Restaurants and Other Eating Places
190,sg:ec6eba9382b447b8afcaf1bbde2d9a88,-97.712412,30.326196999999997,484530018581,4,True,False,-97.56143979999999,30.470231199999997,Restaurants and Other Eating Places
191,sg:102e39474560499daa771cddcabbffe7,-97.722587,30.333000000000002,484530018581,4,True,False,-97.56143979999999,30.470231199999997,Other Miscellaneous Store Retailers
192,sg:2f12082c0ce34edda9c52af30e244de6,-97.69394399999999,30.339337,484530018581,4,True,False,-97.56143979999999,30.470231199999997,Elementary and Secondary Schools
193,sg:c3740f10e0e94569841e5ae35e3acc9e,-97.70626899999999,30.268258000000003,484530018581,7,True,True,-97.56143979999999,30.470231199999997,Junior Colleges
194,sg:957588a469a64eb1bf734d78fb4db64d,-97.670652,30.341771,484530018581,4,True,False,-97.56143979999999,30.470231199999997,Furniture Stores
195,sg:c78f981eea7642ddb97b52b74f74753f,-97.77282199999999,30.225803999999997,484530018581,4,True,False,-97.56143979999999,30.470231199999997,Offices of Physicians
196,sg:2f948535821d43008e8b1d06a9192779,-97.743677,30.279903000000004,484530018581,4,True,False,-97.56143979999999,30.470231199999997,Restaurants and Other Eating Places
197,sg:a07b577b719c47f089a445509a406337,-97.728096,30.240246999999997,484530018581,4,True,False,-97.56143979999999,30.470231199999997,Restaurants and Other Eating Places
198,sg:aa3319fae49241869394b5020c589053,-97.670643,30.444316999999998,484530018581,4,True,False,-97.56143979999999,30.470231199999997,Automotive Repair and Maintenance
199,sg:ef5b07b94bc1424f9aa9c39d6736e2f9,-97.77275300000001,30.225754,484530018581,4,True,False,-97.56143979999999,30.470231199999997,Offices of Physicians
200,sg:d901a090edc14b2390fbcc22ceae0e96,-97.749363,30.276999999999997,484530018581,6,True,True,-97.56143979999999,30.470231199999997,Junior Colleges
201,sg:3f5675db47cd46c48271db71a59369d5,-97.736652,30.267523999999998,484530018581,4,True,False,-97.56143979999999,30.470231199999997,Restaurants and Other Eating Places
202,sg:57d11fbfb6ee4872a3d141859dc3e2fb,-97.738792,30.34354,484530018581,4,True,False,-97.56143979999999,30.470231199999997,"Sporting Goods, Hobby, and Musical Instrument Stores"
203,sg:4e09c9e18c02494e9763bf016ce7d2c5,-97.672196,30.461775,484530018581,4,True,False,-97.56143979999999,30.470231199999997,"Automotive Parts, Accessories, and Tire Stores"
204,sg:4ac8191dd0de4f648908d2f7812229ea,-97.686728,30.377145000000002,484530018581,9,True,True,-97.56143979999999,30.470231199999997,Restaurants and Other Eating Places
205,sg:49ddc667aa1d433283c47e9f64c06924,-97.741682,30.272166,484530018581,5,True,True,-97.56143979999999,30.470231199999997,Other Miscellaneous Store Retailers
206,sg:1e2ca1cc36f7493db649f78afb6f271f,-97.939678,30.384705,484530018581,4,True,False,-97.56143979999999,30.470231199999997,Automobile Dealers
207,sg:2f85cf830a7a47269fb7420b08da02e2,-97.80214699999999,30.199288,484530018581,4,True,False,-97.56143979999999,30.470231199999997,Religious Organizations
208,sg:a22ab7d67da342468206d8cf98bb128d,-97.673604,30.476476,484530018581,4,True,False,-97.56143979999999,30.470231199999997,"Sporting Goods, Hobby, and Musical Instrument Stores"
209,sg:50d791a0f57f4e399453ffb23930fd49,-97.690454,30.320290999999997,484530021041,7,True,True,-97.69461770000001,30.317242999999998,Grocery Stores
210,sg:d604e578725e48e8bf144c7553d893fa,-97.758546,30.271286,484530021041,4,True,False,-97.69461770000001,30.317242999999998,Restaurants and Other Eating Places
211,sg:a2f4d1967ef04e5d857060564299f034,-97.695941,30.320165000000003,484530021041,4,True,False,-97.69461770000001,30.317242999999998,Gasoline Stations
212,sg:0a7f5111a95f4ce4a9fd0915944ccd0a,-97.687384,30.298959999999997,484530021041,4,True,False,-97.69461770000001,30.317242999999998,Elementary and Secondary Schools
213,sg:4f5c92ab504e4197b1391c941f3b0f25,-97.69484399999999,30.319959000000004,484530021041,7,True,True,-97.69461770000001,30.317242999999998,Electronics and Appliance Stores
214,sg:49655ed8d9874310b0ffff1674059bc0,-97.711302,30.348502000000003,484530021041,4,True,False,-97.69461770000001,30.317242999999998,Depository Credit Intermediation
215,sg:fc3a822e7d14423eaec04d90fe5fd885,-97.717691,30.295462,484530021041,7,True,True,-97.69461770000001,30.317242999999998,Restaurants and Other Eating Places
216,sg:12545c3490214b3c8ab2e27730c2a39e,-97.7088,30.320288,484530021041,6,True,True,-97.69461770000001,30.317242999999998,Traveler Accommodation
217,sg:51e70a17837245d287effb904db5dede,-97.721515,30.299684999999997,484530018132,4,True,False,-97.6936678,30.3384643,Shoe Stores
218,sg:fd84d33981a14520808f0fb4e9a2e92c,-97.688764,30.358987,484530018132,7,True,True,-97.6936678,30.3384643,Gasoline Stations
219,sg:41807c1f76714d85a8fced7da0fb5340,-97.695275,30.291877000000003,484530018132,4,True,False,-97.6936678,30.3384643,Personal Care Services
220,sg:dd8526eb48674f97937aa3be2d7992db,-97.676902,30.377503000000004,484530018132,4,True,False,-97.6936678,30.3384643,Gasoline Stations
221,sg:ed7f0cd55b0046efa5ddb0ccefddf0f5,-97.720127,30.406464,484530018132,4,True,False,-97.6936678,30.3384643,Restaurants and Other Eating Places
222,sg:8bc925eec1bc43c1ba70f79d732278bb,-97.774264,30.223923,484530018132,4,True,False,-97.6936678,30.3384643,Home Health Care Services
223,sg:ed7b984c42524ba1925c5d7b93269e34,-97.69512900000001,30.129147999999997,484530018132,4,True,False,-97.6936678,30.3384643,Restaurants and Other Eating Places
224,sg:3d0f26a2b2cd4dfa975a0b87c09014af,-97.69680799999999,30.305863000000002,484530018132,4,True,False,-97.6936678,30.3384643,"Museums, Historical Sites, and Similar Institutions"
225,sg:03427de553514a7bba68ccc6fde9ac85,-97.647648,30.387261,484530018132,4,True,False,-97.6936678,30.3384643,Gasoline Stations
226,sg:3926ab00dd6a4223a6f434323832e20c,-97.73461400000001,30.274306,484530018132,5,True,True,-97.6936678,30.3384643,Offices of Physicians
227,sg:72820fcf8b6843c7a5a797a8011075d6,-97.69374,30.36791,484530018132,4,True,False,-97.6936678,30.3384643,Restaurants and Other Eating Places
228,sg:02e64a7f670742f39a9b4ce09ecedfd1,-97.741219,30.390102000000002,484530018132,4,True,False,-97.6936678,30.3384643,Securities and Commodity Contracts Intermediation and Brokerage
229,sg:3796e412b81f4d6a9954e2a159cb5b56,-97.689635,30.339196,484530018132,25,True,True,-97.6936678,30.3384643,"General Merchandise Stores, including Warehouse Clubs and Supercenters"
230,sg:74a61cefa70847559ad3c90f06e1331c,-97.712598,30.330861,484530018132,4,True,False,-97.6936678,30.3384643,Depository Credit Intermediation
231,sg:086bcb7e2b1844e79888608d1734bca3,-97.68520500000001,30.356013,484530018132,9,True,True,-97.6936678,30.3384643,Grocery Stores
232,sg:11b3684e7b4a4d0795e7ab3fa81736db,-97.701853,30.316181,484530018132,6,True,True,-97.6936678,30.3384643,Depository Credit Intermediation
233,sg:1d07bb157f1b4ba996c8426cd4483b96,-97.688779,30.329441,484530018132,9,True,True,-97.6936678,30.3384643,"General Merchandise Stores, including Warehouse Clubs and Supercenters"
234,sg:2cc428b046b0418fa62b06b28ff7e996,-97.691326,30.3406,484530018132,8,True,True,-97.6936678,30.3384643,Gasoline Stations
235,sg:82821e3295c94e299156281c7b8f9c17,-97.715758,30.3039,484530018132,5,True,True,-97.6936678,30.3384643,Gasoline Stations
236,sg:ae7191fd8f754589898c989b496c84b1,-97.682167,30.351987,484530018132,21,True,True,-97.6936678,30.3384643,"Museums, Historical Sites, and Similar Institutions"
237,sg:996bc67bbbd24bd28a404ce704888e05,-97.707978,30.391053000000003,484530018132,4,True,False,-97.6936678,30.3384643,"Executive, Legislative, and Other General Government Support"
238,sg:d517defde10a4756915be909d4e8ddcb,-97.680531,30.323549,484530018132,4,True,False,-97.6936678,30.3384643,Automotive Repair and Maintenance
239,sg:fb982b06b07b4b418fdb3c0c61fe56cb,-97.71403000000001,30.388203999999998,484530018132,4,True,False,-97.6936678,30.3384643,Lumber and Other Construction Materials Merchant Wholesalers
240,sg:4e0a64c442884fb484d79c64314996a0,-97.737312,30.391249,484530018132,4,True,False,-97.6936678,30.3384643,Traveler Accommodation
241,sg:1d6f5b4637484290979b47a410fe4462,-97.684828,30.353245,484530018132,8,True,True,-97.6936678,30.3384643,Continuing Care Retirement Communities and Assisted Living Facilities for the Elderly
242,sg:d2c5ef7e3df74048a202d5f15889206f,-97.685191,30.355970000000003,484530018132,14,True,True,-97.6936678,30.3384643,Gasoline Stations
243,sg:faf9a437506244d59d13daa08d0693d3,-97.679936,30.349005,484530018132,5,True,True,-97.6936678,30.3384643,Support Activities for Road Transportation
244,sg:3216d3db0e794be88e46032607229585,-97.696273,30.345124,484530018132,10,True,True,-97.6936678,30.3384643,Traveler Accommodation
245,sg:1994fcad0bb041f58802204a230248a5,-97.771168,30.453494,484530018132,4,True,False,-97.6936678,30.3384643,Elementary and Secondary Schools
246,sg:93e9c9331e7e48f5afd786c125bfd429,-97.70784300000001,30.386882,484530018132,4,True,False,-97.6936678,30.3384643,Elementary and Secondary Schools
247,sg:e00f8f2a9c13475b827ae882cc49980f,-97.680097,30.349151000000003,484530018132,5,True,True,-97.6936678,30.3384643,Support Activities for Road Transportation
248,sg:69336c43af744fc3bddc4425da0c3ae2,-97.763424,30.292787,484910205061,6,False,True,-97.7310653,30.515847499999996,Elementary and Secondary Schools
249,sg:0bafa4848f5848248408315c9d1ce1bb,-97.708366,30.318579999999997,484910205061,4,False,False,-97.7310653,30.515847499999996,Traveler Accommodation
250,sg:562e824a32ca4b02b29bda4e71465fa3,-97.73144599999999,30.487739,484910205061,4,False,False,-97.7310653,30.515847499999996,Offices of Physicians
251,sg:2b84e0c5584f4246bc1861f6d5701279,-97.731674,30.504806,484910205061,6,False,True,-97.7310653,30.515847499999996,"Museums, Historical Sites, and Similar Institutions"
252,sg:78fe857f913344819c3b68a3e5adbb3e,-97.720223,30.394371000000003,484530017222,4,True,False,-97.749087,30.392465299999998,Lessors of Real Estate
253,sg:413c13ae3748467cb0ba6f673e02d142,-97.740627,30.389390999999996,484530017222,4,True,False,-97.749087,30.392465299999998,"Sporting Goods, Hobby, and Musical Instrument Stores"
254,sg:0ebf2411acc246ef9962aa1fba55c545,-97.749543,30.401896999999998,484530017222,4,True,False,-97.749087,30.392465299999998,Other Financial Investment Activities
255,sg:e4b978ae067f4e0793b12a6b40f4cc89,-97.727773,30.394771999999996,484530017222,6,True,True,-97.749087,30.392465299999998,Restaurants and Other Eating Places
256,sg:6adade40e50248e28db7d6d89e5c68aa,-97.72028900000001,30.394052000000002,484530017222,6,True,True,-97.749087,30.392465299999998,Restaurants and Other Eating Places
257,sg:6e848f0f8afe4bfcae9bddf38e76e1d5,-97.748007,30.391835999999998,484530017222,6,True,True,-97.749087,30.392465299999998,Lessors of Real Estate
258,sg:22a2417eee464d979a945173585bb980,-97.72015,30.29907,484530017222,5,True,True,-97.749087,30.392465299999998,Restaurants and Other Eating Places
259,sg:33a8a931da9346cfb2c07ac1dd8aead2,-97.732407,30.39007,484530017222,4,True,False,-97.749087,30.392465299999998,Other Amusement and Recreation Industries
260,sg:f4bff0d87a0c4a609836528c45b92ea7,-97.699093,30.304512,484530017222,4,True,False,-97.749087,30.392465299999998,Gasoline Stations
261,sg:aa08a766ba77487eb225b29b52a810ad,-97.73289100000001,30.389473,484530017222,4,True,False,-97.749087,30.392465299999998,Lessors of Real Estate
262,sg:0fcdd2a412ac4d0d9a797e6e002d38cb,-97.747602,30.390765000000002,484530017222,4,True,False,-97.749087,30.392465299999998,Restaurants and Other Eating Places
263,sg:74976f994ef646109f8e654022110e9d,-97.753486,30.394617999999998,484530017222,4,True,False,-97.749087,30.392465299999998,"Automotive Parts, Accessories, and Tire Stores"
264,sg:f66512c3aa0e415e8a0eae9e5fbe67e9,-97.747338,30.401770000000003,484530017222,8,True,True,-97.749087,30.392465299999998,Lessors of Real Estate
265,sg:f1f8b3d0cd7448b5bde4ccd81de787d0,-97.749152,30.394484000000002,484530017222,4,True,False,-97.749087,30.392465299999998,Furniture Stores
266,sg:15a1a26707244d0db0cc9201ecef6c2f,-97.752943,30.372595,484530017222,5,True,True,-97.749087,30.392465299999998,"Agencies, Brokerages, and Other Insurance Related Activities"
267,sg:a405d160da454508aa22fe540f19d111,-97.703463,30.224553000000004,484530017222,4,True,False,-97.749087,30.392465299999998,Gasoline Stations
268,sg:b0ffb2316d44419d82ed1ffb4bac2b3c,-97.75391,30.210247999999996,484530017222,4,True,False,-97.749087,30.392465299999998,Traveler Accommodation
269,sg:3ba8505e309341dcbcb40946212e5a95,-97.748002,30.400347999999997,484530017222,5,True,True,-97.749087,30.392465299999998,Other Miscellaneous Store Retailers
270,sg:9c580b8c91ba4995bb20a2bb7c17cc33,-97.740377,30.386606,484530017222,4,True,False,-97.749087,30.392465299999998,Clothing Stores
271,sg:973c04c2e39645c6961a0b0f01771d9c,-97.733603,30.355788,484530017222,4,True,False,-97.749087,30.392465299999998,Restaurants and Other Eating Places
272,sg:c9ee30fa79b5405f8699fd5727ec3244,-97.731655,30.391797999999998,484530017222,6,True,True,-97.749087,30.392465299999998,Restaurants and Other Eating Places
273,sg:6561c8c788d14f0ea7ef101408630f1e,-97.718703,30.365638,484530017222,4,True,False,-97.749087,30.392465299999998,Offices of Dentists
274,sg:ccb7c187400d44f4be277cde4e6b8ccf,-97.740687,30.387975,484530017222,4,True,False,-97.749087,30.392465299999998,Other Amusement and Recreation Industries
275,sg:f9943851e6884211b56d3bbace59e7c0,-97.76000400000001,30.428313,484530017222,6,True,True,-97.749087,30.392465299999998,Gasoline Stations
276,sg:528a1a57c0fe41d19e835befd96b9917,-97.74059100000001,30.387304999999998,484530017222,4,True,False,-97.749087,30.392465299999998,Department Stores
277,sg:945934ae3ddc400c96f09fd5eb12ce9b,-97.70344399999999,30.3363,484530018421,6,True,True,-97.6208213,30.3848687,Traveler Accommodation
278,sg:6c80d332f37e428984dc0450425c5dba,-97.64842800000001,30.388494,484530018421,6,True,True,-97.6208213,30.3848687,"Automotive Parts, Accessories, and Tire Stores"
279,sg:767588bee9fa4568b2068a8039f362df,-97.65929100000001,30.377096999999996,484530018421,9,True,True,-97.6208213,30.3848687,Restaurants and Other Eating Places
280,sg:b9fff2f582e742d3add3c0063c1f5f62,-97.673988,30.405416,484530018421,5,True,True,-97.6208213,30.3848687,Restaurants and Other Eating Places
281,sg:6af6fbbaa14748579ac10c0783ea401b,-97.686299,30.335922999999998,484530018421,4,True,False,-97.6208213,30.3848687,Child Day Care Services
282,sg:67f68d638ec446b1a0fe8b5287a4c666,-97.773389,30.227196999999997,484530018421,4,True,False,-97.6208213,30.3848687,Offices of Physicians
283,sg:8933c780b94a4078a4f28d85720e1ab5,-97.717313,30.296128999999997,484530018421,4,True,False,-97.6208213,30.3848687,Grocery Stores
284,sg:3ad1785433934c3b8fd8b37ff534bc39,-97.67269,30.405564000000002,484530018421,72,True,True,-97.6208213,30.3848687,Lessors of Real Estate
285,sg:3884c3da11ef4639a5962f78d398eda0,-97.650348,30.387390000000003,484530018421,11,True,True,-97.6208213,30.3848687,Restaurants and Other Eating Places
286,sg:c56d60190a8d4f288b68c965ba44274d,-97.676736,30.350621999999998,484530018421,5,True,True,-97.6208213,30.3848687,Restaurants and Other Eating Places
287,sg:016fad824e1b4658b79a3b008fc3c576,-97.648872,30.387871999999998,484530018421,7,True,True,-97.6208213,30.3848687,Restaurants and Other Eating Places
288,sg:4a131a8a0a31456dbbb9eaeea7aa30ab,-97.74406,30.407183000000003,484530018421,4,True,False,-97.6208213,30.3848687,Offices of Dentists
289,sg:63d35e26ed7640e6b301acc404aba205,-97.655213,30.398441,484530018421,6,True,True,-97.6208213,30.3848687,Restaurants and Other Eating Places
290,sg:20b1a1f2a2a443efbd5583a67e2a7152,-97.708037,30.325195,484530018421,7,True,True,-97.6208213,30.3848687,Lessors of Real Estate
291,sg:8af57bb4d0134062ac4e5d82ce40c1b0,-97.738508,30.260008000000003,484530018421,5,True,True,-97.6208213,30.3848687,"Sporting Goods, Hobby, and Musical Instrument Stores"
292,sg:69056f8c2156410796c36aa62ab72032,-97.742485,30.270328999999997,484530018421,4,True,False,-97.6208213,30.3848687,Building Material and Supplies Dealers
293,sg:dc7a75ed26ed42ba9959854a470e42d1,-97.675997,30.427209,484530018421,4,True,False,-97.6208213,30.3848687,Automobile Dealers
294,sg:36f5f5e0c3ff4b8dba6c495579d8aefe,-97.707741,30.351269,484530018421,4,True,False,-97.6208213,30.3848687,Lessors of Real Estate
295,sg:366bef03471742279f350e5eabf8c53d,-97.676439,30.413582,484530018421,62,True,True,-97.6208213,30.3848687,"General Merchandise Stores, including Warehouse Clubs and Supercenters"
296,sg:92207252541845859e5d968b0ed4e425,-97.64885799999999,30.387865,484530018421,8,True,True,-97.6208213,30.3848687,Restaurants and Other Eating Places
297,sg:9836b0b6cc244140a7d46476e294c3ce,-97.76612800000001,30.231083,484530018421,4,True,False,-97.6208213,30.3848687,Offices of Real Estate Agents and Brokers
298,sg:f1f2eada4a4a4690a2ea98ab597fb18c,-97.731243,30.213828000000003,484530018421,4,True,False,-97.6208213,30.3848687,Restaurants and Other Eating Places
299,sg:414840eeb33e4b63b57aea1fb27ee215,-97.638316,30.402988,484530018421,6,True,True,-97.6208213,30.3848687,Religious Organizations
300,sg:7c97cae07a194440993301e81d9ec059,-97.716933,30.350813,484530018421,4,True,False,-97.6208213,30.3848687,"Machinery, Equipment, and Supplies Merchant Wholesalers"
301,sg:9a8dd4289e8544e286bf02ba80743a9d,-97.642228,30.391784,484530018421,7,True,True,-97.6208213,30.3848687,Building Equipment Contractors
302,sg:4ea2d4e9978d45cfaaf0dc003a4d7249,-97.707801,30.323874,484530018421,5,True,True,-97.6208213,30.3848687,Restaurants and Other Eating Places
303,sg:0fb0946d43ae42f796ec02afc67a327c,-97.706923,30.343428000000003,484530018421,7,True,True,-97.6208213,30.3848687,Grocery Stores
304,sg:e5ab94f36f1c410880ae0bd5fd01efc4,-97.692371,30.370192,484530018421,4,True,False,-97.6208213,30.3848687,"Automotive Parts, Accessories, and Tire Stores"
305,sg:c72c64411250484e82ff5b08e7966509,-97.744667,30.284619,484530018421,4,True,False,-97.6208213,30.3848687,Consumer Goods Rental
306,sg:0d1cc3da8a1444a3aec37f2c62c7e010,-97.729883,30.212698,484530018421,4,True,False,-97.6208213,30.3848687,Gasoline Stations
307,sg:1d58b309ef5a4701a1217fefecd2d270,-97.703647,30.411709000000002,484530018421,4,True,False,-97.6208213,30.3848687,Offices of Physicians
308,sg:8fe9c89d3f4246ec8cfe8d0000d30b17,-97.66577,30.415561999999998,484530018421,4,True,False,-97.6208213,30.3848687,"Office Supplies, Stationery, and Gift Stores"
309,sg:0c5aa7e722994c28afbfcdd71441ad31,-97.64137099999999,30.398228999999997,484530018421,6,True,True,-97.6208213,30.3848687,Death Care Services
310,sg:878bdf0113f0410bbc92548a97322fa9,-97.77363000000001,30.225761,484530018421,4,True,False,-97.6208213,30.3848687,Offices of Physicians
311,sg:b488a644282547dcb56c56f46b26950e,-97.675574,30.415528000000002,484530018421,15,True,True,-97.6208213,30.3848687,Building Material and Supplies Dealers
312,sg:823f9a6350354d37b3145564ce2478f6,-97.66883399999999,30.421978999999997,484530018421,38,True,True,-97.6208213,30.3848687,Building Material and Supplies Dealers
313,sg:cbe27fd298924564b4bc4a483e7170a9,-97.687366,30.412839,484530018421,16,True,True,-97.6208213,30.3848687,Lessors of Real Estate
314,sg:230e98de02c646acb5b600a77b8b2bfe,-97.783982,30.451683000000003,484530018421,4,True,False,-97.6208213,30.3848687,Furniture Stores
315,sg:acff93336a7448ae85f3b641cc8c9756,-97.714478,30.316271999999998,484530018421,4,True,False,-97.6208213,30.3848687,"General Merchandise Stores, including Warehouse Clubs and Supercenters"
316,sg:21a0bc2b390e46a689be8b7b592ca161,-97.675816,30.375928000000002,484530018421,16,True,True,-97.6208213,30.3848687,Gasoline Stations
317,sg:0d14c248dcba48ac9a8b4f8156f7d699,-97.67405699999999,30.278288,484530018421,4,True,False,-97.6208213,30.3848687,Elementary and Secondary Schools
318,sg:55805f6fc8804c0cb1a327fe1d172eb2,-97.67813699999999,30.375943,484530018421,4,True,False,-97.6208213,30.3848687,Building Material and Supplies Dealers
319,sg:8b0ee2dc2c96463a984f9a9e3673f337,-97.72415500000001,30.330551,484530018421,4,True,False,-97.6208213,30.3848687,Building Material and Supplies Dealers
320,sg:04a149cc148a4a4fa153bdbe78f0e1c4,-97.647459,30.387901,484530018421,13,True,True,-97.6208213,30.3848687,Restaurants and Other Eating Places
321,sg:46e72cc5ad8b422591ec926573a672bd,-97.751722,30.286862,484530018421,4,True,False,-97.6208213,30.3848687,Automobile Dealers
322,sg:6b2843cf69084a2381d71a8cbfd6f2ec,-97.714021,30.356475,484530018421,4,True,False,-97.6208213,30.3848687,Furniture Stores
323,sg:40bfd435c89546bd9b5658374f2a674c,-97.675567,30.411953000000004,484530018421,7,True,True,-97.6208213,30.3848687,"Sporting Goods, Hobby, and Musical Instrument Stores"
324,sg:e4bc415365d04368b4ace50b894937de,-97.659596,30.387967,484530018421,5,True,True,-97.6208213,30.3848687,Elementary and Secondary Schools
325,sg:17b17fedb0914efaaae8844444067751,-97.743459,30.511753000000002,484530018421,4,True,False,-97.6208213,30.3848687,Personal Care Services
326,sg:bb18b228ce014058834c6c01663825a9,-97.676161,30.375442,484530018421,6,True,True,-97.6208213,30.3848687,Restaurants and Other Eating Places
327,sg:d416d14e1bc541f39975914963575318,-97.646343,30.411717,484530018421,6,True,True,-97.6208213,30.3848687,Couriers and Express Delivery Services
328,sg:2b488b37a7c348e5918ddc7816116127,-97.639882,30.362026,484530018421,8,True,True,-97.6208213,30.3848687,Elementary and Secondary Schools
329,sg:18066c63ac9a42c698b0a20af9fc14c2,-97.714407,30.391096,484530018421,4,True,False,-97.6208213,30.3848687,Restaurants and Other Eating Places
330,sg:bdb82a5a69e64ed69d3c6009f9a876e1,-97.639792,30.398181,484530018421,16,True,True,-97.6208213,30.3848687,Electronics and Appliance Stores
331,sg:9f895c7f9bf646d9823a4632c1ec679e,-97.661636,30.303371000000002,484530018421,4,True,False,-97.6208213,30.3848687,Gasoline Stations
332,sg:07c50865524c4ed79f77ee0f5786b354,-97.670089,30.425024,484530018421,6,True,True,-97.6208213,30.3848687,Restaurants and Other Eating Places
333,sg:3f055a1ede29440db35b8c25320bac77,-97.673824,30.476795000000003,484530018421,5,True,True,-97.6208213,30.3848687,Traveler Accommodation
334,sg:ba4ded7f628845aab24e4c74290b9b6d,-97.706558,30.447263,484530018421,5,True,True,-97.6208213,30.3848687,Automobile Dealers
335,sg:36ab7be678484dd3846f54103ec20b70,-97.682427,30.368189,484530018421,4,True,False,-97.6208213,30.3848687,Commercial and Industrial Machinery and Equipment Rental and Leasing
336,sg:79532345dd534da5b6c894880dd5b405,-97.640875,30.398682,484530018421,22,True,True,-97.6208213,30.3848687,"Agencies, Brokerages, and Other Insurance Related Activities"
337,sg:8f320830eb844c879f774e45623b167a,-97.646948,30.388958000000002,484530018421,12,True,True,-97.6208213,30.3848687,Depository Credit Intermediation
338,sg:058e9328b7d946929b1f9fea0297e7cf,-97.686336,30.381096999999997,484530018421,5,True,True,-97.6208213,30.3848687,Health and Personal Care Stores
339,sg:598498506b0d4f88b602bc46ffd11f09,-97.70418599999999,30.417256,484530018421,9,True,True,-97.6208213,30.3848687,Restaurants and Other Eating Places
340,sg:148282045ce243d2bb38d849ec43ac66,-97.742205,30.391662,484530018421,15,True,True,-97.6208213,30.3848687,"General Merchandise Stores, including Warehouse Clubs and Supercenters"
341,sg:14c8cb64e871406ca9ab18a988f9b97b,-97.648379,30.385942,484530018421,11,True,True,-97.6208213,30.3848687,Health and Personal Care Stores
342,sg:e37af33568bc4460a7be1985048e52df,-97.744005,30.265573999999997,484530018421,4,True,False,-97.6208213,30.3848687,Restaurants and Other Eating Places
343,sg:5be2d43cf70f40029e0f4eb1b8a1d9fb,-97.68514300000001,30.333246999999997,484530018421,4,True,False,-97.6208213,30.3848687,Electronics and Appliance Stores
344,sg:bde05ad7f155409fafb9c60092a16f7a,-97.72561,30.402624,484530018421,4,True,False,-97.6208213,30.3848687,Health and Personal Care Stores
345,sg:297cc10e73d0408caeec1e6e7e2c51fc,-97.69756,30.362909000000002,484530018421,6,True,True,-97.6208213,30.3848687,Restaurants and Other Eating Places
346,sg:3f9c8c69aad5437fba02416d5423a4c0,-97.650949,30.387688,484530018421,15,True,True,-97.6208213,30.3848687,Restaurants and Other Eating Places
347,sg:ae0320c7cd504a71bc3a9774579077e9,-97.63888399999999,30.361495,484530018421,4,True,False,-97.6208213,30.3848687,Automobile Dealers
348,sg:158fe61c838a41c8b7557a3394a7c53c,-97.564346,30.452283,484530018421,4,True,False,-97.6208213,30.3848687,"Museums, Historical Sites, and Similar Institutions"
349,sg:d1f5e7d5d59b4c1487b881ad329b7d7b,-97.649303,30.388097,484530018421,44,True,True,-97.6208213,30.3848687,Restaurants and Other Eating Places
350,sg:626b392f92c84be2992fc58d7254fc83,-97.720803,30.334008,484530018421,4,True,False,-97.6208213,30.3848687,Florists
351,sg:2c2cbaae22a4427b91aa292d617d0ffd,-97.68189699999999,30.428826,484530018421,9,True,True,-97.6208213,30.3848687,Gasoline Stations
352,sg:f53818be92364e54af56708b96393ee5,-97.726013,30.400153999999997,484530018421,4,True,False,-97.6208213,30.3848687,Electronics and Appliance Stores
353,sg:1914a1c29c9c4de6baf505c756f278a3,-97.69167,30.457614000000003,484530018421,4,True,False,-97.6208213,30.3848687,Child Day Care Services
354,sg:16b7ddf1df2142c29f1654d7414f54e4,-97.73638100000001,30.390789,484530018421,5,True,True,-97.6208213,30.3848687,Traveler Accommodation
355,sg:a88dc269d9c84279b3ffefbda18d45de,-97.758994,30.238642,484530018421,4,True,False,-97.6208213,30.3848687,Other Personal Services
356,sg:9598fc7b90ff42ec9b9702f1af12fb76,-97.69324,30.36151,484530018421,4,True,False,-97.6208213,30.3848687,Religious Organizations
357,sg:9cb1562c2cd749d4b796ce4ae4961942,-97.675826,30.410314,484530018421,5,True,True,-97.6208213,30.3848687,Restaurants and Other Eating Places
358,sg:43592aa554c5413faf067630515c3d78,-97.64801800000001,30.279319,484530018421,4,True,False,-97.6208213,30.3848687,Other Personal Services
359,sg:bdcc59c87a94468fa6692b51505da9ac,-97.748129,30.395390000000003,484530018421,4,True,False,-97.6208213,30.3848687,Restaurants and Other Eating Places
360,sg:9dc5fed57bf04eb9b0d04af4fb7dee2a,-97.76361800000001,30.220416999999998,484530018421,4,True,False,-97.6208213,30.3848687,Automotive Repair and Maintenance
361,sg:8cf3794b23034fd08f9c93982b109b2a,-97.701098,30.421946000000002,484530018421,12,True,True,-97.6208213,30.3848687,Lessors of Real Estate
362,sg:c30b9d4d2e9a4773a9e116035cfddb39,-97.649388,30.386801000000002,484530018421,7,True,True,-97.6208213,30.3848687,Grocery Stores
363,sg:5cf352108d88436387ed9b8b5b1ca982,-97.646658,30.387487,484530018421,4,True,False,-97.6208213,30.3848687,Lessors of Real Estate
364,sg:5f7ee5e619ac4058a1dcacac704ca20e,-97.716098,30.382584,484530018421,4,True,False,-97.6208213,30.3848687,Specialized Freight Trucking
365,sg:b31825ffa3de4da3a9002d7f8ed1ba30,-97.71593299999999,30.355963,484530018421,4,True,False,-97.6208213,30.3848687,Shoe Stores
366,sg:8009d87612d0438e9d0b79430801f90e,-97.64984399999999,30.388455,484530018421,18,True,True,-97.6208213,30.3848687,Other Miscellaneous Store Retailers
367,sg:191eb47e5439433faf5446930016335f,-97.684108,30.388402000000003,484530018421,4,True,False,-97.6208213,30.3848687,Restaurants and Other Eating Places
368,sg:58872d0358b0482eb54f0497f7103aa9,-97.741413,30.316076000000002,484530018421,4,True,False,-97.6208213,30.3848687,Restaurants and Other Eating Places
369,sg:93ac22127d334074bf232feccd690569,-97.741777,30.262432,484530018421,4,True,False,-97.6208213,30.3848687,Health and Personal Care Stores
370,sg:7f7a36cfd2404d3d91f9113050aab460,-97.639989,30.375555,484530018421,32,True,True,-97.6208213,30.3848687,Furniture Stores
371,sg:6668116d7a9d44678e3716c62b0ad7dc,-97.612814,30.342857000000002,484530018421,5,True,True,-97.6208213,30.3848687,Grocery Stores
372,sg:88e418cba6c046edb63108305092f25e,-97.72746,30.395587,484530018421,4,True,False,-97.6208213,30.3848687,Electronics and Appliance Stores
373,sg:d0411154c44a4601a05e3503a30ae174,-97.64188399999999,30.397523,484530018421,17,True,True,-97.6208213,30.3848687,Gasoline Stations
374,sg:fd7964df21da41daac5db4cd1473bbca,-97.668495,30.342158,484530018421,4,True,False,-97.6208213,30.3848687,"Office Supplies, Stationery, and Gift Stores"
375,sg:f7d79cca567540ed99f90439232e5ccf,-97.73831,30.344945000000003,484530018421,4,True,False,-97.6208213,30.3848687,
376,sg:fa8e4ddd1b7f48a4befc822ca175553d,-97.65923000000001,30.391123999999998,484530018421,4,True,False,-97.6208213,30.3848687,Gasoline Stations
377,sg:10a9041e6be14e7babdedad0582730f0,-97.907499,30.259821000000002,484530018421,4,True,False,-97.6208213,30.3848687,Gasoline Stations
378,sg:1fb1949dfa0e4177beaac82c16a45e85,-97.689261,30.414452,484530018421,4,True,False,-97.6208213,30.3848687,Restaurants and Other Eating Places
379,sg:8798fc3cf13942bfbc63a897276d94c7,-97.648042,30.389369,484530018421,28,True,True,-97.6208213,30.3848687,"General Merchandise Stores, including Warehouse Clubs and Supercenters"
380,sg:666f9d18ffce400a8b52a24513c802f9,-97.638568,30.404482,484530018421,16,True,True,-97.6208213,30.3848687,Grocery Stores
381,sg:2f542e230c594f5d8ea30b0d7f715e8e,-97.685925,30.378002000000002,484530018421,11,True,True,-97.6208213,30.3848687,Grocery Stores
382,sg:ce0e739f8ccb4101a555eb45ad001a86,-97.731703,30.391501,484530018421,6,True,True,-97.6208213,30.3848687,"Sporting Goods, Hobby, and Musical Instrument Stores"
383,sg:bd1df387b28c404fb2575ec9ada7742a,-97.745592,30.275533000000003,484530018421,6,True,True,-97.6208213,30.3848687,Offices of Other Health Practitioners
384,sg:6029692cc1d14f2882f042e218d38edf,-97.827522,30.452914,484530018421,7,True,True,-97.6208213,30.3848687,Restaurants and Other Eating Places
385,sg:44796df05d8a41af82bbc6b22487aab8,-97.769981,30.432578000000003,484530018421,4,True,False,-97.6208213,30.3848687,Restaurants and Other Eating Places
386,sg:09b5024e623f4aefa12ce7bcf478d142,-97.647669,30.387244,484530018421,10,True,True,-97.6208213,30.3848687,Gasoline Stations
387,sg:9fb24b843efc440d99ae8f8f8a2e293e,-97.738799,30.257903000000002,484530018421,5,True,True,-97.6208213,30.3848687,Restaurants and Other Eating Places
388,sg:98c6df6edd354f64bcb9b09e4640a677,-97.67591,30.411284000000002,484530017182,4,True,False,-97.75895320000001,30.344779600000003,Used Merchandise Stores
389,sg:7e5b105e20d642b3a7e4685630c74efa,-97.756979,30.338013,484530017182,4,True,False,-97.75895320000001,30.344779600000003,Offices of Physicians
390,sg:f977563c01904c3482351df27cd9e06f,-97.764057,30.244591999999997,484530017182,4,True,False,-97.75895320000001,30.344779600000003,Offices of Physicians
391,sg:00ac1fb916244947a15aac554182a0db,-97.754645,30.353277000000002,484530017182,4,True,False,-97.75895320000001,30.344779600000003,Health and Personal Care Stores
392,sg:0de8d6fc2a51488295fa1c012e807893,-97.757329,30.355875,484530017182,4,True,False,-97.75895320000001,30.344779600000003,Restaurants and Other Eating Places
393,sg:17fee6c47e3841f8830139ca3506f5ef,-97.748476,30.395071,484530017182,4,True,False,-97.75895320000001,30.344779600000003,Restaurants and Other Eating Places
394,sg:3d2dd5c69f9d42109a2462565e9f5b72,-97.75891800000001,30.30663,484530017182,4,True,False,-97.75895320000001,30.344779600000003,Child Day Care Services
395,sg:745d14ff76a64bdcb25628bc9b008512,-97.75653,30.334921,484530017182,4,True,False,-97.75895320000001,30.344779600000003,Offices of Other Health Practitioners
396,sg:71160a1f6d884715bf9109748f1aa945,-97.74130799999999,30.301344,484530017182,4,True,False,-97.75895320000001,30.344779600000003,Offices of Other Health Practitioners
397,sg:a4af44a1526b4a4288c777e351138dbd,-97.799601,30.230743,484530017494,4,True,False,-97.8391877,30.2287087,Health and Personal Care Stores
398,sg:7ac8c2ab826c42d6a3d56db3b8977389,-97.794077,30.159903999999997,484530017494,7,True,True,-97.8391877,30.2287087,"Sporting Goods, Hobby, and Musical Instrument Stores"
399,sg:a6f03141bad14875a6c83757991155ae,-97.793842,30.236666999999997,484530017494,4,True,False,-97.8391877,30.2287087,Restaurants and Other Eating Places
400,sg:ec6cce84b12e4d9e86548b2677297290,-97.797907,30.213623,484530017494,4,True,False,-97.8391877,30.2287087,Elementary and Secondary Schools
401,sg:4482d36839e642fb95a4630b71ad9929,-97.86178000000001,30.235391999999997,484530017494,4,True,False,-97.8391877,30.2287087,Other Amusement and Recreation Industries
402,sg:34f231d358bd454ab06fc34ecc94db59,-97.84168299999999,30.224959000000002,484530017494,4,True,False,-97.8391877,30.2287087,Home Health Care Services
403,sg:8a24f2f47b404677bc0511bfc1dee441,-97.771551,30.212903000000004,484530017494,4,True,False,-97.8391877,30.2287087,"Museums, Historical Sites, and Similar Institutions"
404,sg:bfc2524be2e4406094b20cb048c37dcb,-97.739138,30.322287,484530018542,4,True,False,-97.4967538,30.379199,Specialty Food Stores
405,sg:7125fee0035b4ff3b496b85dd51770d9,-97.762626,30.431434999999997,484530018542,4,True,False,-97.4967538,30.379199,Building Material and Supplies Dealers
406,sg:fcd3b368140e48daa32b62445efc74b5,-97.720963,30.261512,484530018542,4,True,False,-97.4967538,30.379199,Drinking Places (Alcoholic Beverages)
407,sg:0e5096a0c5e242f0a729d468bd70a413,-97.732561,30.389155,484530018542,5,True,True,-97.4967538,30.379199,Shoe Stores
408,sg:d380dc61f20e437bba777b2417669c08,-97.758834,30.214439000000002,484530018542,5,True,True,-97.4967538,30.379199,Automotive Repair and Maintenance
409,sg:65c07bef136f48e3b625d1d91ef19c80,-97.71606899999999,30.293273,484530018542,5,True,True,-97.4967538,30.379199,Restaurants and Other Eating Places
410,sg:d784d0b625e34272983224f8f1001a92,-97.723178,30.288271999999996,484530018542,4,True,False,-97.4967538,30.379199,Personal Care Services
411,sg:fb10d4228c584420b80438bd8c2075e2,-97.67124,30.421111,484530018542,6,True,True,-97.4967538,30.379199,Restaurants and Other Eating Places
412,sg:d9d37308c5e94885a1b3f8644ce34026,-97.669602,30.274540999999996,484530018542,4,True,False,-97.4967538,30.379199,Religious Organizations
413,sg:6c9e561980e048818a9cd2946228d292,-97.72144200000001,30.31754,484530018542,4,True,False,-97.4967538,30.379199,"Sporting Goods, Hobby, and Musical Instrument Stores"
414,sg:3daf3e20c6e84abfa08d9b54184dece9,-97.692551,30.384345,484530018542,4,True,False,-97.4967538,30.379199,Health and Personal Care Stores
415,sg:251d3ce56c5f48198881106b60d477f1,-97.733294,30.387190999999998,484530018542,4,True,False,-97.4967538,30.379199,Restaurants and Other Eating Places
416,sg:7fe0b9746ef14fcb9775baabdb6e0d9b,-97.770783,30.255551,484530018542,4,True,False,-97.4967538,30.379199,"General Merchandise Stores, including Warehouse Clubs and Supercenters"
417,sg:670caa275b3449279d2fbeec1262c9a3,-97.773987,30.246653000000002,484530018542,4,True,False,-97.4967538,30.379199,Specialized Freight Trucking
418,sg:0e24da50b6ed4056befea841e6dced52,-97.74407,30.442046,484530018542,9,True,True,-97.4967538,30.379199,Other Amusement and Recreation Industries
419,sg:b237e8b69928474ba3b35f74f8f36f42,-97.710663,30.389534,484530018542,4,True,False,-97.4967538,30.379199,Automobile Dealers
420,sg:7a6883a805794be18d6818506bb83ff6,-97.718257,30.383706,484530018542,5,True,True,-97.4967538,30.379199,Other Amusement and Recreation Industries
421,sg:4471d770c54e4be48162f3dbe476032e,-97.764876,30.233221,484530018542,4,True,False,-97.4967538,30.379199,Other Amusement and Recreation Industries
422,sg:28d2093b8a87468d9ccd6cabac628dda,-97.691038,30.359367,484530018542,5,True,True,-97.4967538,30.379199,Clothing Stores
423,sg:3731d0d5b8bd4c70a4f483b37376dbb3,-97.721742,30.317549,484530018542,4,True,False,-97.4967538,30.379199,Used Merchandise Stores
424,sg:ea7e6ef85f414b7abd78de82e79a04d4,-97.732782,30.388777,484530018542,4,True,False,-97.4967538,30.379199,Used Merchandise Stores
425,sg:a9a253d5baf64e58a179aee110e75aab,-97.83372,30.152287,484530018542,4,True,False,-97.4967538,30.379199,Other Amusement and Recreation Industries
426,sg:ad6e8d5843f04b53b57c970c627971d8,-97.730465,30.379039000000002,484530018542,4,True,False,-97.4967538,30.379199,Other Amusement and Recreation Industries
427,sg:87d5d7b3dc294a6980f9d47370e908f9,-97.716875,30.295068,484530018542,4,True,False,-97.4967538,30.379199,"Automotive Parts, Accessories, and Tire Stores"
428,sg:e22ecd32cb6b440d91e49b2aebd21d09,-97.70561,30.34293,484530018542,4,True,False,-97.4967538,30.379199,Depository Credit Intermediation
429,sg:256c6906705746dab82d0d163ecb4fb2,-97.698263,30.271133000000003,484530018542,4,True,False,-97.4967538,30.379199,Health and Personal Care Stores
430,sg:828344b5b7a946609b5910dc2d30e39d,-97.71159499999999,30.259131,484530018542,6,True,True,-97.4967538,30.379199,Grocery Stores
431,sg:b25c5cc6c69c40e0be8b4d6731d1927f,-97.72803,30.264971999999997,484530018542,4,True,False,-97.4967538,30.379199,Building Material and Supplies Dealers
432,sg:2287194e3edd48ce8478fde47a588392,-97.735355,30.300471999999996,484530018542,4,True,False,-97.4967538,30.379199,Other Personal Services
433,sg:c8978bca5e7f456e848e707670e31552,-97.68558900000001,30.381090999999998,484530018542,8,True,True,-97.4967538,30.379199,Grocery Stores
434,sg:bf30ef681a4d42898895dffb76aae955,-97.759282,30.259179,484530018542,4,True,False,-97.4967538,30.379199,Gasoline Stations
435,sg:69cc429db8934fef867da9a9300f977a,-97.61676700000001,30.309802,484530018542,4,True,False,-97.4967538,30.379199,Religious Organizations
436,sg:031c580af700442d8bd87507031a8e17,-97.723076,30.380227,484530018542,4,True,False,-97.4967538,30.379199,Other Amusement and Recreation Industries
437,sg:d2a2a2e6867c4688825992c50ac4b238,-97.712912,30.285638,484530018542,5,True,True,-97.4967538,30.379199,Offices of Physicians
438,sg:954c8bbbea304883917b38baa0da3901,-97.716504,30.385035,484530018542,4,True,False,-97.4967538,30.379199,Electronics and Appliance Stores
439,sg:1ce9f6f2460046238be5cb6a9c30b223,-97.791761,30.224075,484530018542,4,True,False,-97.4967538,30.379199,Services to Buildings and Dwellings
440,sg:8a63cedbb9204063a083554b0702c080,-97.726326,30.395108,484530018542,5,True,True,-97.4967538,30.379199,Traveler Accommodation
441,sg:c0e7ffd0bd7c433ebaad89468cf15a37,-97.66387900000001,30.313959000000004,484530018542,4,True,False,-97.4967538,30.379199,Restaurants and Other Eating Places
442,sg:452e7807d68b46f08f3dbd7ccd44e081,-97.716239,30.351612,484530018542,4,True,False,-97.4967538,30.379199,Religious Organizations
443,sg:d2b029e6200142c0b76abba97978808c,-97.73651,30.372861,484530018414,4,True,False,-97.6220216,30.4320202,Other Amusement and Recreation Industries
444,sg:69a143d0874e4fbc9f7a391fdd763762,-97.615566,30.438176000000002,484530018414,4,True,False,-97.6220216,30.4320202,"Museums, Historical Sites, and Similar Institutions"
445,sg:24daefcccd0c46a5973bb428237a2238,-97.73258299999999,30.354109,484530018414,4,True,False,-97.6220216,30.4320202,Restaurants and Other Eating Places
446,sg:954565ad54df4e5dbab7d2f2ac00951f,-97.702984,30.417154999999998,484530018414,7,True,True,-97.6220216,30.4320202,Health and Personal Care Stores
447,sg:6d684dc40369481cb420f78470b6f50f,-97.73441899999999,30.315071000000003,484530018414,4,True,False,-97.6220216,30.4320202,Restaurants and Other Eating Places
448,sg:916b6111a65e40149540cad128bdf02f,-97.69483699999999,30.450418,484530018414,4,True,False,-97.6220216,30.4320202,Restaurants and Other Eating Places
449,sg:b019ff91b3a94375af19bad92a19fc90,-97.736873,30.374629,484530018414,4,True,False,-97.6220216,30.4320202,Building Material and Supplies Dealers
450,sg:33f6c3b823734e2d8b77444cc7d1f2b6,-97.619497,30.429726000000002,484530018414,11,True,True,-97.6220216,30.4320202,"Museums, Historical Sites, and Similar Institutions"
451,sg:6bec5fb77dcb4750b5c992727334e1dc,-97.721769,30.388051,484530018414,5,True,True,-97.6220216,30.4320202,Electronics and Appliance Stores
452,sg:43e12c717b0442088e38374a8789ffa4,-97.724262,30.261060999999998,484530018414,6,True,True,-97.6220216,30.4320202,"Jewelry, Luggage, and Leather Goods Stores"
453,sg:19ba95aa1621418091d7164361a12f17,-97.683082,30.432219,484530018414,4,True,False,-97.6220216,30.4320202,Automotive Repair and Maintenance
454,sg:966c450c561d40dd81913ccbb1467965,-97.707442,30.306448,484530018414,4,True,False,-97.6220216,30.4320202,Restaurants and Other Eating Places
455,sg:54f0817c2035411da956a602b1128b0e,-97.623453,30.438304,484530018414,9,True,True,-97.6220216,30.4320202,"Museums, Historical Sites, and Similar Institutions"
456,sg:bdba92cea1a44af9ac0b309d771782bb,-97.728578,30.269184999999997,484530018414,5,True,True,-97.6220216,30.4320202,Restaurants and Other Eating Places
457,sg:ac138aa58d5e4a00918da41217985c5d,-97.68545300000001,30.446255999999998,484530018414,4,True,False,-97.6220216,30.4320202,Restaurants and Other Eating Places
458,sg:95d3eca6ecd54137ac1a5ad26304537b,-97.73659,30.319615999999996,484530018414,4,True,False,-97.6220216,30.4320202,"Sporting Goods, Hobby, and Musical Instrument Stores"
459,sg:9f3459fb74fa444f899d8b126c9e9f6d,-97.686459,30.378847999999998,484530018414,4,True,False,-97.6220216,30.4320202,Restaurants and Other Eating Places
460,sg:d6d3f5b7b243451db2359d5d094239b8,-97.799603,30.383933000000003,484530017161,5,True,True,-97.8043308,30.396773600000003,Building Material and Supplies Dealers
461,sg:56decbb3633a43fdb0c2a6bdb08b9184,-97.730142,30.264107,484530017161,4,True,False,-97.8043308,30.396773600000003,Clothing Stores
462,sg:369cec5bf8f2469ebd83b07c346e36af,-97.83301,30.393606,484530017161,9,True,True,-97.8043308,30.396773600000003,Religious Organizations
463,sg:537a4b988ad845ab8280fec10becbd48,-97.694698,30.318912,484530017161,6,True,True,-97.8043308,30.396773600000003,"Accounting, Tax Preparation, Bookkeeping, and Payroll Services"
464,sg:d06feff175ac4297a57d82669152951a,-97.824546,30.397084000000003,484530017161,5,True,True,-97.8043308,30.396773600000003,Other Amusement and Recreation Industries
465,sg:bd4ddd2cff0e4eb081dd3c6fdf046f6d,-97.742951,30.40168,484530017161,5,True,True,-97.8043308,30.396773600000003,Offices of Physicians
466,sg:dc1b7d46f0eb45fab7d8da58e93123da,-97.826981,30.452228,484530017161,4,True,False,-97.8043308,30.396773600000003,Restaurants and Other Eating Places
467,sg:c89df72f298c4e9b9b9af0fb5e1bcdb5,-97.73025600000001,30.356819,484530017161,4,True,False,-97.8043308,30.396773600000003,Building Material and Supplies Dealers
468,sg:04869c1d1a274e5a9ed5c1e4bda46b25,-97.833089,30.395009,484530017161,6,True,True,-97.8043308,30.396773600000003,Depository Credit Intermediation
469,sg:cf79ecb11750408ba8bf87ce63c327a8,-97.645903,30.280363,484530017161,7,True,True,-97.8043308,30.396773600000003,Restaurants and Other Eating Places
470,sg:16d0838d060045709e702a5975dca83a,-97.755365,30.422853000000003,484530017161,4,True,False,-97.8043308,30.396773600000003,Restaurants and Other Eating Places
471,sg:f5d8daec98c749f1a53757058cef2775,-97.800143,30.369701,484530017161,8,True,True,-97.8043308,30.396773600000003,Lessors of Real Estate
472,sg:77fbc09fa3ac4c21bce839c50e26b446,-97.741698,30.295496000000004,484530017161,4,True,False,-97.8043308,30.396773600000003,Restaurants and Other Eating Places
473,sg:44f2e083ec67439085a7e41ef792e481,-97.787018,30.368605,484530017161,4,True,False,-97.8043308,30.396773600000003,Electronics and Appliance Stores
474,sg:16c5c98665474b70af52ccdceddbb727,-97.848141,30.395466,484530017161,4,True,False,-97.8043308,30.396773600000003,Restaurants and Other Eating Places
475,sg:4885c90049174840b74e3bee4cc64962,-97.827835,30.394828999999998,484530017161,10,True,True,-97.8043308,30.396773600000003,Depository Credit Intermediation
476,sg:2984ac8f354c4ee7bde1db7ab1d48f7c,-97.829613,30.396988,484530017161,10,True,True,-97.8043308,30.396773600000003,Elementary and Secondary Schools
477,sg:37559ba4b04a4bbcb2295d8453575f87,-97.82887,30.453184000000004,484530017161,4,True,False,-97.8043308,30.396773600000003,Automotive Equipment Rental and Leasing
478,sg:01b0bb4880ec4b128b64926dfe32e87e,-97.788863,30.375435999999997,484530017161,5,True,True,-97.8043308,30.396773600000003,"Museums, Historical Sites, and Similar Institutions"
479,sg:eda71a8505d34245a28e5d703c3afc29,-97.833077,30.395020000000002,484530017161,4,True,False,-97.8043308,30.396773600000003,Depository Credit Intermediation
480,sg:28244de00b7d4270ab2baed68e3c213f,-97.745189,30.413984000000003,484530017161,4,True,False,-97.8043308,30.396773600000003,Automobile Dealers
481,sg:d749afc89e2a40a189df7dfd29975ce4,-97.697075,30.273992,484530008022,4,True,False,-97.70383050000001,30.274356,Restaurants and Other Eating Places
482,sg:0c4dfb140edf473f9d3cd3db58b61e19,-97.783079,30.209521999999996,484530008022,4,True,False,-97.70383050000001,30.274356,Wired and Wireless Telecommunications Carriers
483,sg:c0ab1709519e4608a47dd57879c99634,-97.746501,30.203151000000002,484530008022,5,True,True,-97.70383050000001,30.274356,"Office Supplies, Stationery, and Gift Stores"
484,sg:58e27d3d248b4defbbd07efdf8065cd4,-97.700397,30.276065000000003,484530008022,7,True,True,-97.70383050000001,30.274356,Offices of Dentists
485,sg:95b49a8fa0db460eb53737139ced4e68,-97.784323,30.241607000000002,484530008022,4,True,False,-97.70383050000001,30.274356,Restaurants and Other Eating Places
486,sg:29d0b5d1e2e643f6b76c7dc1a98d01f5,-97.706386,30.268571,484530008022,4,True,False,-97.70383050000001,30.274356,Restaurants and Other Eating Places
487,sg:6999fb9cb19942748620cb3323e4ba0c,-97.695689,30.280967999999998,484530008022,4,True,False,-97.70383050000001,30.274356,Religious Organizations
488,sg:8b16f1479066419aaafe4c5261f7fdef,-97.712027,30.260351,484530008022,4,True,False,-97.70383050000001,30.274356,Restaurants and Other Eating Places
489,sg:aa6a32a54b684023ab38d66e8b2630ae,-97.708795,30.295956,484530008022,4,True,False,-97.70383050000001,30.274356,Other Amusement and Recreation Industries
490,sg:d81d2c92afcd4bc0b99db774ae2bdd02,-97.716034,30.29325,484530018451,4,True,False,-97.69036080000001,30.3958239,Grocery Stores
491,sg:59a6a5837512479cb39c3ccfae732ea2,-97.745511,30.398003999999997,484530018451,4,True,False,-97.69036080000001,30.3958239,Wired and Wireless Telecommunications Carriers
492,sg:974b958b9faa47cd83a677d7eb5b8a68,-97.711085,30.395262,484530018451,5,True,True,-97.69036080000001,30.3958239,Other Miscellaneous Store Retailers
493,sg:47290ca8bfd74b29842863d244879d04,-97.746111,30.264105999999998,484530018451,5,True,True,-97.69036080000001,30.3958239,Restaurants and Other Eating Places
494,sg:6d1f3290a755435a9b75bc84d0ccdfb8,-97.72029,30.412899,484530018451,4,True,False,-97.69036080000001,30.3958239,Other Amusement and Recreation Industries
495,sg:4b626a76af7440cea7adc2cb4d6dd3a2,-97.681718,30.392983,484530018451,4,True,False,-97.69036080000001,30.3958239,"Automotive Parts, Accessories, and Tire Stores"
496,sg:9395cfcf37674038b6f2aaad3a973002,-97.68775600000001,30.310997999999998,484530018451,6,True,True,-97.69036080000001,30.3958239,Child Day Care Services
497,sg:7baaf41c10e24d92a4696cc12a424027,-97.677663,30.49182,484530018451,4,True,False,-97.69036080000001,30.3958239,Automotive Repair and Maintenance
498,sg:ed3bcac42deb47c99e6cfad609726b5e,-97.75193900000001,30.424885999999997,484530017552,11,True,True,-97.7796118,30.406894,Restaurants and Other Eating Places
499,sg:2c481148ecf24553bf8605e493aa62a4,-97.763228,30.402409999999996,484530017552,12,True,True,-97.7796118,30.406894,Other Amusement and Recreation Industries
500,sg:9d57de1d2ce54929b1945ad29fc0b8a8,-97.780568,30.438781,484530017552,4,True,False,-97.7796118,30.406894,Gambling Industries
501,sg:d2553057cd494821abdae0c4b05b12d4,-97.789045,30.447470000000003,484530017552,5,True,True,-97.7796118,30.406894,Restaurants and Other Eating Places
502,sg:d1287e4237f245a682e2fc0d05b572c7,-97.743812,30.40539,484530017552,4,True,False,-97.7796118,30.406894,Offices of Physicians
503,sg:53291dd58fe54a639848a4213c4abe42,-97.833186,30.296203000000002,484530017552,4,True,False,-97.7796118,30.406894,Couriers and Express Delivery Services
504,sg:15616bc9bded4044aa1066f3e7bf1a13,-97.73934799999999,30.365561,484530017552,5,True,True,-97.7796118,30.406894,Offices of Dentists
505,sg:903c778386bb425fad104b58387d38a2,-97.778666,30.446508,484530017552,4,True,False,-97.7796118,30.406894,Used Merchandise Stores
506,sg:e28b2a1db4be4964922ca12835639cef,-97.743074,30.381588,484530017552,4,True,False,-97.7796118,30.406894,Personal Care Services
507,sg:59aa8106d8cf4729b733ffdf0c923606,-97.835352,30.441492999999998,484530017552,4,True,False,-97.7796118,30.406894,Automotive Repair and Maintenance
508,sg:d8768a597341458da46dd166c60385a6,-97.741185,30.388516999999997,484530017552,9,True,True,-97.7796118,30.406894,Lessors of Real Estate
509,sg:7ebac93e9791463ab1b4c624b0c0c62a,-97.78078199999999,30.413739,484530017552,7,True,True,-97.7796118,30.406894,Elementary and Secondary Schools
510,sg:54ea105fa49a418d9157457d249b3924,-97.803657,30.336708,484530017552,6,True,True,-97.7796118,30.406894,Clothing Stores
511,sg:06b9e4ded8044259bbf783474b02b97e,-97.772853,30.27648,484530017552,4,True,False,-97.7796118,30.406894,"Museums, Historical Sites, and Similar Institutions"
512,sg:23f58a9b64f2434ca09ad77c199b4fea,-97.784367,30.424714,484530017552,4,True,False,-97.7796118,30.406894,Offices of Dentists
513,sg:f38b04c7e87843639ec30ad9f9edec1e,-97.717787,30.362389,484530022091,9,True,True,-97.5328094,30.335292100000004,Restaurants and Other Eating Places
514,sg:f299b78e78434ab4a52e4fce5d20dac3,-97.815341,30.206865999999998,484530022091,4,True,False,-97.5328094,30.335292100000004,Offices of Other Health Practitioners
515,sg:4907fc1c96cd42599ccf49ab2f4f5e09,-97.709586,30.206535,484530022091,4,True,False,-97.5328094,30.335292100000004,Services to Buildings and Dwellings
516,sg:856cf8feed0147c1a95785cd6d1faa2e,-97.762344,30.45976,484530022091,4,True,False,-97.5328094,30.335292100000004,Health and Personal Care Stores
517,sg:02ade6dd62ed41f8b168e4ae99d8909c,-97.716229,30.361440999999996,484530022091,4,True,False,-97.5328094,30.335292100000004,Restaurants and Other Eating Places
518,sg:0253dfad652d4dbc861c7489a6c42cc6,-97.657888,30.329195000000002,484530022091,4,True,False,-97.5328094,30.335292100000004,Restaurants and Other Eating Places
519,sg:1850a9432fd54e28b6fd859948306a34,-97.690026,30.376784000000004,484530022091,4,True,False,-97.5328094,30.335292100000004,Building Material and Supplies Dealers
520,sg:8047f193e3424cee89bcf65b5ef43231,-97.75145,30.347165000000004,484530022091,4,True,False,-97.5328094,30.335292100000004,Offices of Physicians
521,sg:9955f9b269094b87a837887b352a4dbc,-97.760018,30.273540999999998,484530022091,4,True,False,-97.5328094,30.335292100000004,Restaurants and Other Eating Places
522,sg:93d71d4eb00b4a81bff0023d23532062,-97.79048399999999,30.455121000000002,484530022091,4,True,False,-97.5328094,30.335292100000004,Offices of Other Health Practitioners
523,sg:9b50a4ffdd1143b88d1aef65d82db4f7,-97.74142900000001,30.279943,484530022091,4,True,False,-97.5328094,30.335292100000004,Other Miscellaneous Store Retailers
524,sg:7e8218ead4fd4a21aef7a226fb82c2d6,-97.717362,30.33955,484530022091,5,True,True,-97.5328094,30.335292100000004,Other Miscellaneous Store Retailers
525,sg:2ba6390e74144b00a5ff5540c4086cfd,-97.741293,30.280001000000002,484530022091,4,True,False,-97.5328094,30.335292100000004,Restaurants and Other Eating Places
526,sg:1614f9bb037e44a88d1b7ae1b100807a,-97.743791,30.405378999999996,484530022091,7,True,True,-97.5328094,30.335292100000004,Offices of Other Health Practitioners
527,sg:ebb7d59a142e4aabbcdddd70af44534f,-97.533454,30.348029999999998,484530022091,4,True,False,-97.5328094,30.335292100000004,"Office Supplies, Stationery, and Gift Stores"
528,sg:fbb5cbc96f524f3b909932a214e876e2,-97.602297,30.335155,484530022091,4,True,False,-97.5328094,30.335292100000004,Automotive Repair and Maintenance
529,sg:18fd0a3b6b3a4b69ba0262a1bcb979c6,-97.766017,30.430646999999997,484530022091,4,True,False,-97.5328094,30.335292100000004,Depository Credit Intermediation
530,sg:7ae4d08149d04dcf894a2dcd7c76e08b,-97.70852099999999,30.355251000000003,484530022091,4,True,False,-97.5328094,30.335292100000004,Building Material and Supplies Dealers
531,sg:3cdeebc4de1c4fe58304f7cd46c9f3ac,-97.761393,30.20417,484530022091,4,True,False,-97.5328094,30.335292100000004,Automobile Dealers
532,sg:e4cb26d4a5d248bcbf6f80cf91e975ef,-97.703941,30.415753000000002,484530022091,4,True,False,-97.5328094,30.335292100000004,Offices of Physicians
533,sg:f6570eac709c456f8f6e7311f531d523,-97.791445,30.174735,484530024213,4,True,False,-97.79207629999999,30.171302700000002,Building Material and Supplies Dealers
534,sg:96920f2ba049432daf10290de6df017d,-97.67641,30.377668,484530024213,4,True,False,-97.79207629999999,30.171302700000002,Gasoline Stations
535,sg:5b43641f1194431ab9e66f1591df806d,-97.696248,30.263174,484530024213,4,True,False,-97.79207629999999,30.171302700000002,Other Amusement and Recreation Industries
536,sg:152913a1ce524acb9f906a1974e38c05,-97.77616,30.198853999999997,484530024213,4,True,False,-97.79207629999999,30.171302700000002,Automobile Dealers
537,sg:4275b0327a644773875acc6e8d9ae5e8,-97.742713,30.269577,484530024213,4,True,False,-97.79207629999999,30.171302700000002,"Museums, Historical Sites, and Similar Institutions"
538,sg:c8a202537b404119a220dfcd5c3354e0,-97.83315400000001,30.177057,484530024213,6,True,True,-97.79207629999999,30.171302700000002,"Museums, Historical Sites, and Similar Institutions"
539,sg:10325bafc77648dc825e0c4be225eb57,-97.69622199999999,30.263677,484530024213,4,True,False,-97.79207629999999,30.171302700000002,Restaurants and Other Eating Places
540,sg:3bc7f88a650747599c5a62ca5fb020a8,-97.722045,30.333539000000002,484530024213,4,True,False,-97.79207629999999,30.171302700000002,Motion Picture and Video Industries
541,sg:4f8229f150f348a3aa54a5209ec0064f,-97.754488,30.235876,484530024213,4,True,False,-97.79207629999999,30.171302700000002,"Justice, Public Order, and Safety Activities"
542,sg:064127a31aad4719baa58e64f5b671fc,-97.676513,30.407197999999998,484530024213,6,True,True,-97.79207629999999,30.171302700000002,Traveler Accommodation
543,sg:0a467eaa5bbc48b0ad715b6774c3e840,-97.755267,30.219192,484530023181,6,True,True,-97.71333320000001,30.2329044,Gasoline Stations
544,sg:7ddc3558b7194957ac383fbc6f25367a,-97.722167,30.236434999999997,484530023181,20,True,True,-97.71333320000001,30.2329044,Electronics and Appliance Stores
545,sg:c143cc04dcd2480f9ef75931ad2855f8,-97.719861,30.239266999999998,484530023181,5,True,True,-97.71333320000001,30.2329044,Restaurants and Other Eating Places
546,sg:f17ab34af4ed4158b216f6b37d7fb81d,-97.720399,30.234354999999997,484530023181,4,True,False,-97.71333320000001,30.2329044,Health and Personal Care Stores
547,sg:f6dfefaa322146618e68b5297d0b6e3c,-97.72869200000001,30.242990999999996,484530023181,4,True,False,-97.71333320000001,30.2329044,Wired and Wireless Telecommunications Carriers
548,sg:f2f4522a6f144d42b93c70c372c99eff,-97.737341,30.266721999999998,484530023181,4,True,False,-97.71333320000001,30.2329044,Restaurants and Other Eating Places
549,sg:809bd6fe65ab4bde9a2309cab527512e,-97.77204,30.278109999999998,484530023181,5,True,True,-97.71333320000001,30.2329044,Restaurants and Other Eating Places
550,sg:14e8d45efe094250aae536061c2541c5,-97.77950600000001,30.225634000000003,484530023181,4,True,False,-97.71333320000001,30.2329044,Offices of Physicians
551,sg:fb4c701539f244b680fcccabf2adf491,-97.72354399999999,30.232854,484530023181,5,True,True,-97.71333320000001,30.2329044,Health and Personal Care Stores
552,sg:bd6d4b74ee9349b9ac8cc9762956250c,-97.721168,30.235621000000002,484530023181,5,True,True,-97.71333320000001,30.2329044,Specialty Food Stores
553,sg:9a089a0e9654488e96ad2bb3a7ea3f8f,-97.658464,30.330121000000002,484530023181,4,True,False,-97.71333320000001,30.2329044,"Executive, Legislative, and Other General Government Support"
554,sg:74493c53d096463a97ee1a7d446f4255,-97.727641,30.240178999999998,484530023181,4,True,False,-97.71333320000001,30.2329044,Restaurants and Other Eating Places
555,sg:5212f8e326444155b6729d956b7448a8,-97.72534399999999,30.235652,484530023181,4,True,False,-97.71333320000001,30.2329044,Building Material and Supplies Dealers
556,sg:9842eec9ee50479ebf9359c7554932e7,-97.745249,30.270267999999998,484530023181,4,True,False,-97.71333320000001,30.2329044,Gasoline Stations
557,sg:559604c0cfcf464f9ca3cf61438c04b8,-97.720049,30.231896999999996,484530023181,13,True,True,-97.71333320000001,30.2329044,Gasoline Stations
558,sg:95336a093b2f443ca9ee13522763e561,-97.72959399999999,30.243534999999998,484530023181,5,True,True,-97.71333320000001,30.2329044,Restaurants and Other Eating Places
559,sg:97062d2fab6d47b08cc6d392f54662ea,-97.774787,30.206179,484530023181,4,True,False,-97.71333320000001,30.2329044,Restaurants and Other Eating Places
560,sg:54896715cb7b481cac653768609a1df3,-97.717391,30.358027000000003,484530023181,5,True,True,-97.71333320000001,30.2329044,Automobile Dealers
561,sg:e256ffad68184c21806c13ddb913640b,-97.727598,30.268921000000002,484530023181,4,True,False,-97.71333320000001,30.2329044,Florists
562,sg:128bdef8cef7403f99b1ceaeb3707f19,-97.792524,30.23767,484530017851,4,True,False,-97.7353813,30.4447559,Restaurants and Other Eating Places
563,sg:cf6232239b654269a7b617ca62792781,-97.750311,30.441445,484530017851,4,True,False,-97.7353813,30.4447559,Grocery Stores
564,sg:3a1cd6edef5140aeb69c24c58b6d03a0,-97.78449,30.238253000000004,484530017851,4,True,False,-97.7353813,30.4447559,Depository Credit Intermediation
565,sg:3790fc4659304a2db19a7b7e2310b7d1,-97.754243,30.439825,484530017851,4,True,False,-97.7353813,30.4447559,Automotive Repair and Maintenance
566,sg:b740106f431a42549920282cf8fbfe62,-97.687852,30.382134999999998,484530017851,4,True,False,-97.7353813,30.4447559,Restaurants and Other Eating Places
567,sg:72bd59437cd547388df297ee6aac0d0b,-97.732185,30.364891999999998,484530017851,5,True,True,-97.7353813,30.4447559,Automotive Repair and Maintenance
568,sg:150e6e3484c142148171e34f8413467c,-97.736708,30.439053,484530017851,4,True,False,-97.7353813,30.4447559,Depository Credit Intermediation
569,sg:5f499de709c046dab3627aa0687839f0,-97.713414,30.424149,484530017851,7,True,True,-97.7353813,30.4447559,Gasoline Stations
570,sg:f10bbf2d0871450dbf4f751b074fd870,-97.74260100000001,30.441549,484530017851,32,True,True,-97.7353813,30.4447559,Grocery Stores
571,sg:d32b6fde01084047a0985167cdaa4022,-97.743137,30.444018,484530017851,6,True,True,-97.7353813,30.4447559,Gasoline Stations
572,sg:e36fe36ffd2840b9b4bacef6755c7945,-97.760198,30.332751000000002,484530017851,4,True,False,-97.7353813,30.4447559,Clothing Stores
573,sg:5398e1660e0e47f299bb1daca4af7334,-97.731431,30.437556,484530017851,5,True,True,-97.7353813,30.4447559,Personal Care Services
574,sg:64d8256daa3c4000a9b6212fe123e7c2,-97.733098,30.436737,484530017851,5,True,True,-97.7353813,30.4447559,Support Activities for Road Transportation
575,sg:54edbb778b9c484b995c3ceab549ecbe,-97.73143,30.437534000000003,484530017851,5,True,True,-97.7353813,30.4447559,Services to Buildings and Dwellings
576,sg:5ec57700115e4850a4af9bb6ffd7ddf4,-97.74720500000001,30.449405,484530017851,4,True,False,-97.7353813,30.4447559,Child Day Care Services
577,sg:430d8314d26b459697a4e024d54f1081,-97.736062,30.439038,484530017851,7,True,True,-97.7353813,30.4447559,Specialized Freight Trucking
578,sg:6d5a0c806876421ca46650764e07b1bb,-97.73029100000001,30.434697999999997,484530017851,6,True,True,-97.7353813,30.4447559,"General Merchandise Stores, including Warehouse Clubs and Supercenters"
579,sg:eec049d11d424878a99f886fb9d946a5,-97.736347,30.347967999999998,484530017851,4,True,False,-97.7353813,30.4447559,Other Miscellaneous Store Retailers
580,sg:c2aabba06e3840e990abadcf2c3d05ff,-97.760654,30.301001,484530017851,4,True,False,-97.7353813,30.4447559,Offices of Other Health Practitioners
581,sg:723a7828244a4c04a6c9df433b9434e9,-97.719509,30.395264,484530017851,6,True,True,-97.7353813,30.4447559,"Sporting Goods, Hobby, and Musical Instrument Stores"
582,sg:d0aed1457fc549049784086d51ecd089,-97.78348199999999,30.443182,484530017851,6,True,True,-97.7353813,30.4447559,Restaurants and Other Eating Places
583,sg:b0cb10b580534b16b8ceba69881ede6e,-97.70270699999999,30.420684,484530017851,5,True,True,-97.7353813,30.4447559,Restaurants and Other Eating Places
584,sg:dd6cdc67ae5841be8bcb20dc0a8eb9d3,-97.714549,30.424545000000002,484530017851,8,True,True,-97.7353813,30.4447559,Health and Personal Care Stores
585,sg:537348551a744c0fb07d7f4e2d05d606,-97.68993,30.41211,484530017851,4,True,False,-97.7353813,30.4447559,Restaurants and Other Eating Places
586,sg:022acd358ce04feb9620ed6b275015fb,-97.706218,30.411525,484530017851,6,True,True,-97.7353813,30.4447559,Offices of Physicians
587,sg:e98e6edad4cf471892358927f4fe0c11,-97.744185,30.445218,484530017851,11,True,True,-97.7353813,30.4447559,Lessors of Real Estate
588,sg:134d32b54d7740b3874e5eaa68c0ed6d,-97.731483,30.355959999999996,482090109023,5,True,True,-97.8524845,30.049326300000004,Gasoline Stations
589,sg:a76c7a9e40804300afd2241e30bc87b1,-97.83534399999999,30.076806,482090109023,4,True,False,-97.8524845,30.049326300000004,"Museums, Historical Sites, and Similar Institutions"
590,sg:dfc038035a304d18952ba08f8730a71a,-97.75801,30.272796000000003,482090109023,4,True,False,-97.8524845,30.049326300000004,Restaurants and Other Eating Places
591,sg:ea0d989c501d4603883a1e071f6797f9,-97.770721,30.191732000000002,482090109023,6,True,True,-97.8524845,30.049326300000004,Restaurants and Other Eating Places
592,sg:6dc06ad6ad974fdcb8a1258ec1636823,-97.764351,30.252547999999997,482090109023,7,True,True,-97.8524845,30.049326300000004,"Museums, Historical Sites, and Similar Institutions"
593,sg:b59907db1b7041d19d9c369eb739acb0,-97.758258,30.272318,482090109023,4,True,False,-97.8524845,30.049326300000004,Restaurants and Other Eating Places
594,sg:14803cdb33874c79a098e6fa9c3f28b7,-97.776204,30.222933,482090109023,5,True,True,-97.8524845,30.049326300000004,Medical and Diagnostic Laboratories
595,sg:b4873a4e150141438813f4d53f5419e9,-97.731585,30.303215,482090109023,9,True,True,-97.8524845,30.049326300000004,Elementary and Secondary Schools
596,sg:70789e612c1743dda83fb971522d6a7c,-97.787578,30.16065,482090109023,4,True,False,-97.8524845,30.049326300000004,"Machinery, Equipment, and Supplies Merchant Wholesalers"
597,sg:6cc040ecd0ff4bacb6342b2c331dddba,-97.787291,30.231119,482090109023,4,True,False,-97.8524845,30.049326300000004,Gasoline Stations
598,sg:39e97834edad4b989b24dfd05ba61158,-97.800597,30.172679,482090109023,5,True,True,-97.8524845,30.049326300000004,Restaurants and Other Eating Places
599,sg:00024dbdd3a5405686f0febc74f2f723,-97.742928,30.308959,482090109023,4,True,False,-97.8524845,30.049326300000004,Offices of Physicians
600,sg:701fe37121034982bd614b17014226d3,-97.741425,30.360862,482090109023,4,True,False,-97.8524845,30.049326300000004,Furniture Stores
601,sg:d44f23a7131643fa8966a0234e7fff63,-97.785286,30.227731,482090109023,6,True,True,-97.8524845,30.049326300000004,Restaurants and Other Eating Places
602,sg:aa700ce97ca34ac58b99def101557166,-97.73418199999999,30.264886999999998,482090109023,4,True,False,-97.8524845,30.049326300000004,"Sporting Goods, Hobby, and Musical Instrument Stores"
603,sg:6a321f9aeba5468bb1d56b34accb9bc1,-97.728655,30.265112,482090109023,4,True,False,-97.8524845,30.049326300000004,Grocery Stores
604,sg:2dcfc73d4e7048fa93b6458549242a95,-97.665062,30.210618,482090109023,4,True,False,-97.8524845,30.049326300000004,Traveler Accommodation
605,sg:f9402dbf97824a01a2fe0d8b8a0cfc6a,-97.735112,30.277246,482090109023,4,True,False,-97.8524845,30.049326300000004,Offices of Physicians
606,sg:831a768b9d194fe0a8aa45ae076f8cc4,-97.742337,30.233659999999997,482090109023,5,True,True,-97.8524845,30.049326300000004,Restaurants and Other Eating Places
607,sg:1db1706286b94b68bb321353ca3e7a02,-97.699485,30.357837,480270204012,4,False,False,-97.36641350000001,31.1124391,Grocery Stores
608,sg:e817987121564a3c8c9d04bbe5250ec4,-97.73057800000001,30.210748,480270204012,6,False,True,-97.36641350000001,31.1124391,"Sporting Goods, Hobby, and Musical Instrument Stores"
609,sg:496b43c1b0a4436e952c562dacd80660,-97.731424,30.487733000000002,480270204012,4,False,False,-97.36641350000001,31.1124391,Offices of Physicians
610,sg:42596671bc51484a8482d4c0642bca8a,-97.773725,30.224752000000002,482090109052,4,True,False,-97.89005279999999,29.999683100000002,Health and Personal Care Stores
611,sg:9cdfc6ce0cc841b1b4b45cdf43c7f997,-97.73907,30.268175,482090109052,4,True,False,-97.89005279999999,29.999683100000002,Restaurants and Other Eating Places
612,sg:8fbc2c63e9bd42e0aac321a309d94701,-97.853686,30.196982000000002,482090109052,4,True,False,-97.89005279999999,29.999683100000002,"Other Professional, Scientific, and Technical Services"
613,sg:b798f25b20c446a1b9fffed250e0fb81,-97.783659,30.164991999999998,482090109052,4,True,False,-97.89005279999999,29.999683100000002,Automotive Repair and Maintenance
614,sg:5cba2b318f5c4231ad4032865fb0fbe5,-97.78309399999999,30.263912,482090109052,4,True,False,-97.89005279999999,29.999683100000002,Offices of Physicians
615,sg:b6c0b5ac512843e5b340e1fb5e1a4fbe,-97.740617,30.296190999999997,482090109052,4,True,False,-97.89005279999999,29.999683100000002,Clothing Stores
616,sg:ef649a3510f348dfa6a2c4d76b8a9ccd,-97.738146,30.359240000000003,482090109052,4,True,False,-97.89005279999999,29.999683100000002,Gasoline Stations
617,sg:4b7e8ac77d764e76a1c8dfb206b97a3b,-97.75846700000001,30.207682000000002,482090109052,4,True,False,-97.89005279999999,29.999683100000002,Automobile Dealers
618,sg:26e42f89536a426fb2dd6ede6fbd1ba8,-97.887244,30.000432,482090109052,9,True,True,-97.89005279999999,29.999683100000002,"Museums, Historical Sites, and Similar Institutions"
619,sg:3a238ceaddd647fe9af34e6f5ccc520b,-97.72927800000001,30.285877000000003,482090109052,4,True,False,-97.89005279999999,29.999683100000002,"Museums, Historical Sites, and Similar Institutions"
620,sg:cecafcd146554bc4ad7a41219bbdde04,-97.793036,30.160418,482090109052,4,True,False,-97.89005279999999,29.999683100000002,Restaurants and Other Eating Places
621,sg:b7d71dfe29234d0e8f21b50c06e87d3d,-97.838628,30.302661999999998,482090109052,4,True,False,-97.89005279999999,29.999683100000002,"Agencies, Brokerages, and Other Insurance Related Activities"
622,sg:f5dacbc418a04641a54d21e4216e7462,-97.736051,30.267395,482090109052,4,True,False,-97.89005279999999,29.999683100000002,"Sporting Goods, Hobby, and Musical Instrument Stores"
623,sg:4533ecedf3f548db99def8f47a977359,-97.834126,30.215566,484530017721,4,True,False,-97.84093,30.133742600000005,Restaurants and Other Eating Places
624,sg:0716bf832acf4536b9061b7d9148c62d,-97.83994799999999,30.220060999999998,484530017721,6,True,True,-97.84093,30.133742600000005,Restaurants and Other Eating Places
625,sg:c4f287e583d848d292ae70c5f9c043fb,-97.868977,30.198960999999997,484530017721,4,True,False,-97.84093,30.133742600000005,Restaurants and Other Eating Places
626,sg:7236f7903b1a4a2ca6203a46a57292d6,-97.68253,30.336526,484530017721,5,True,True,-97.84093,30.133742600000005,"Accounting, Tax Preparation, Bookkeeping, and Payroll Services"
627,sg:4d2b8b479b0646528194bd19c2ebf024,-97.852561,30.132417999999998,484530017721,5,True,True,-97.84093,30.133742600000005,Other Amusement and Recreation Industries
628,sg:a6dfcc969fcb4b74b396c13a50d1d4e3,-97.978174,30.203933000000003,484530017721,4,True,False,-97.84093,30.133742600000005,Building Material and Supplies Dealers
629,sg:dd73ba96f5364ce4915dedfb8ceaeede,-97.72284,30.24555,484530017721,5,True,True,-97.84093,30.133742600000005,"Museums, Historical Sites, and Similar Institutions"
630,sg:04cdc71a2bc241338f9d81ad3d59617f,-97.838318,30.200881,484530017721,5,True,True,-97.84093,30.133742600000005,Specialty Food Stores
631,sg:a71a372af55e4b949d6cb0b93eab96e4,-97.7221,30.377413,484530017721,4,True,False,-97.84093,30.133742600000005,Other Amusement and Recreation Industries
632,sg:b87776381c0f4e94a6b2c77c7b1268f4,-97.822764,30.173252,484530017721,4,True,False,-97.84093,30.133742600000005,Restaurants and Other Eating Places
633,sg:a69d550543b743e8954b5491114aebb5,-97.849016,30.183734,484530017721,4,True,False,-97.84093,30.133742600000005,Depository Credit Intermediation
634,sg:0b124ddb1e73494d8ee30bd5028a98d1,-97.84056899999999,30.182856,484530017721,4,True,False,-97.84093,30.133742600000005,Home Health Care Services
635,sg:54d3df957fc64ed59126263d1b066a9b,-97.722709,30.288672,484530017721,4,True,False,-97.84093,30.133742600000005,Traveler Accommodation
636,sg:bf0d7f1ad47343aeb7a38863353769b2,-97.792716,30.235405,484530017721,4,True,False,-97.84093,30.133742600000005,Continuing Care Retirement Communities and Assisted Living Facilities for the Elderly
637,sg:f02d02579143458889c6fe8b54ae9e16,-97.759431,30.231679999999997,484530017721,5,True,True,-97.84093,30.133742600000005,Clothing Stores
638,sg:efbb69639c674ecd9cd3a45bd3fa7758,-97.953843,30.223996999999997,484530017721,4,True,False,-97.84093,30.133742600000005,Other Amusement and Recreation Industries
639,sg:dc531908403443f2846bda72c9a7774c,-97.806271,30.205378000000003,484530017721,4,True,False,-97.84093,30.133742600000005,Restaurants and Other Eating Places
640,sg:93e9a610e76140a187ffa357a1d10a57,-97.831448,30.146673,484530017721,9,True,True,-97.84093,30.133742600000005,Other Motor Vehicle Dealers
641,sg:4f000159a77345ae94aceca57e0b2d57,-97.753055,30.387349,484910203102,4,False,False,-97.7334116,30.530138,Home Health Care Services
642,sg:aea057a201874c4184f4cd516f1717d6,-97.743461,30.559459999999998,484910203102,8,False,True,-97.7334116,30.530138,"Museums, Historical Sites, and Similar Institutions"
643,sg:ad6327c1842c4e489dcecb4bf7aaaa78,-97.85515799999999,30.402662,484910203102,4,False,False,-97.7334116,30.530138,Restaurants and Other Eating Places
644,sg:2f96ab797e0a40d4bf199882ec52d3cf,-97.707348,30.28675,484910203102,4,False,False,-97.7334116,30.530138,Personal Care Services
645,sg:5054abd3497d477c96ad7da2ed842eb3,-97.716746,30.425308,484910208072,4,True,False,-97.5603973,30.525940600000002,Restaurants and Other Eating Places
646,sg:a672e9199a48405f8820cf64bd81411c,-97.764596,30.367335999999998,484910208072,5,True,True,-97.5603973,30.525940600000002,Offices of Dentists
647,sg:54aa8bb9f246420aa3cff0527629f724,-97.74031,30.267114000000003,484910208072,4,True,False,-97.5603973,30.525940600000002,Restaurants and Other Eating Places
648,sg:2999ae1d898341cc80f2b3a3d65bd747,-97.68200300000001,30.366441,484910208072,4,True,False,-97.5603973,30.525940600000002,Automobile Dealers
649,sg:42313d4b1a77427b92a9a90a11de12d5,-97.68012,30.430649,484910208072,4,True,False,-97.5603973,30.525940600000002,Building Material and Supplies Dealers
