,safegraph_place_id,longitude,latitude,cbg,visits,hotspot_origin,hotspot_destination,cbg_longitude,cbg_latitude,top_category
0,sg:06f62af9bbeb4dc7bedd4817af885369,-81.84638000000001,30.305674,120310137211,41,True,True,-81.8569717,30.2795641,Lessors of Real Estate
1,sg:baf40c10694c4e4d8d76bc17f72e6e89,-81.839241,30.272846,120310137211,4,True,False,-81.8569717,30.2795641,Other Amusement and Recreation Industries
2,sg:d42f3e7ff74342fd88504ea09d796fca,-81.776041,30.2966,120310137211,12,True,False,-81.8569717,30.2795641,Restaurants and Other Eating Places
3,sg:dfe15ce1749c42688afe140d6c0d19bc,-81.544093,30.241770000000002,120310137211,4,True,False,-81.8569717,30.2795641,Religious Organizations
4,sg:e76b589993d84935b7c8c453b4df1b45,-81.542952,30.248642999999998,120310137211,6,True,False,-81.8569717,30.2795641,Offices of Physicians
5,sg:aac063d865954efd9c050aa05231dbc1,-81.62718000000001,30.186718,120310137211,4,True,False,-81.8569717,30.2795641,Offices of Physicians
6,sg:788a391dc5914f978ae89bae089d8783,-81.730971,30.308914,120310137211,4,True,False,-81.8569717,30.2795641,Gasoline Stations
7,sg:c6d36eb7dee846dfb894be42ee5b1962,-81.76526899999999,30.301140999999998,120310137211,6,True,False,-81.8569717,30.2795641,"Sporting Goods, Hobby, and Musical Instrument Stores"
8,sg:acb194b16e814d46bc9540872fb7fc72,-81.681658,30.214875,120310137211,6,True,False,-81.8569717,30.2795641,"Museums, Historical Sites, and Similar Institutions"
9,sg:d796386dd83645cc899736c491f2d2e2,-81.847689,30.268234999999997,120310137211,4,True,False,-81.8569717,30.2795641,Other Miscellaneous Store Retailers
10,sg:e3c95e582c8a423a9866996994ed41d9,-81.845321,30.305821999999996,120310137211,6,True,False,-81.8569717,30.2795641,Traveler Accommodation
11,sg:ddda39b59d794e88986a69934db0bbb8,-81.775599,30.2947,120310137211,6,True,False,-81.8569717,30.2795641,Gasoline Stations
12,sg:755274c15a2f479ab73cc765525d043b,-81.749804,30.313403000000005,120310137211,7,True,False,-81.8569717,30.2795641,Lessors of Real Estate
13,sg:8e06166f133a44b18e9a719766b609d5,-81.764839,30.301178999999998,120310137211,16,True,True,-81.8569717,30.2795641,Restaurants and Other Eating Places
14,sg:f59e011d391c4cda8d2bb822a51330f4,-81.83227600000001,30.275564000000003,120310137211,11,True,False,-81.8569717,30.2795641,Grocery Stores
15,sg:4e257d551d8348f5a205c1ea439278d8,-81.84473100000001,30.304021000000002,120310137211,14,True,True,-81.8569717,30.2795641,"General Merchandise Stores, including Warehouse Clubs and Supercenters"
16,sg:a68513f547a3489294f460a102af201c,-81.831221,30.274582000000002,120310137211,18,True,True,-81.8569717,30.2795641,"General Merchandise Stores, including Warehouse Clubs and Supercenters"
17,sg:2165c37a41be4b32897fcaa2c777b583,-81.739892,30.311852000000002,120310137211,8,True,False,-81.8569717,30.2795641,Gasoline Stations
18,sg:8e3745417caa4c5b9d47f026fdba305d,-81.941468,30.218601,120310137211,4,True,False,-81.8569717,30.2795641,Restaurants and Other Eating Places
19,sg:b598c8a857dc415e857ece071955f95a,-81.77561899999999,30.295937,120310137211,21,True,True,-81.8569717,30.2795641,Restaurants and Other Eating Places
20,sg:d48dc794704d4c69808ccad855d45b56,-81.780563,30.29245,120310137211,4,True,False,-81.8569717,30.2795641,Automotive Repair and Maintenance
21,sg:52cb7d5f1cb54ef3a6a732de18d560f7,-81.73702800000001,30.309523,120310137211,4,True,False,-81.8569717,30.2795641,Clothing Stores
22,sg:79b53fc9651c49dc8eed187ad477e6dd,-81.76492900000001,30.247895,120310137211,6,True,False,-81.8569717,30.2795641,Gasoline Stations
23,sg:d85811a9b7ae4d3488386935facb36a7,-81.77559699999999,30.296941999999998,120310137211,24,True,True,-81.8569717,30.2795641,Grocery Stores
24,sg:6c39fd68bc19454982600c434ec26913,-81.765488,30.256306,120310137211,5,True,False,-81.8569717,30.2795641,Religious Organizations
25,sg:896a8fee10044bfe914a207fe9444cf7,-81.691487,30.311371,120310137211,4,True,False,-81.8569717,30.2795641,Other Miscellaneous Store Retailers
26,sg:5084aed14b304965b17c05ceac60864f,-81.847424,30.305956,120310137211,23,True,True,-81.8569717,30.2795641,Restaurants and Other Eating Places
27,sg:2062d925e6b54b7899014b80beb3197a,-81.84622,30.305090999999997,120310137211,15,True,True,-81.8569717,30.2795641,Restaurants and Other Eating Places
28,sg:3ca1243f0a134d8ebbc0767a5017c36f,-81.716678,30.363505,120310137211,4,True,False,-81.8569717,30.2795641,Building Material and Supplies Dealers
29,sg:ed6266fb39dd4771ab68cbeac1235e60,-81.734261,30.315986,120310137211,18,True,True,-81.8569717,30.2795641,Building Material and Supplies Dealers
30,sg:6f9fb42fe560404cb8bfaa53f740a184,-81.725525,30.282433,120310137211,4,True,False,-81.8569717,30.2795641,"Office Supplies, Stationery, and Gift Stores"
31,sg:7cff20c1e7a34aefb44c7d8e5055a522,-81.77271999999999,30.271909,120310137211,4,True,False,-81.8569717,30.2795641,Florists
32,sg:d0786607eae54afabac79fd13ae5508c,-81.71826,30.31273,120310137211,4,True,False,-81.8569717,30.2795641,Restaurants and Other Eating Places
33,sg:115ac9dc2a994db69d61dfd51a184509,-81.846601,30.306728000000003,120310137211,98,True,True,-81.8569717,30.2795641,Grocery Stores
34,sg:aa81272fa471404f8de9fa7acee5b82d,-81.702162,30.306416,120310137211,5,True,False,-81.8569717,30.2795641,Used Merchandise Stores
35,sg:1bd87cd64b1848298db92c37c3b10dc6,-81.755561,30.247821000000002,120310137211,5,True,False,-81.8569717,30.2795641,"Automotive Parts, Accessories, and Tire Stores"
36,sg:dfc606fcd02c49358c1bc45e8f4f7d4e,-81.605514,30.323128999999998,120310137211,4,True,False,-81.8569717,30.2795641,Offices of Dentists
37,sg:3a612e8fb6e5488eae9bab10d1961064,-81.603237,30.287992,120310137211,6,True,False,-81.8569717,30.2795641,Home Health Care Services
38,sg:72085108087743d694b055463cd94f07,-81.845528,30.29353,120310137211,7,True,False,-81.8569717,30.2795641,Building Material and Supplies Dealers
39,sg:22ca4d1587764e3384e782bcb82ed14e,-81.660261,30.314331,120310137211,4,True,False,-81.8569717,30.2795641,Other Amusement and Recreation Industries
40,sg:c1eeb6bc1edb499c94df6b3c931299b8,-81.848177,30.305512,120310137211,16,True,True,-81.8569717,30.2795641,Gasoline Stations
41,sg:13d84de9589c4974b9ed5f5e11f55d8e,-81.83224399999999,30.275544,120310137211,5,True,False,-81.8569717,30.2795641,Gasoline Stations
42,sg:432a29f631fd4a179e5d2bc8b8f87cdc,-81.846226,30.305992,120310137211,15,True,True,-81.8569717,30.2795641,Restaurants and Other Eating Places
43,sg:3388b3f889e94c249bf3be5229f1182f,-81.73818,30.199042,120310137211,4,True,False,-81.8569717,30.2795641,"Sporting Goods, Hobby, and Musical Instrument Stores"
44,sg:4859ce7dfd1c4cb598094a8c310849ef,-81.696061,30.243387,120310137211,4,True,False,-81.8569717,30.2795641,Restaurants and Other Eating Places
45,sg:044cf28079704b65bfcb33f2adb661a5,-81.71898,30.280009000000003,120310137211,7,True,False,-81.8569717,30.2795641,Used Merchandise Stores
46,sg:5f8a7ec69c38487093f366ebd03e0116,-81.780649,30.294331,120310137211,11,True,False,-81.8569717,30.2795641,Restaurants and Other Eating Places
47,sg:dbc294a80b5a469e809c9fe9b60593fc,-81.756681,30.247769,120310137211,4,True,False,-81.8569717,30.2795641,Offices of Physicians
48,sg:732c1d65238d46f497023fa77277d92c,-81.730757,30.336181,120310137211,4,True,False,-81.8569717,30.2795641,Automobile Dealers
49,sg:86e10e6b26af43c193dc662e920a97f3,-81.65540899999999,30.304752,120310137211,4,True,False,-81.8569717,30.2795641,Restaurants and Other Eating Places
50,sg:7abcabff300f42d3a75a63cf0abdaa4a,-81.749957,30.313144,120310137211,6,True,False,-81.8569717,30.2795641,"Office Supplies, Stationery, and Gift Stores"
51,sg:fdcfb447f6d64d4fa9a5b574abc6a56b,-81.541292,30.248147999999997,120310137211,4,True,False,-81.8569717,30.2795641,Lessors of Real Estate
52,sg:8e314896cd8d4e91a377d8dd687c433e,-81.71424499999999,30.308449,120310137211,4,True,False,-81.8569717,30.2795641,Restaurants and Other Eating Places
53,sg:49660ae8f19e4cb4aaaa0139b59b2cb1,-81.794322,30.289241999999998,120310137211,4,True,False,-81.8569717,30.2795641,"Other Professional, Scientific, and Technical Services"
54,sg:74a89e62b89748a7995d18087abd2efd,-81.77917099999999,30.294644,120310137211,6,True,False,-81.8569717,30.2795641,Restaurants and Other Eating Places
55,sg:128c0047563f46c3a75f4a2d7b427481,-81.750815,30.306874,120310137211,6,True,False,-81.8569717,30.2795641,Offices of Physicians
56,sg:2ee8fba95cf748ca812f2aa9ca552f52,-81.724398,30.289866999999997,120310137211,4,True,False,-81.8569717,30.2795641,Offices of Other Health Practitioners
57,sg:d43569ddf6ac4baf9b23295ee5318b73,-81.858074,30.264526,120310137211,4,True,False,-81.8569717,30.2795641,Elementary and Secondary Schools
58,sg:70574256878f43f1a4b58cd4dc0dc8fd,-81.731037,30.312031,120310137211,4,True,False,-81.8569717,30.2795641,Restaurants and Other Eating Places
59,sg:4211aa18eda14ef980dd0633ddc24c12,-81.593807,30.253445000000003,120310137211,4,True,False,-81.8569717,30.2795641,Offices of Physicians
60,sg:0a5a9d0ac1014112a99fa9062773f14f,-81.728171,30.246854,120310137211,4,True,False,-81.8569717,30.2795641,Restaurants and Other Eating Places
61,sg:3970a386435e4a1fa78cb1268bd56cde,-81.849076,30.306434999999997,120310137211,14,True,True,-81.8569717,30.2795641,Grocery Stores
62,sg:8eb2465f9e5c4e0ea7642162eb2568df,-81.847898,30.305381,120310137211,11,True,False,-81.8569717,30.2795641,Grocery Stores
63,sg:ae0b298f49904f8cac8a48d72c4fbae0,-81.775707,30.296865999999998,120310137211,19,True,True,-81.8569717,30.2795641,Electronics and Appliance Stores
64,sg:40e65e9c2231422d8211fe40363a0a82,-81.852518,30.278684000000002,120310137211,4,True,False,-81.8569717,30.2795641,Elementary and Secondary Schools
65,sg:5f53b61adcbf43418160d8b023a0cc79,-81.775094,30.297059,120310137211,4,True,False,-81.8569717,30.2795641,Couriers and Express Delivery Services
66,sg:69674f48f81243a39ec4f48827097ea4,-81.84792,30.306390999999998,120310137211,30,True,True,-81.8569717,30.2795641,Restaurants and Other Eating Places
67,sg:78d4711f1b004a44a2c666f9ac35be57,-81.703177,30.297012,120310137211,4,True,False,-81.8569717,30.2795641,Restaurants and Other Eating Places
68,sg:ab340200356043388ead3b0a4a4178fd,-81.61576099999999,30.309665999999996,120310137211,5,True,False,-81.8569717,30.2795641,Offices of Physicians
69,sg:f0dd878451e8413c9a016cb723f8ca95,-81.81772600000001,30.248784999999998,120310137211,4,True,False,-81.8569717,30.2795641,Religious Organizations
70,sg:1026eb952c2a4fc9b922e42258253967,-81.781835,30.291745000000002,120310137211,17,True,True,-81.8569717,30.2795641,Gasoline Stations
71,sg:3df7b2aaeed643d8b52a11f1926a95e5,-81.730141,30.358839,120310137211,4,True,False,-81.8569717,30.2795641,Other Amusement and Recreation Industries
72,sg:128bcb28cd0747aead8c561d1b91c88f,-81.670654,30.323960999999997,120310137211,4,True,False,-81.8569717,30.2795641,Restaurants and Other Eating Places
73,sg:e09125a2213b46089f662c6b83e45142,-81.762819,30.295246999999996,120310137211,7,True,False,-81.8569717,30.2795641,"Automotive Parts, Accessories, and Tire Stores"
74,sg:9b6c3ac43a1c4240bd54e4f684a7441d,-81.847753,30.292687,120310137211,12,True,False,-81.8569717,30.2795641,Other Miscellaneous Store Retailers
75,sg:81a16850dc0b4226b46e8b120d7bcbde,-81.579059,30.204157000000002,120310137211,6,True,False,-81.8569717,30.2795641,Building Material and Supplies Dealers
76,sg:fa1305a0a98d4772b4767489c2df120b,-81.84900400000001,30.306377,120310137211,44,True,True,-81.8569717,30.2795641,Gasoline Stations
77,sg:a83f8f2323ff42659a6f1aa21666f233,-81.780069,30.247644,120310137211,4,True,False,-81.8569717,30.2795641,Restaurants and Other Eating Places
78,sg:ce0ba1477f2e46c2921e11de0dfb7a19,-81.77529200000001,30.297146,120310137211,6,True,False,-81.8569717,30.2795641,Building Material and Supplies Dealers
79,sg:eeaab92ae135433c9cae0a5c9a0d8e4c,-81.545833,30.241584999999997,120310137211,4,True,False,-81.8569717,30.2795641,Offices of Other Health Practitioners
80,sg:1d766625d15e49529e23bc13b56c8dde,-81.719748,30.280479999999997,120310137211,4,True,False,-81.8569717,30.2795641,Health and Personal Care Stores
81,sg:8c9521a59b394c1da2c577c55c92ff50,-81.729773,30.318845,120310137211,4,True,False,-81.8569717,30.2795641,Other Motor Vehicle Dealers
82,sg:096ba4a4f8d64a038b4b1b1dc1e66513,-81.493016,30.321214,120310143351,4,True,False,-81.4814583,30.350564600000002,Electronics and Appliance Stores
83,sg:b4700c70e0704fdb993e2d284e20c4ad,-81.62181899999999,30.195859999999996,120310143351,4,True,False,-81.4814583,30.350564600000002,Health and Personal Care Stores
84,sg:1ac9eec78eb74b9197d3283819ef14e1,-81.648387,30.411255999999998,120310143351,4,True,False,-81.4814583,30.350564600000002,"Beer, Wine, and Liquor Stores"
85,sg:7128dea79aac4ec2b5216c1315df615d,-81.488413,30.317284,120310143351,4,True,False,-81.4814583,30.350564600000002,Restaurants and Other Eating Places
86,sg:6d47eb32fb0749a89aaf99c5f972613e,-81.58881099999999,30.256234000000003,120310143351,6,True,False,-81.4814583,30.350564600000002,Elementary and Secondary Schools
87,sg:cdf89b67d28149478d09594c8a7facb3,-81.501465,30.362090000000002,120310143351,13,True,True,-81.4814583,30.350564600000002,Grocery Stores
88,sg:9b97853b1ef24b0aa18e22819fc23ea8,-81.54084399999999,30.32323,120310143351,5,True,False,-81.4814583,30.350564600000002,Used Merchandise Stores
89,sg:5b3b1f09669c41cb8dfb50b6503bf830,-81.50125200000001,30.362125,120310143351,53,True,True,-81.4814583,30.350564600000002,Restaurants and Other Eating Places
90,sg:c619934177cb464ead0c62c506dfa532,-81.509268,30.378483000000003,120310143351,4,True,False,-81.4814583,30.350564600000002,"Sporting Goods, Hobby, and Musical Instrument Stores"
91,sg:165c6110e58c4e8f8edbb84ac781d756,-81.50157800000001,30.358983000000002,120310143351,4,True,False,-81.4814583,30.350564600000002,Specialty Food Stores
92,sg:9694c3be7aa546dcb068f48b260d6245,-81.462051,30.257903000000002,120310143351,4,True,False,-81.4814583,30.350564600000002,Offices of Dentists
93,sg:1d0ab2b94dfa4bc5abce5cb3a2e14776,-81.522586,30.267226,120310143351,5,True,False,-81.4814583,30.350564600000002,Home Health Care Services
94,sg:bf0e89e2720f46ac98aa116961e6c9b6,-81.575897,30.351833000000003,120310143351,4,True,False,-81.4814583,30.350564600000002,Offices of Other Health Practitioners
95,sg:fc5dfbb2cdbe4467924cfce261293d1a,-81.519374,30.382131,120310143351,4,True,False,-81.4814583,30.350564600000002,"Executive, Legislative, and Other General Government Support"
96,sg:bab65ee82b7c4a31b32546693ed8c949,-81.50493900000001,30.35993,120310143351,13,True,True,-81.4814583,30.350564600000002,Restaurants and Other Eating Places
97,sg:e7bebc8c133f4f5cb89779f5edeb565b,-81.554175,30.189551,120310143351,4,True,False,-81.4814583,30.350564600000002,Other Amusement and Recreation Industries
98,sg:d7446ac15e6147c99955c59f6324e733,-81.658553,30.325668,120310143351,6,True,False,-81.4814583,30.350564600000002,Grocery Stores
99,sg:f31c6011a38c4607a6cac06d6f28175f,-81.47507,30.319498,120310143351,36,True,True,-81.4814583,30.350564600000002,Building Material and Supplies Dealers
100,sg:4408e7eec39e48789e613e992fb7ba93,-81.443701,30.287278999999998,120310143351,4,True,False,-81.4814583,30.350564600000002,Automotive Repair and Maintenance
101,sg:c1a0adee755e48ea821ea5fdf7138291,-81.573573,30.270669,120310143351,4,True,False,-81.4814583,30.350564600000002,Building Material and Supplies Dealers
102,sg:c6f4f0c2701d4198b9168e6c9b24c7bc,-81.50332900000001,30.359818,120310143351,22,True,True,-81.4814583,30.350564600000002,Grocery Stores
103,sg:e42875bdbe5d46eebe7b215b6d5ca903,-81.471251,30.320469,120310143351,6,True,False,-81.4814583,30.350564600000002,"General Merchandise Stores, including Warehouse Clubs and Supercenters"
104,sg:3577315feb4848a3aae8e0bcd4306780,-81.50225999999999,30.360626,120310143351,18,True,True,-81.4814583,30.350564600000002,Restaurants and Other Eating Places
105,sg:815b16c893274ba3837a226b15e3e366,-81.588032,30.255501000000002,120310143351,4,True,False,-81.4814583,30.350564600000002,Restaurants and Other Eating Places
106,sg:357f37f66a1440659aafc3813ff5e5eb,-81.526912,30.261909000000003,120310143351,4,True,False,-81.4814583,30.350564600000002,Department Stores
107,sg:256e86e59bde431b979a5aa5f74a4e46,-81.49614100000001,30.265821000000003,120310143351,4,True,False,-81.4814583,30.350564600000002,Gasoline Stations
108,sg:039cdb78999b46f0b6913faf8f614894,-81.50130300000001,30.362682,120310143351,7,True,False,-81.4814583,30.350564600000002,Other Amusement and Recreation Industries
109,sg:98f20fcaca0647138d5202977e42eadd,-81.451386,30.319754,120310143351,4,True,False,-81.4814583,30.350564600000002,Used Merchandise Stores
110,sg:999c64fb368d4bb8ae6e0b46dfaa1ebe,-81.564787,30.305723999999998,120310143351,4,True,False,-81.4814583,30.350564600000002,Electronics and Appliance Stores
111,sg:4291483b2e104157a4bcca5d213441ad,-81.599042,30.256259000000004,120310143351,4,True,False,-81.4814583,30.350564600000002,Electronics and Appliance Stores
112,sg:60192a8de660401aa1cf4b1703395b00,-81.51230600000001,30.286307,120310143351,4,True,False,-81.4814583,30.350564600000002,Furniture Stores
113,sg:3bf360f5b6ad44f588ca733feaf3c9c6,-81.751498,30.30735,120310143351,5,True,False,-81.4814583,30.350564600000002,Restaurants and Other Eating Places
114,sg:ab3316af5b4a4824889ec51748561ef0,-81.552204,30.318087,120310143351,5,True,False,-81.4814583,30.350564600000002,Book Stores and News Dealers
115,sg:2844e7c952b04d01b16ea274be43e075,-81.649334,30.411322,120310143351,4,True,False,-81.4814583,30.350564600000002,Restaurants and Other Eating Places
116,sg:aa4ea3bfb31c4dedbef3a76269910996,-81.487321,30.317534000000002,120310143351,29,True,True,-81.4814583,30.350564600000002,"General Merchandise Stores, including Warehouse Clubs and Supercenters"
117,sg:241f657d1f564020a13663b7cd2bee36,-81.632188,30.147437,120310168032,6,True,False,-81.61618179999999,30.145717100000002,Gasoline Stations
118,sg:00a1918b813e4c71ab3605d78ff17f56,-81.59469200000001,30.242026,120310168032,4,True,False,-81.61618179999999,30.145717100000002,Offices of Physicians
119,sg:4a7e911a9d624fcfa67bf0fcc73e8e14,-81.631057,30.159209000000004,120310168032,4,True,False,-81.61618179999999,30.145717100000002,Restaurants and Other Eating Places
120,sg:c78ad726f84f4ee2a256eeee2ce0fa51,-81.49426700000001,30.285069,120310168032,4,True,False,-81.61618179999999,30.145717100000002,Religious Organizations
121,sg:9a453c0e4f154cd699a8126001a91c8e,-81.631637,30.159433,120310168032,5,True,False,-81.61618179999999,30.145717100000002,Other Amusement and Recreation Industries
122,sg:76b2fce7609c45dd831d23e52c4351c5,-81.631309,30.160004999999998,120310168032,27,True,True,-81.61618179999999,30.145717100000002,Lessors of Real Estate
123,sg:8053f1d2e6204aa0bf83842c35eecd5a,-81.62419200000001,30.255910999999998,120310168032,4,True,False,-81.61618179999999,30.145717100000002,Other Amusement and Recreation Industries
124,sg:6da24e65429d41dfa6a92ede5495977a,-81.629124,30.178439,120310168032,4,True,False,-81.61618179999999,30.145717100000002,Home Furnishings Stores
125,sg:3c3910296fdb4aa8bf60c87822628f15,-81.60271800000001,30.165340000000004,120310168032,4,True,False,-81.61618179999999,30.145717100000002,Restaurants and Other Eating Places
126,sg:531a60d8be414b60ab07785d909e9f70,-81.579933,30.285121999999998,120310168032,4,True,False,-81.61618179999999,30.145717100000002,Automotive Repair and Maintenance
127,sg:4e8b0070a5954ac4a5e147183ee56905,-81.63055899999999,30.178645,120310168032,4,True,False,-81.61618179999999,30.145717100000002,Offices of Other Health Practitioners
128,sg:2cd2e00a269f46dca311e01c9ee4d5a9,-81.631712,30.159559,120310168032,5,True,False,-81.61618179999999,30.145717100000002,Restaurants and Other Eating Places
129,sg:7b95ac16d03b4964b2f46a505a9a7d1b,-81.62476,30.194231,120310168032,7,True,False,-81.61618179999999,30.145717100000002,Restaurants and Other Eating Places
130,sg:fd3bbcae8951401781da841516bad331,-81.619085,30.198667999999998,120310168032,4,True,False,-81.61618179999999,30.145717100000002,Restaurants and Other Eating Places
131,sg:b8666d46e29347c7884c7338f076fbaa,-81.622866,30.15077,120310168032,4,True,False,-81.61618179999999,30.145717100000002,Home Furnishings Stores
132,sg:432542ac4bdf489fadc542e2c77e142a,-81.64411199999999,30.25788,120310168032,4,True,False,-81.61618179999999,30.145717100000002,Child Day Care Services
133,sg:98061a65904740fb8f66cc6f6d8d94a2,-81.62016700000001,30.199956,120310168032,5,True,False,-81.61618179999999,30.145717100000002,Restaurants and Other Eating Places
134,sg:93ab8edea4914163bd58732f0f2e5f31,-81.531031,30.246978000000002,120310168032,4,True,False,-81.61618179999999,30.145717100000002,Offices of Other Health Practitioners
135,sg:5616216a2a1b4e71aa30e667b5883f6f,-81.55983,30.314429999999998,120310103041,4,True,False,-81.6448833,30.448971899999997,Restaurants and Other Eating Places
136,sg:75dfd2600bb44e1e92745d4e3a70df49,-81.657762,30.430902000000003,120310103041,15,True,True,-81.6448833,30.448971899999997,"General Merchandise Stores, including Warehouse Clubs and Supercenters"
137,sg:34501a1763a24010842b0f7c2b76770f,-81.68150200000001,30.313514,120310103041,4,True,False,-81.6448833,30.448971899999997,Restaurants and Other Eating Places
138,sg:ba758626e69a42a1b1e0a2af99448f8f,-81.691041,30.412671999999997,120310103041,4,True,False,-81.6448833,30.448971899999997,Drycleaning and Laundry Services
139,sg:f3f2e3d0be714cf4a38b00b0e7d48ffe,-81.63754300000001,30.478642999999998,120310103041,4,True,False,-81.6448833,30.448971899999997,Furniture Stores
140,sg:b418901147934060b57dad70aeb07079,-81.660327,30.430387,120310103041,10,True,False,-81.6448833,30.448971899999997,Restaurants and Other Eating Places
141,sg:3feae6fdebae42e087f0043b9ec5562c,-81.65374200000001,30.429377000000002,120310103041,8,True,False,-81.6448833,30.448971899999997,Gasoline Stations
142,sg:de22d5f259bc43db87bdd1e20db8fb9e,-81.566641,30.286692,120310103041,4,True,False,-81.6448833,30.448971899999997,Restaurants and Other Eating Places
143,sg:296a51ede8544bdbb43d045897cb78dc,-81.65736700000001,30.432809000000002,120310103041,10,True,False,-81.6448833,30.448971899999997,Traveler Accommodation
144,sg:f3749be764ec4d6cae6040acd7440473,-81.65473100000001,30.429369,120310103041,4,True,False,-81.6448833,30.448971899999997,Restaurants and Other Eating Places
145,sg:12044fd3d77d48a9b58287789dc363d9,-81.647655,30.432743,120310103041,19,True,True,-81.6448833,30.448971899999997,Depository Credit Intermediation
146,sg:a711d16c87534dec811cd5c280eaf22d,-81.55985600000001,30.313546000000002,120310103041,5,True,False,-81.6448833,30.448971899999997,Technical and Trade Schools
147,sg:3870c6d4bf0c452caac464ab012a05fa,-81.66435600000001,30.428703000000002,120310103041,4,True,False,-81.6448833,30.448971899999997,Other Amusement and Recreation Industries
148,sg:82b4bd38f3cd4e4c9e2c1455956249d8,-81.559534,30.317402,120310103041,4,True,False,-81.6448833,30.448971899999997,Automobile Dealers
149,sg:9550dd4efc1546d0968ec8a6eb58a0fe,-81.653598,30.365235,120310103041,4,True,False,-81.6448833,30.448971899999997,Death Care Services
150,sg:9c683c2e0fed4278884e3ac715ba7d19,-81.65907,30.429261999999998,120310103041,6,True,False,-81.6448833,30.448971899999997,Restaurants and Other Eating Places
151,sg:111d90b37e5f460c930176fdcca00569,-81.657715,30.439867,120310103041,8,True,False,-81.6448833,30.448971899999997,Depository Credit Intermediation
152,sg:59660e88698044d88d192862cf20490c,-81.68933,30.323141999999997,120310105005,4,True,False,-81.7868278,30.434865999999996,Religious Organizations
153,sg:7c05f76781ae464e86f3f6a78a369d1b,-81.651461,30.375187,120310105005,4,True,False,-81.7868278,30.434865999999996,"General Merchandise Stores, including Warehouse Clubs and Supercenters"
154,sg:90803246bfd94e47a346f5b6b6cad87b,-81.751166,30.32003,120310105005,4,True,False,-81.7868278,30.434865999999996,Building Material and Supplies Dealers
155,sg:e4d0ec1c36984477a42f9060dbb6957c,-81.72386999999999,30.399335999999998,120310105005,4,True,False,-81.7868278,30.434865999999996,Restaurants and Other Eating Places
156,sg:fdf315287169468f8625b05d58e07c13,-81.71698,30.335058,120310105005,4,True,False,-81.7868278,30.434865999999996,Elementary and Secondary Schools
157,sg:4b7b60185d954ba0a15046c663ef3a6c,-81.462034,30.318611999999998,120310105005,4,True,False,-81.7868278,30.434865999999996,Restaurants and Other Eating Places
158,sg:e6327b8c93874bc39e46bab9915d068d,-81.59503000000001,30.351131,120310105005,4,True,False,-81.7868278,30.434865999999996,Restaurants and Other Eating Places
159,sg:394edea634324d71b7037d3c01e8a8e3,-81.68726600000001,30.440164000000003,120310105005,4,True,False,-81.7868278,30.434865999999996,Home Health Care Services
160,sg:ffe65477541c488ab65e3acc6ed73d11,-81.677675,30.325409999999998,120310105005,4,True,False,-81.7868278,30.434865999999996,"Museums, Historical Sites, and Similar Institutions"
161,sg:329bc22e0f2348d99682f59efa15de9e,-81.719226,30.306202000000003,120310105005,4,True,False,-81.7868278,30.434865999999996,Other Amusement and Recreation Industries
162,sg:651dfe42b54f429fb8eb8c045fd66db2,-81.757324,30.429208000000003,120310105005,4,True,False,-81.7868278,30.434865999999996,Automotive Repair and Maintenance
163,sg:a8570e4717624e3ba09c232289122c9a,-81.648831,30.291157000000002,120310105005,4,True,False,-81.7868278,30.434865999999996,Restaurants and Other Eating Places
164,sg:f07ac7e3763c4728b912552498768d34,-81.769345,30.417859000000004,120310105005,4,True,False,-81.7868278,30.434865999999996,Child Day Care Services
165,sg:288d2829c7684c5b8de22cae92c4f46e,-81.78563,30.323155,120310105005,4,True,False,-81.7868278,30.434865999999996,Personal Care Services
166,sg:2009dd5522884b038d412c598dc7daaf,-81.622943,30.2629,120310105005,6,True,False,-81.7868278,30.434865999999996,Restaurants and Other Eating Places
167,sg:444357a4f81545f2bbf5a80f1c40dc4a,-81.460309,30.325689,120310105005,4,True,False,-81.7868278,30.434865999999996,"Justice, Public Order, and Safety Activities"
168,sg:c90cb01f6aed4b2c92fe102ba43a05e2,-81.653524,30.357615000000003,120310105005,5,True,False,-81.7868278,30.434865999999996,Restaurants and Other Eating Places
169,sg:3c50bab243d24e5d90e90e26dcb3e771,-81.75188399999999,30.420559,120310105005,10,True,False,-81.7868278,30.434865999999996,"General Merchandise Stores, including Warehouse Clubs and Supercenters"
170,sg:a6a4fe486a9247e890f562a71dfe1fc7,-81.64368,30.288258000000003,120310105005,4,True,False,-81.7868278,30.434865999999996,Restaurants and Other Eating Places
171,sg:80c9e9caa08a49ea9c5d6031e0c88943,-81.67879599999999,30.364659000000003,120310015002,5,False,False,-81.6735075,30.3626131,Gasoline Stations
172,sg:6adf967adf5a47e38275941e09b70994,-81.670612,30.352638,120310015002,4,False,False,-81.6735075,30.3626131,Religious Organizations
173,sg:9973b6c33a854435a4b1eaf9a40f79e0,-81.632244,30.167763,120310015002,6,False,False,-81.6735075,30.3626131,Lessors of Real Estate
174,sg:156e76bc87ba402583a559a24d7bbf86,-81.545644,30.164581,120310015002,5,False,False,-81.6735075,30.3626131,Other Amusement and Recreation Industries
175,sg:9a97114111244663993c222aacb58b8b,-81.66408100000001,30.370540000000002,120310015002,9,False,False,-81.6735075,30.3626131,Health and Personal Care Stores
176,sg:7718f93ebbce44daa783a707e70d33d3,-81.67225400000001,30.430417,120310015002,5,False,False,-81.6735075,30.3626131,Automotive Repair and Maintenance
177,sg:f2b80fe9c88841d6b19fb0592aafa0ca,-81.671009,30.365266,120310015002,4,False,False,-81.6735075,30.3626131,Restaurants and Other Eating Places
178,sg:522bfc0b944247a29427eb07e9621301,-81.670361,30.364445,120310015002,12,False,False,-81.6735075,30.3626131,Gasoline Stations
179,sg:8f035880b0f048e48706f573ab06e7e5,-81.560857,30.338192,120310143352,4,True,False,-81.4644058,30.3464592,Other Motor Vehicle Dealers
180,sg:abb18c67c4dc4621af13b2a340525544,-81.471712,30.338552000000004,120310143352,4,True,False,-81.4644058,30.3464592,Home Furnishings Stores
181,sg:b1ebc1fd23f7433c8daed3996b3d5700,-81.46989,30.320014,120310143352,4,True,False,-81.4644058,30.3464592,"Automotive Parts, Accessories, and Tire Stores"
182,sg:093cfc08d2494519b40624040500718a,-81.599843,30.258785999999997,120310143352,4,True,False,-81.4644058,30.3464592,Offices of Physicians
183,sg:636bd168a62346ca9c802d6747d8552b,-81.494641,30.319976,120310143352,4,True,False,-81.4644058,30.3464592,Furniture Stores
184,sg:82f5058dba4e44248fdd5a1ae144b4bb,-81.55394799999999,30.320881,120310143352,4,True,False,-81.4644058,30.3464592,Restaurants and Other Eating Places
185,sg:4d0e32f252fa480783db0ba86ddeb5e3,-81.66724599999999,30.332290999999998,120310143352,4,True,False,-81.4644058,30.3464592,Elementary and Secondary Schools
186,sg:4f32b0fe0eaf47059444565c1680233f,-81.530192,30.280799,120310143352,5,True,False,-81.4644058,30.3464592,Services to Buildings and Dwellings
187,sg:5216dc4d2a1d4726874dc0817fdca103,-81.471345,30.320557,120310143352,32,True,True,-81.4644058,30.3464592,Other Amusement and Recreation Industries
188,sg:9f2d43f5a0f44250adc5ae1d5226f396,-81.527402,30.2587,120310143352,4,True,False,-81.4644058,30.3464592,Health and Personal Care Stores
189,sg:06fbcd64292e4a60bf5d9fd822116146,-81.506999,30.378999,120310143352,4,True,False,-81.4644058,30.3464592,Child Day Care Services
190,sg:f4565e7d3ceb4cb59323aead0a79a0fb,-81.468466,30.333410999999998,120310143352,4,True,False,-81.4644058,30.3464592,Child Day Care Services
191,sg:37d5b09fac164c52863c35ab935bb021,-81.495346,30.318058,120310143352,4,True,False,-81.4644058,30.3464592,Department Stores
192,sg:19532a163c404630809961cf7bc78213,-81.715438,30.239110999999998,120310143352,4,True,False,-81.4644058,30.3464592,Automotive Repair and Maintenance
193,sg:04ca392188234e2dbcb36aa277e66648,-81.538765,30.28756,120310143352,4,True,False,-81.4644058,30.3464592,Building Finishing Contractors
194,sg:1f37dc880a794534a8abe21e45ed822a,-81.639625,30.253076,120310143352,4,True,False,-81.4644058,30.3464592,"Museums, Historical Sites, and Similar Institutions"
195,sg:c2bc30fdfbf740dc96229b9ab8263253,-81.624581,30.251112,120310143352,4,True,False,-81.4644058,30.3464592,"Sporting Goods, Hobby, and Musical Instrument Stores"
196,sg:f856dff1e1484f6682a725a30797e060,-81.488102,30.317590999999997,120310143352,4,True,False,-81.4644058,30.3464592,Restaurants and Other Eating Places
197,sg:6025a0c7e6b54ce1b43b81b025bd023d,-81.4913,30.317638,120310143352,4,True,False,-81.4644058,30.3464592,Restaurants and Other Eating Places
198,sg:c066703282ba410c92c7f8d3a83a9be5,-81.47245500000001,30.319113,120310143352,7,True,False,-81.4644058,30.3464592,Gasoline Stations
199,sg:b1e7da90456e4b249e57a4f4e395e909,-81.642494,30.257604999999998,120310143352,5,True,False,-81.4644058,30.3464592,Religious Organizations
200,sg:5a012362541b46c08c44a5e951d84438,-81.515642,30.287882,120310143352,7,True,False,-81.4644058,30.3464592,Other Amusement and Recreation Industries
201,sg:18c11703b177409c922765929077bfdf,-81.561549,30.338593,120310143352,4,True,False,-81.4644058,30.3464592,"Colleges, Universities, and Professional Schools"
202,sg:646938b1cecb4fd1a203df99ccdf874a,-81.471861,30.31946,120310143352,7,True,False,-81.4644058,30.3464592,Restaurants and Other Eating Places
203,sg:72bd464e3e9546feace5dcd8ad21fe85,-81.391064,30.283623,120310143352,6,True,False,-81.4644058,30.3464592,"Sporting Goods, Hobby, and Musical Instrument Stores"
204,sg:88eb9e61bfff4a15abb633b67bd31151,-81.490169,30.386522999999997,120310143352,5,True,False,-81.4644058,30.3464592,"Museums, Historical Sites, and Similar Institutions"
205,sg:27c2071710b84c629a6f84aeed6208d6,-81.50152299999999,30.286345,120310143352,4,True,False,-81.4644058,30.3464592,Motion Picture and Video Industries
206,sg:9ffcf650828a49828c7abfbe37b3c150,-81.558533,30.261608000000003,121090207101,4,False,False,-81.37737659999999,30.233317699999997,Personal Care Services
207,sg:900db063f00143668ed946fedeccbca2,-81.561268,30.310309999999998,121090207101,4,False,False,-81.37737659999999,30.233317699999997,Offices of Other Health Practitioners
208,sg:e87f048cb232447c95f37296d4a122f1,-81.470907,30.269184999999997,121090207101,4,False,False,-81.37737659999999,30.233317699999997,Offices of Physicians
209,sg:a851c004ca01475cb859c189c4d2e853,-81.60125699999999,30.285721000000002,121090207101,5,False,False,-81.37737659999999,30.233317699999997,Child Day Care Services
210,sg:ff33fbbee8374012a2e8a8151e994bc4,-81.384155,30.225728999999998,121090207101,4,False,False,-81.37737659999999,30.233317699999997,"Museums, Historical Sites, and Similar Institutions"
211,sg:38ce9c8f6fd94d66bba7bdaa10092249,-81.601042,30.287298999999997,121090207101,4,False,False,-81.37737659999999,30.233317699999997,Offices of Physicians
212,sg:088cacc6010c477db729cacad7b8dcc7,-81.462069,30.287059999999997,121090207101,4,False,False,-81.37737659999999,30.233317699999997,Automotive Repair and Maintenance
213,sg:a58adac9885c46e2821d993aed91b55a,-81.640772,30.248743,120310164003,5,True,False,-81.6505334,30.2691179,"Museums, Historical Sites, and Similar Institutions"
214,sg:a2586cbd47b8479e989c7d9d525ed6c7,-81.651002,30.274862,120310164003,5,True,False,-81.6505334,30.2691179,Restaurants and Other Eating Places
215,sg:f181a7e63541499ca7490d5c25e318b9,-81.643348,30.261328999999996,120310164003,4,True,False,-81.6505334,30.2691179,"Beer, Wine, and Liquor Stores"
216,sg:d3efd920171948b7a98c830ed6999941,-81.64357199999999,30.261346999999997,120310164003,6,True,False,-81.6505334,30.2691179,Restaurants and Other Eating Places
217,sg:d623d45264234a1795b587148fc93f3e,-81.62533499999999,30.262271000000002,120310164003,4,True,False,-81.6505334,30.2691179,Restaurants and Other Eating Places
218,sg:1c669806ea3e49618e03d52b2d7b57ea,-81.66024300000001,30.311253000000004,120310164003,4,True,False,-81.6505334,30.2691179,Personal Care Services
219,sg:439caa2cd86c4cedb016e17f1fc4e5ee,-81.626676,30.261667,120310164003,6,True,False,-81.6505334,30.2691179,Health and Personal Care Stores
220,sg:f28f1677ae204be19cfb62345b8de212,-81.646189,30.261446000000003,120310164003,4,True,False,-81.6505334,30.2691179,Other Miscellaneous Store Retailers
221,sg:cad8a8846d004c908420217df58705b6,-81.651175,30.289759000000004,120310164003,4,True,False,-81.6505334,30.2691179,Elementary and Secondary Schools
222,sg:5cd10fe26e64481ba2cc3a4009b2b3cd,-81.641316,30.260375,120310164003,5,True,False,-81.6505334,30.2691179,"Museums, Historical Sites, and Similar Institutions"
223,sg:50c421c9a4d34000bf22cf86e5ec7332,-81.650576,30.273704,120310164003,4,True,False,-81.6505334,30.2691179,Restaurants and Other Eating Places
224,sg:629dcb83404140d5ae5507fe142e994e,-81.638924,30.306110999999998,120310164003,4,True,False,-81.6505334,30.2691179,"Museums, Historical Sites, and Similar Institutions"
225,sg:ffff238d6b7b4aa89147cddcc87e5ced,-81.60736800000001,30.274088,120310164003,4,True,False,-81.6505334,30.2691179,"Beer, Wine, and Liquor Stores"
226,sg:15bf9cbeb1d3494199ed07cf670524a3,-81.64308,30.261131,120310164003,5,True,False,-81.6505334,30.2691179,"Jewelry, Luggage, and Leather Goods Stores"
227,sg:a5dce2882c534fefac20744ffb43a8f6,-81.57570799999999,30.340730999999998,120310164003,4,True,False,-81.6505334,30.2691179,Depository Credit Intermediation
228,sg:afb536b11f4541648801c85797e5cb29,-81.6338,30.158551,120310164003,4,True,False,-81.6505334,30.2691179,Other Amusement and Recreation Industries
229,sg:6d05515c44974e6388366ca2877f8877,-81.600562,30.249814,120310164003,4,True,False,-81.6505334,30.2691179,Nursing Care Facilities (Skilled Nursing Facilities)
230,sg:0f9742a939014791aa8a9f076235b482,-81.63526800000001,30.26114,120310164003,4,True,False,-81.6505334,30.2691179,Florists
231,sg:c4b2570db54b46b7ba079dee93229c5b,-81.654287,30.345437,120310026001,4,True,False,-81.68578620000001,30.328663800000005,Beverage Manufacturing
232,sg:5f9d6125b7a54369abd4e82ebb1c8adc,-81.704922,30.300271999999996,120310026001,4,True,False,-81.68578620000001,30.328663800000005,Outpatient Care Centers
233,sg:2238d2fa51ee4cff9260bd01eb0857e5,-81.749362,30.307522,120310026001,8,True,False,-81.68578620000001,30.328663800000005,Furniture Stores
234,sg:3cd96913503942d79ecbe1ce95f2567d,-81.725183,30.396327000000003,120310026001,4,True,False,-81.68578620000001,30.328663800000005,Other Amusement and Recreation Industries
235,sg:9544e07fe5b64721ba2bf2440542cfee,-81.890151,30.23364,120310026001,4,True,False,-81.68578620000001,30.328663800000005,Continuing Care Retirement Communities and Assisted Living Facilities for the Elderly
236,sg:18178cecc80649ca9ee95ada5dfd646a,-81.69131800000001,30.324243,120310026001,4,True,False,-81.68578620000001,30.328663800000005,Religious Organizations
237,sg:46a727a894e741958c82e51f1c3395b1,-81.703124,30.32221,120310026001,6,True,False,-81.68578620000001,30.328663800000005,Religious Organizations
238,sg:b0fe2df7856d465787cbc858b2584abd,-81.690871,30.321686,120310026001,5,True,False,-81.68578620000001,30.328663800000005,Child Day Care Services
239,sg:49cd6dfe0c52460a9c92ca607e6eed6e,-81.731916,30.309507,120310026001,4,True,False,-81.68578620000001,30.328663800000005,Electronics and Appliance Stores
240,sg:19c33a2e8edc413490ba85cf061ff026,-81.733944,30.313982,120310026001,5,True,False,-81.68578620000001,30.328663800000005,"Sporting Goods, Hobby, and Musical Instrument Stores"
241,sg:1081e76c6e71455b81d5744fc0aa2969,-81.585706,30.232877000000002,120310026001,4,True,False,-81.68578620000001,30.328663800000005,Elementary and Secondary Schools
242,sg:27d2caaa51434996a8c979744298a3c5,-81.687484,30.327901,120310026001,10,True,False,-81.68578620000001,30.328663800000005,"Museums, Historical Sites, and Similar Institutions"
243,sg:ca0de4ac8320442e9b65573b9adcbdcc,-81.635995,30.480551000000002,120310101012,8,True,False,-81.59798959999999,30.507084600000002,Restaurants and Other Eating Places
244,sg:7da9ad66f27f4448a343a05eb2a66012,-81.767972,30.41037,120310101012,4,True,False,-81.59798959999999,30.507084600000002,Services to Buildings and Dwellings
245,sg:a4e14176f4f94bf6ac5b1a6a05f3ef0e,-81.559529,30.353571999999996,120310101012,4,True,False,-81.59798959999999,30.507084600000002,Elementary and Secondary Schools
246,sg:86d2581a6c934a0c85e8dded6ec01d12,-81.544088,30.321531,120310101012,4,True,False,-81.59798959999999,30.507084600000002,Clothing Stores
247,sg:fb3f87bd54d84d68932ec322950aca4e,-81.667428,30.502607,120310101012,5,True,False,-81.59798959999999,30.507084600000002,Postal Service
248,sg:99604c67586b468cbbe227d8e51bb372,-81.674941,30.339821999999998,120310101012,4,True,False,-81.59798959999999,30.507084600000002,Automobile Dealers
249,sg:5ee31e663d1248328d320a894ba57a9c,-81.621229,30.507021999999996,120310101012,4,True,False,-81.59798959999999,30.507084600000002,Religious Organizations
250,sg:5a434a602c8344ed9a4a3b12cb8fd886,-81.623478,30.483002000000003,120310101012,4,True,False,-81.59798959999999,30.507084600000002,Automotive Repair and Maintenance
251,sg:8126485ff4484ee898449dc65b95363d,-81.537273,30.251738,120310101012,4,True,False,-81.59798959999999,30.507084600000002,Depository Credit Intermediation
252,sg:6e4c528a33244a57a1ae9f6e64824338,-81.65528499999999,30.482661,120310101012,13,True,True,-81.59798959999999,30.507084600000002,Restaurants and Other Eating Places
253,sg:d30b5967c4674163bace4ad7dafafbab,-81.64239,30.476136,120310101012,6,True,False,-81.59798959999999,30.507084600000002,"General Merchandise Stores, including Warehouse Clubs and Supercenters"
254,sg:0542a51307ca4e1aba1ecfec6de420da,-81.658128,30.490316999999997,120310101012,4,True,False,-81.59798959999999,30.507084600000002,Automobile Dealers
255,sg:cf97f5d666f54d4f8dfee074c62d72b2,-81.62870699999999,30.464563000000002,120310101012,4,True,False,-81.59798959999999,30.507084600000002,Restaurants and Other Eating Places
256,sg:c92081418e6b4ced9eecdfc7d064ffd8,-81.636943,30.481337,120310101012,14,True,True,-81.59798959999999,30.507084600000002,Restaurants and Other Eating Places
257,sg:79c8f09c089c490a9a576b52711af845,-81.635662,30.48033,120310101012,17,True,True,-81.59798959999999,30.507084600000002,Restaurants and Other Eating Places
258,sg:e83e28565e91449988086a4a2de9a386,-81.63890500000001,30.477103000000003,120310101012,101,True,True,-81.59798959999999,30.507084600000002,"General Merchandise Stores, including Warehouse Clubs and Supercenters"
259,sg:345b8003c2d04c558712002546c41f84,-81.640491,30.479357,120310101012,8,True,False,-81.59798959999999,30.507084600000002,Department Stores
260,sg:1789db1a88b04e3f949cda32fbd642d2,-81.625117,30.488016,120310101012,30,True,True,-81.59798959999999,30.507084600000002,"General Merchandise Stores, including Warehouse Clubs and Supercenters"
261,sg:d5b1c3825c4a42019e0b5117d66db4c0,-81.63470500000001,30.478871999999996,120310101012,10,True,False,-81.59798959999999,30.507084600000002,Furniture Stores
262,sg:df0c044db7774f14a4ca080a6a59a73f,-81.733851,30.310921999999998,120310101012,5,True,False,-81.59798959999999,30.507084600000002,Restaurants and Other Eating Places
263,sg:39da27712ee5486b805b9c7b78b5675b,-81.638402,30.479925,120310101012,7,True,False,-81.59798959999999,30.507084600000002,Restaurants and Other Eating Places
264,sg:b5f0a3066b484b6dab9b5990fb640ced,-81.506745,30.404809000000004,120310101012,4,True,False,-81.59798959999999,30.507084600000002,Restaurants and Other Eating Places
265,sg:7737ec6e91144c6b86bc45d32c93172c,-81.624243,30.490628000000005,120310101012,42,True,True,-81.59798959999999,30.507084600000002,Grocery Stores
266,sg:f97bc87fae894fdc80ab7d1652195c2e,-81.627605,30.481529,120310101012,4,True,False,-81.59798959999999,30.507084600000002,Offices of Other Health Practitioners
267,sg:a340ddf611264d0a81bc969f26794499,-81.68100799999999,30.311301,120310101012,6,True,False,-81.59798959999999,30.507084600000002,Restaurants and Other Eating Places
268,sg:87086d25ad034436a79de1a5402ff107,-81.63811700000001,30.447243,120310101012,7,True,False,-81.59798959999999,30.507084600000002,Restaurants and Other Eating Places
269,sg:53ad9d72610b4fa8ae7999223e985527,-81.605485,30.485507000000002,120310101012,6,True,False,-81.59798959999999,30.507084600000002,Restaurants and Other Eating Places
270,sg:b8e3d1a044e34b5bbffa3db8079132a1,-81.626408,30.491439,120310101012,4,True,False,-81.59798959999999,30.507084600000002,"Sporting Goods, Hobby, and Musical Instrument Stores"
271,sg:0b2afa9468234786b136c7af5580c126,-81.619539,30.200437,120310101012,4,True,False,-81.59798959999999,30.507084600000002,Health and Personal Care Stores
272,sg:e4703bff2c3e4575a9e710a48bb792ff,-81.636046,30.484082,120310101012,18,True,True,-81.59798959999999,30.507084600000002,Restaurants and Other Eating Places
273,sg:14809832ed474a369103d7b11370d477,-81.614899,30.541929999999997,120310101012,16,True,True,-81.59798959999999,30.507084600000002,"Museums, Historical Sites, and Similar Institutions"
274,sg:3f3b819af6f24c1891aaf0a6c5b07c0c,-81.604632,30.485309,120310101012,7,True,False,-81.59798959999999,30.507084600000002,Other Miscellaneous Store Retailers
275,sg:5b1ebb23c08f4c24854cd5a9501a8373,-81.782372,30.246796000000003,120310101012,4,True,False,-81.59798959999999,30.507084600000002,Services to Buildings and Dwellings
276,sg:21ec7ba376584eb3a88f3d0613086c95,-81.72663399999999,30.319814,120310101012,4,True,False,-81.59798959999999,30.507084600000002,Building Material and Supplies Dealers
277,sg:0280f5a5b6fc4af3965e0cfb6e881e61,-81.661799,30.429399,120310101012,6,True,False,-81.59798959999999,30.507084600000002,Restaurants and Other Eating Places
278,sg:635582922d374206bf6fc97f3966fe2f,-81.64016,30.482570000000003,120310101012,4,True,False,-81.59798959999999,30.507084600000002,"Sporting Goods, Hobby, and Musical Instrument Stores"
279,sg:464053977776418a89ae6a1c9b49365b,-81.647809,30.391215000000003,120310101012,7,True,False,-81.59798959999999,30.507084600000002,Specialty Food Stores
280,sg:4b1ffea9567248c196d320cdfc3161df,-81.644358,30.473845,120310101012,7,True,False,-81.59798959999999,30.507084600000002,Restaurants and Other Eating Places
281,sg:cb2df468831740de9595e633b9fed29c,-81.606117,30.484669,120310101012,36,True,True,-81.59798959999999,30.507084600000002,Gasoline Stations
282,sg:c258c3cdd480489c8e5d3cb95d29053c,-81.75012199999999,30.307176000000002,120310101012,5,True,False,-81.59798959999999,30.507084600000002,"Automotive Parts, Accessories, and Tire Stores"
283,sg:3c0f0b41f32e45b499d43063a48ba68d,-81.730796,30.336771999999996,120310101012,7,True,False,-81.59798959999999,30.507084600000002,Gasoline Stations
284,sg:70169f2cb11742219dabca96a9b97e85,-81.638968,30.479696999999998,120310101012,4,True,False,-81.59798959999999,30.507084600000002,Furniture Stores
285,sg:165b5a46e51f43b3a82ec00f3bb38b2c,-81.606202,30.48603,120310101012,6,True,False,-81.59798959999999,30.507084600000002,Child Day Care Services
286,sg:24da4bdc94b24000973d793c2ba1bc84,-81.631135,30.475288,120310101012,21,True,True,-81.59798959999999,30.507084600000002,Gasoline Stations
287,sg:4362878e5b8943718712467f1e791c60,-81.742166,30.268328999999998,120310101012,4,True,False,-81.59798959999999,30.507084600000002,Elementary and Secondary Schools
288,sg:ebf6bb86e4a94a059246ba24287f12ae,-81.637424,30.481489,120310101012,7,True,False,-81.59798959999999,30.507084600000002,Restaurants and Other Eating Places
289,sg:1f0853f8697c47c180d6c1ef34226109,-81.731251,30.318982000000002,120310101012,5,True,False,-81.59798959999999,30.507084600000002,Gasoline Stations
290,sg:71addd8cc5a54d36b6e56a5ea5f5c26e,-81.63072199999999,30.476315999999997,120310101012,6,True,False,-81.59798959999999,30.507084600000002,Automotive Repair and Maintenance
291,sg:7ac280a3cdeb46489755bc1ca4cf4240,-81.6355,30.477909999999998,120310101012,20,True,True,-81.59798959999999,30.507084600000002,Restaurants and Other Eating Places
292,sg:8b8db21423584622a4f2c499632529dc,-81.714246,30.329834,120310101012,4,True,False,-81.59798959999999,30.507084600000002,"Office Supplies, Stationery, and Gift Stores"
293,sg:2cca4daf0a794381b94c7ad127c8eae5,-81.633382,30.518146,120310101012,10,True,False,-81.59798959999999,30.507084600000002,Gasoline Stations
294,sg:d61c3c255a7945b981968f62b5ef3d80,-81.626362,30.48143,120310101012,4,True,False,-81.59798959999999,30.507084600000002,Offices of Physicians
295,sg:e08c97aa065b40b18b60ea966fe412fe,-81.77635500000001,30.293986999999998,120310101012,4,True,False,-81.59798959999999,30.507084600000002,Depository Credit Intermediation
296,sg:902cca5899f743b781e0006bd58c3119,-81.682344,30.315043,120310101012,4,True,False,-81.59798959999999,30.507084600000002,Restaurants and Other Eating Places
297,sg:61802557f7cb4a1b81145f52c6889567,-81.596402,30.352065999999997,120310101012,4,True,False,-81.59798959999999,30.507084600000002,Electronics and Appliance Stores
298,sg:957ee6a644fa452a9c07f51e64af9c91,-81.62942,30.474481,120310101012,15,True,True,-81.59798959999999,30.507084600000002,"Automotive Parts, Accessories, and Tire Stores"
299,sg:edaa2cca7af542ddb48f1fda1c8896ac,-81.642318,30.475422,120310101012,8,True,False,-81.59798959999999,30.507084600000002,Restaurants and Other Eating Places
300,sg:c2c432de5ff34e1c83a3d749d91ba6a4,-81.68811600000001,30.330786,120310101012,4,True,False,-81.59798959999999,30.507084600000002,"Automotive Parts, Accessories, and Tire Stores"
301,sg:a1c7b37967d34e978ab831d02f27ee2f,-81.51469200000001,30.356728000000004,120310101012,7,True,False,-81.59798959999999,30.507084600000002,"Museums, Historical Sites, and Similar Institutions"
302,sg:7d7d90edc2904497a065e2dc60d9a37b,-81.761176,30.446639,120310101012,4,True,False,-81.59798959999999,30.507084600000002,Child Day Care Services
303,sg:654cea6d2a2148ddac2a3a1077af0eed,-81.59261,30.465088,120310101012,4,True,False,-81.59798959999999,30.507084600000002,Religious Organizations
304,sg:fd246acbfa0b4af794dfc6796989f478,-81.710678,30.374458,120310101012,4,True,False,-81.59798959999999,30.507084600000002,"Justice, Public Order, and Safety Activities"
305,sg:be5074b740664398adba53fefa98f2ab,-81.77122,30.270826,120310101012,4,True,False,-81.59798959999999,30.507084600000002,Other Amusement and Recreation Industries
306,sg:56797b4f2ce04908a6df69305270e078,-81.730476,30.313266,120310101012,4,True,False,-81.59798959999999,30.507084600000002,Automobile Dealers
307,sg:059af08be83f412da1a37f6947870fbe,-81.638195,30.479984,120310101012,16,True,True,-81.59798959999999,30.507084600000002,Restaurants and Other Eating Places
308,sg:abceeb4a17ce4936b988e1bea765d82b,-81.638757,30.446671999999996,120310101012,4,True,False,-81.59798959999999,30.507084600000002,Restaurants and Other Eating Places
309,sg:3f080792a5d049f1a3996f85c88003d4,-81.70497399999999,30.416659000000003,120310101012,4,True,False,-81.59798959999999,30.507084600000002,Offices of Real Estate Agents and Brokers
310,sg:25f7ca309dce41239133790eb26f8230,-81.656014,30.378126,120310101012,4,True,False,-81.59798959999999,30.507084600000002,Home Health Care Services
311,sg:9443b513266d4274969365c28ce53bea,-81.657161,30.485014000000003,120310101012,4,True,False,-81.59798959999999,30.507084600000002,Automotive Repair and Maintenance
312,sg:6f04763c90bf460590159a049ac22572,-81.64291,30.423207,120310101012,6,True,False,-81.59798959999999,30.507084600000002,"Executive, Legislative, and Other General Government Support"
313,sg:aee5baa14e3d4ede889e858c3f86693a,-81.628897,30.473846999999996,120310101012,7,True,False,-81.59798959999999,30.507084600000002,Restaurants and Other Eating Places
314,sg:0d6649fb7d47406c97a969166771c5b3,-81.57749,30.288898,120310101012,4,True,False,-81.59798959999999,30.507084600000002,Medical and Diagnostic Laboratories
315,sg:925bedf0e25d47caa562c40fed160ca8,-81.624059,30.489934,120310101012,20,True,True,-81.59798959999999,30.507084600000002,Restaurants and Other Eating Places
316,sg:241f19bea88b4527a172fc8ce9a2f5a4,-81.65600699999999,30.329219000000002,120310101012,4,True,False,-81.59798959999999,30.507084600000002,Offices of Physicians
317,sg:77e93403d7de4d329cc21ce82fd1e28a,-81.661049,30.428092,120310101012,4,True,False,-81.59798959999999,30.507084600000002,Clothing Stores
318,sg:72ba03b8d7444194bc5b79f709f1db9e,-81.63006800000001,30.473242,120310101012,14,True,True,-81.59798959999999,30.507084600000002,Restaurants and Other Eating Places
319,sg:5eed6ecf6db748aa98df9fa1d5cc1b21,-81.600864,30.283264000000003,120310101012,4,True,False,-81.59798959999999,30.507084600000002,Offices of Physicians
320,sg:bd021b578b2e4c9d80e7ad0ec21f7883,-81.62217199999999,30.518357,120310101012,7,True,False,-81.59798959999999,30.507084600000002,Used Merchandise Stores
321,sg:93ae798c02c544058b4e893395f61505,-81.632809,30.516690999999998,120310101012,5,True,False,-81.59798959999999,30.507084600000002,Restaurants and Other Eating Places
322,sg:223d8226d2fd43f790fac660bb792571,-81.70067399999999,30.437838,120310101012,5,True,False,-81.59798959999999,30.507084600000002,Other Amusement and Recreation Industries
323,sg:0a3f4e005fb14c0db6ac03e18f046bc9,-81.63254,30.466388000000002,120310101012,8,True,False,-81.59798959999999,30.507084600000002,"Automotive Parts, Accessories, and Tire Stores"
324,sg:baeee5584e7b4aac8e24a858fb582d9b,-81.65835,30.346705,120310101012,4,True,False,-81.59798959999999,30.507084600000002,Restaurants and Other Eating Places
325,sg:773c540ff34343b5b7178891907cae1e,-81.662471,30.430301,120310101012,5,True,False,-81.59798959999999,30.507084600000002,Restaurants and Other Eating Places
326,sg:0de26c71b12e48e884e5e30e76187151,-81.54077,30.323351000000002,120310101012,4,True,False,-81.59798959999999,30.507084600000002,"Agencies, Brokerages, and Other Insurance Related Activities"
327,sg:55ba47b28e314b30b1ddf190ff198036,-81.66273699999999,30.333276,120310101012,4,True,False,-81.59798959999999,30.507084600000002,Religious Organizations
328,sg:0aba7f3e80b64e70acef2d5b2bb12e0c,-81.63346,30.484211,120310101012,13,True,True,-81.59798959999999,30.507084600000002,Health and Personal Care Stores
329,sg:4ac80eabcadb4b2986e88a9ee01205a1,-81.641248,30.477821999999996,120310101012,4,True,False,-81.59798959999999,30.507084600000002,Clothing Stores
330,sg:c049f23987f84717bdeec7ba0828f12e,-81.721388,30.402209999999997,120310101012,4,True,False,-81.59798959999999,30.507084600000002,Religious Organizations
331,sg:52e92a3eba7f473c828490150ad988e9,-81.560417,30.238607000000002,120310101012,4,True,False,-81.59798959999999,30.507084600000002,Offices of Other Health Practitioners
332,sg:4a818a2ae7b5435bbbe0df736caac013,-81.682252,30.392143,120310101012,6,True,False,-81.59798959999999,30.507084600000002,Restaurants and Other Eating Places
333,sg:6825968777f04813aa2e86793d967b53,-81.644335,30.289409999999997,120310101012,4,True,False,-81.59798959999999,30.507084600000002,"Automotive Parts, Accessories, and Tire Stores"
334,sg:b1d453c2accf4f689ffb313455c9fa99,-81.624725,30.489465999999997,120310101012,30,True,True,-81.59798959999999,30.507084600000002,Health and Personal Care Stores
335,sg:2d084d837d8644c9abf20a33991c9756,-81.56547900000001,30.4643,120310101012,4,True,False,-81.59798959999999,30.507084600000002,Elementary and Secondary Schools
336,sg:ce3dc633056b4d4aac27a260bf1f4c43,-81.57899300000001,30.250021000000004,120310144131,4,False,False,-81.5406871,30.1942858,Offices of Physicians
337,sg:d18f4636aee940308817f67599ac8845,-81.620283,30.195113,120310144131,4,False,False,-81.5406871,30.1942858,Offices of Dentists
338,sg:d2796707881041818a8fdb1d84e9336a,-81.616582,30.215343,120190302012,5,False,False,-81.8667481,30.099440100000002,Other Motor Vehicle Dealers
339,sg:559b4a10b2e2499a89c2e7a6e719a5eb,-81.542966,30.248681,120190302012,4,False,False,-81.8667481,30.099440100000002,Medical and Diagnostic Laboratories
340,sg:6c30065c9439491dbbf73aa99c71678f,-81.588844,30.236857,120190302012,4,False,False,-81.8667481,30.099440100000002,Other Amusement and Recreation Industries
341,sg:1562000e51b946de9a32586b2d3666b1,-81.758157,30.330861,120190302012,4,False,False,-81.8667481,30.099440100000002,"Office Supplies, Stationery, and Gift Stores"
342,sg:3c57172184034571936da80344f56508,-81.587283,30.219791999999998,120190302012,4,False,False,-81.8667481,30.099440100000002,Other Amusement and Recreation Industries
343,sg:dafe0f75bb8f45679983a9ff6af40cf8,-81.63149399999999,30.259821000000002,120190302012,4,False,False,-81.8667481,30.099440100000002,"Agencies, Brokerages, and Other Insurance Related Activities"
344,sg:0ca8fd1029484c4ea89327c9f0768091,-81.580863,30.353627000000003,120190302012,4,False,False,-81.8667481,30.099440100000002,Other Amusement and Recreation Industries
345,sg:3069d69ef2cb479f9c026832974b788b,-81.799971,30.247317,120190302012,4,False,False,-81.8667481,30.099440100000002,Restaurants and Other Eating Places
346,sg:6d69ccf543c04246829f9b4fa15312eb,-81.748468,30.305694,120190302012,4,False,False,-81.8667481,30.099440100000002,Clothing Stores
347,sg:1bb6e3652c5243218124183b21b393c8,-81.69518199999999,30.320059999999998,120190302012,7,False,False,-81.8667481,30.099440100000002,Home Furnishings Stores
348,sg:02885634c8984557a78ea784240e9c3e,-81.738151,30.199275,120190302012,4,False,False,-81.8667481,30.099440100000002,Furniture Stores
349,sg:ef5c48b4ad5443b0a338e5caa7643984,-81.684597,30.396905,120310110001,4,True,False,-81.68349090000001,30.414149100000003,Offices of Physicians
350,sg:9d09d74dcc974226b624aa6297973c19,-81.684373,30.408392,120310110001,4,True,False,-81.68349090000001,30.414149100000003,Services to Buildings and Dwellings
351,sg:6f2b2e451162477a8bc8b29a1d10e92d,-81.791107,30.248148999999998,120310110001,4,True,False,-81.68349090000001,30.414149100000003,"Other Professional, Scientific, and Technical Services"
352,sg:0f15e939707c4b989e5e9a2afc9309d8,-81.68659,30.407039,120310110001,8,True,False,-81.68349090000001,30.414149100000003,"General Merchandise Stores, including Warehouse Clubs and Supercenters"
353,sg:f21d0be8ca6642489b1080ef9fb7f85b,-81.711161,30.369049,120310110001,4,True,False,-81.68349090000001,30.414149100000003,Elementary and Secondary Schools
354,sg:893bcae3ee8b48a2a4343e66ce8535d0,-81.703342,30.416234999999997,120310110001,4,True,False,-81.68349090000001,30.414149100000003,Home Furnishings Stores
355,sg:cee5ccbdf7fc47ed9785abb637b5a8c9,-81.730502,30.278610999999998,120310110001,6,True,False,-81.68349090000001,30.414149100000003,Electronics and Appliance Stores
356,sg:0a47233f39c54c3bb1f667d80192e4cc,-81.687557,30.409067999999998,120310110001,4,True,False,-81.68349090000001,30.414149100000003,"Justice, Public Order, and Safety Activities"
357,sg:38218778cc244101849683682946b1e8,-81.66629300000001,30.375090999999998,120310110001,4,True,False,-81.68349090000001,30.414149100000003,Lumber and Other Construction Materials Merchant Wholesalers
358,sg:c4965f01405f4fd185ac9e9ef3116e24,-81.730753,30.343453000000004,120310110001,4,True,False,-81.68349090000001,30.414149100000003,Restaurants and Other Eating Places
359,sg:119518a47dff464eb1250a270afd6bd9,-81.675931,30.385788,120310110001,4,True,False,-81.68349090000001,30.414149100000003,Restaurants and Other Eating Places
360,sg:5a4726a486554e0695ba4b53eaf8b927,-81.699501,30.378484999999998,120310110001,4,True,False,-81.68349090000001,30.414149100000003,Electronics and Appliance Stores
361,sg:f75925835cc4479f8069848ace986c1f,-81.762158,30.193070000000002,120310135034,8,False,False,-81.76188859999999,30.193767200000003,"Museums, Historical Sites, and Similar Institutions"
362,sg:0c8002c01a544013a704a158915486f3,-81.763994,30.192459000000003,120310135034,4,False,False,-81.76188859999999,30.193767200000003,"Colleges, Universities, and Professional Schools"
363,sg:6dbb8511a41445f38c9e7b55f7622335,-81.743003,30.336976,120310135034,4,False,False,-81.76188859999999,30.193767200000003,Building Material and Supplies Dealers
364,sg:835c470480524f32977a455bbfa4632c,-81.63039300000001,30.303252,120310135034,4,False,False,-81.76188859999999,30.193767200000003,"Office Supplies, Stationery, and Gift Stores"
365,sg:e43c4a253e274ecb8813bebd72781ef8,-81.605242,30.312486,120310135034,4,False,False,-81.76188859999999,30.193767200000003,"Agencies, Brokerages, and Other Insurance Related Activities"
366,sg:015ac436e21942b9bc662d636ead3d36,-81.753136,30.248028,120310135034,6,False,False,-81.76188859999999,30.193767200000003,Restaurants and Other Eating Places
367,sg:f8bc8ddccc504207a30761b8e079e0ba,-81.461248,30.095671000000003,121090206021,6,True,False,-81.4047316,30.0831956,"Museums, Historical Sites, and Similar Institutions"
368,sg:a8cac62946744fb0aa8d394f39a50aa2,-81.51975,30.260740999999996,121090206021,4,True,False,-81.4047316,30.0831956,Home Furnishings Stores
369,sg:ad525c61d6f9491a8c37005fbd471eae,-81.54969799999999,30.193485,121090206021,4,True,False,-81.4047316,30.0831956,"Sporting Goods, Hobby, and Musical Instrument Stores"
370,sg:b09dad1070c94f7db5171f7665168960,-81.515642,30.216642999999998,121090206021,4,True,False,-81.4047316,30.0831956,Depository Credit Intermediation
371,sg:5fe86fc8d52441db840dafd030542dc9,-81.441041,30.25123,121090206021,4,True,False,-81.4047316,30.0831956,Home Furnishings Stores
372,sg:e8bad144fcce488c981d2521b9c98c70,-81.55892,30.221974,121090206021,7,True,False,-81.4047316,30.0831956,Building Material and Supplies Dealers
373,sg:bab99a39ff4f456f8e683ef68657c0fd,-81.597164,30.352003000000003,121090206021,4,True,False,-81.4047316,30.0831956,Restaurants and Other Eating Places
374,sg:72c0e65bd7f14a87936a959961794902,-81.797024,30.374302,121090206021,6,True,False,-81.4047316,30.0831956,Electronics and Appliance Stores
375,sg:837871585fb84f52bc45d51654a9d877,-81.577564,30.217427,121090206021,6,True,False,-81.4047316,30.0831956,Offices of Physicians
376,sg:075dd9c8cd7f46a7a9c93d8fb491e65a,-81.715298,30.346744,121090206021,4,True,False,-81.4047316,30.0831956,Religious Organizations
377,sg:7fd58f18f41e4a40849ba97e07f67c6b,-81.640102,30.274975,121090206021,4,True,False,-81.4047316,30.0831956,"Sporting Goods, Hobby, and Musical Instrument Stores"
378,sg:edaa51cb02ab41ad89159286c1fb7f97,-81.51309,30.231890999999997,121090206021,4,True,False,-81.4047316,30.0831956,Offices of Dentists
379,sg:061065083ee648588fa59c1ead68e626,-81.550499,30.133827,121090206021,4,True,False,-81.4047316,30.0831956,Services to Buildings and Dwellings
380,sg:a6f479f4aeca4234aa3b25a02a0adffb,-81.61067,30.218976,121090206021,4,True,False,-81.4047316,30.0831956,Offices of Physicians
381,sg:57a6ed7c8389472196ed15ac741fdf43,-81.61718,30.29294,121090206021,4,True,False,-81.4047316,30.0831956,Medical and Diagnostic Laboratories
382,sg:9136307e615349f58d0dddf437811c53,-81.520721,30.142796999999998,121090206021,4,True,False,-81.4047316,30.0831956,Restaurants and Other Eating Places
383,sg:2b2115824b434a39bb86d81a73ce2a0c,-81.61493,30.218384000000004,121090206021,4,True,False,-81.4047316,30.0831956,Shoe Stores
384,sg:05584152a5604814b128ba13c271df05,-81.531903,30.139535,121090206021,4,True,False,-81.4047316,30.0831956,Electronics and Appliance Stores
385,sg:4c44d592f14e4380aeb1c42852c7956c,-81.615338,30.218322999999998,121090206021,5,True,False,-81.4047316,30.0831956,Building Material and Supplies Dealers
386,sg:cb8647212800434bb61f238f9390cb9e,-81.588211,30.259586,121090206021,4,True,False,-81.4047316,30.0831956,Other Financial Investment Activities
387,sg:5c765a98aac345da814ddccbde0b1c55,-81.625562,30.185203,121090206021,9,True,False,-81.4047316,30.0831956,Grocery Stores
388,sg:5f0edc17acc8475ca7f56f1df8089296,-81.439514,30.285769000000002,121090206021,4,True,False,-81.4047316,30.0831956,Restaurants and Other Eating Places
389,sg:3812dde8fe664a92a2f15580d1365402,-81.52461600000001,30.259674,121090206021,4,True,False,-81.4047316,30.0831956,Furniture Stores
390,sg:4c0eb49adfbd4c87adee8c591524b46f,-81.59544100000001,30.154982,121090206021,4,True,False,-81.4047316,30.0831956,Electronics and Appliance Stores
391,sg:09d64ac24f0b4760a4e7bf1b581fba03,-81.573828,30.200533,121090206021,7,True,False,-81.4047316,30.0831956,Personal and Household Goods Repair and Maintenance
392,sg:0c3010d0ee0c470b887914556311dc47,-81.563146,30.312555,121090206021,4,True,False,-81.4047316,30.0831956,Automotive Repair and Maintenance
393,sg:4bb6a6f95e524d249119bc0671e53b6c,-81.52091,30.142647999999998,121090206021,4,True,False,-81.4047316,30.0831956,Restaurants and Other Eating Places
394,sg:b20c19945bd245a9af3d1903b6c38da1,-81.51794,30.326117,121090206021,7,True,False,-81.4047316,30.0831956,Automobile Dealers
395,sg:cf13ca74c3de4860a98618711eb7b60f,-81.764099,30.24793,121090206021,4,True,False,-81.4047316,30.0831956,"Other Professional, Scientific, and Technical Services"
396,sg:d764a86e5ff44f4790449cb90f9fbab0,-81.566906,30.194492999999998,121090206021,6,True,False,-81.4047316,30.0831956,Restaurants and Other Eating Places
397,sg:080ae0615651416cbe0f76e5025c5c30,-81.53558000000001,30.252941999999997,121090206021,4,True,False,-81.4047316,30.0831956,Grocery Stores
398,sg:c282d735f5774b97aed4a49f357411af,-81.552806,30.217908,121090206021,5,True,False,-81.4047316,30.0831956,Restaurants and Other Eating Places
399,sg:4c849054256e4a8d871ba17ddb96210c,-81.652627,30.305072999999997,121090206021,4,True,False,-81.4047316,30.0831956,Florists
400,sg:d1f71a92c3d347959065e9bb7c156e7e,-81.557997,30.260434000000004,121090206021,4,True,False,-81.4047316,30.0831956,Automobile Dealers
401,sg:7284b44596b845e686114b91790a333e,-81.550395,30.140744,121090206021,5,True,False,-81.4047316,30.0831956,"Office Supplies, Stationery, and Gift Stores"
402,sg:ed8e83338427445caf078b0a70d29b4a,-81.41355300000001,30.096991999999997,121090206021,50,True,True,-81.4047316,30.0831956,"Museums, Historical Sites, and Similar Institutions"
403,sg:2ffa2ad517914a9f998e51f0b192318d,-81.52051,30.146376,121090206021,6,True,False,-81.4047316,30.0831956,Personal and Household Goods Repair and Maintenance
404,sg:2211b5583ccf4021b3135fdfef08663b,-81.738389,30.201024,121090206021,4,True,False,-81.4047316,30.0831956,Automobile Dealers
405,sg:f1bb7b01b5b04d34829d764db644b2dc,-81.430033,30.103838,121090206021,15,True,True,-81.4047316,30.0831956,"Museums, Historical Sites, and Similar Institutions"
406,sg:34e6743059454d778edf16d2c0528bc4,-81.539574,30.287326,121090206021,8,True,False,-81.4047316,30.0831956,"Sporting Goods, Hobby, and Musical Instrument Stores"
407,sg:66841ce12b2a4a44a001312608377422,-81.64328499999999,30.358806,121090206021,4,True,False,-81.4047316,30.0831956,Religious Organizations
408,sg:10820abbc50248ea8719579d6b7592a8,-81.604675,30.379642999999998,120310147013,8,True,False,-81.60202640000001,30.377440000000004,Depository Credit Intermediation
409,sg:7ff18a078d2445d1849d65e34e49f479,-81.611228,30.37657,120310147013,10,True,False,-81.60202640000001,30.377440000000004,"Museums, Historical Sites, and Similar Institutions"
410,sg:497b47d8fefe483ab5af556bb14732f1,-81.468056,30.288426,120310147013,4,True,False,-81.60202640000001,30.377440000000004,Depository Credit Intermediation
411,sg:5a5d7058f24540fdabfe3f19a5cadaab,-81.730154,30.323183,120310147013,4,True,False,-81.60202640000001,30.377440000000004,Building Material and Supplies Dealers
412,sg:79117afd418142c58f0a51eec5cd1f52,-81.601955,30.330256,120310147013,4,True,False,-81.60202640000001,30.377440000000004,"Sporting Goods, Hobby, and Musical Instrument Stores"
413,sg:35e3e423f01a4be38f9befb24e4b5921,-81.712997,30.344666999999998,120310147013,4,True,False,-81.60202640000001,30.377440000000004,Home Furnishings Stores
414,sg:3bb936be907a4f7ea27b58290f16a524,-81.631918,30.265497999999997,120310147013,4,True,False,-81.60202640000001,30.377440000000004,"Sporting Goods, Hobby, and Musical Instrument Stores"
415,sg:bfb14fe0b6a64bfebe2e4d8d54812052,-81.542495,30.314365999999996,120310147013,4,True,False,-81.60202640000001,30.377440000000004,Religious Organizations
416,sg:7992748cbba7417eb9f080196fc10e69,-81.599766,30.378929,120310147013,9,True,False,-81.60202640000001,30.377440000000004,Offices of Physicians
417,sg:15dc5fc415634affb1ba91553010e99e,-81.571632,30.312005,120190302032,4,True,False,-81.8150316,30.180448900000002,Personal Care Services
418,sg:fc8faf24661845c8a3b52959fe321e0b,-81.82388,30.196964,120190302032,20,True,True,-81.8150316,30.180448900000002,Restaurants and Other Eating Places
419,sg:006fe6baa1794226a0dbf1680ead713a,-81.771101,30.248877,120190302032,6,True,False,-81.8150316,30.180448900000002,Grocery Stores
420,sg:d718d68a4193440ca43f4a70727bb3b6,-81.82505400000001,30.194964000000002,120190302032,37,True,True,-81.8150316,30.180448900000002,Restaurants and Other Eating Places
421,sg:74dbdb4f2966481fbcf9245bdfae6df3,-81.796215,30.194322999999997,120190302032,39,True,True,-81.8150316,30.180448900000002,Grocery Stores
422,sg:a4c7274bf122407cb9a421c72388a858,-81.759839,30.262511,120190302032,4,True,False,-81.8150316,30.180448900000002,Building Material and Supplies Dealers
423,sg:6a638ad74e1540ebbb93f950d04e0a4b,-81.786082,30.314253000000004,120190302032,4,True,False,-81.8150316,30.180448900000002,Elementary and Secondary Schools
424,sg:a416a861a2424bd889e400906d53885f,-81.82469300000001,30.195040000000002,120190302032,53,True,True,-81.8150316,30.180448900000002,Gasoline Stations
425,sg:9e90577be72b4b549a61a959f946280b,-81.74667600000001,30.198171000000002,120190302032,84,True,True,-81.8150316,30.180448900000002,"General Merchandise Stores, including Warehouse Clubs and Supercenters"
426,sg:23674bc983ba4ac083afbf33aeaf005c,-81.598561,30.1611,120190302032,4,True,False,-81.8150316,30.180448900000002,Religious Organizations
427,sg:28b717698036412c857475e6a124b6a2,-81.588719,30.290211,120190302032,4,True,False,-81.8150316,30.180448900000002,Automobile Dealers
428,sg:ffacba1910ea40d3a1a49c4edbf361f6,-81.775812,30.247834,120190302032,7,True,False,-81.8150316,30.180448900000002,Automotive Repair and Maintenance
429,sg:a49e377da5a240f9a60f0c2b056b7f66,-81.829982,30.194936,120190302032,6,True,False,-81.8150316,30.180448900000002,Restaurants and Other Eating Places
430,sg:0f7e4c9463624ef49953090694cb8808,-81.525104,30.290196999999996,120190302032,4,True,False,-81.8150316,30.180448900000002,Other Amusement and Recreation Industries
431,sg:26b8baaf68524b3eb229367e76b59bc5,-81.82990799999999,30.197172,120190302032,5,True,False,-81.8150316,30.180448900000002,Restaurants and Other Eating Places
432,sg:fdaa714f4e74429284defcaca092d809,-81.689525,30.308346000000004,120190302032,7,True,False,-81.8150316,30.180448900000002,Restaurants and Other Eating Places
433,sg:9c2f570b3fa4447eb835cb379e7ac033,-81.82989,30.197903000000004,120190302032,38,True,True,-81.8150316,30.180448900000002,"General Merchandise Stores, including Warehouse Clubs and Supercenters"
434,sg:ea6e9678321e4fd9aed81d690babee1b,-81.833187,30.196883000000003,120190302032,10,True,False,-81.8150316,30.180448900000002,Offices of Physicians
435,sg:eb72a1ea9cb84bd9b69a5d8d402b6895,-81.826789,30.175128000000004,120190302032,9,True,False,-81.8150316,30.180448900000002,"Museums, Historical Sites, and Similar Institutions"
436,sg:e5a12fa04e074bc1836b5c2fcdae1b94,-81.742296,30.244322999999998,120190302032,5,True,False,-81.8150316,30.180448900000002,
437,sg:d16ea405573e4135936e06ac6595fdf4,-81.82351899999999,30.199538,120190302032,5,True,False,-81.8150316,30.180448900000002,"Sporting Goods, Hobby, and Musical Instrument Stores"
438,sg:b253737fc40746d89f22b1b62705d672,-81.825023,30.195103000000003,120190302032,48,True,True,-81.8150316,30.180448900000002,Grocery Stores
439,sg:b955e46b365f471590ea3ca54b823445,-81.825776,30.193453,120190302032,206,True,True,-81.8150316,30.180448900000002,"Sporting Goods, Hobby, and Musical Instrument Stores"
440,sg:4ee45db1e1324366a513c46fed25b402,-81.82561199999999,30.193904999999997,120190302032,228,True,True,-81.8150316,30.180448900000002,Lessors of Real Estate
441,sg:e44b9a8d86804dc5afa753d76354c5da,-81.759343,30.204572,120190302032,11,True,False,-81.8150316,30.180448900000002,Restaurants and Other Eating Places
442,sg:73f4da65a17b41fbae18bf22d19337ad,-81.662289,30.327616,120190302032,5,True,False,-81.8150316,30.180448900000002,Restaurants and Other Eating Places
443,sg:4471b5124a6145988b149326278a76db,-81.637787,30.272508000000002,120190302032,4,True,False,-81.8150316,30.180448900000002,Miscellaneous Durable Goods Merchant Wholesalers
444,sg:b1dec8cab2e244e490b2ab4e758277f8,-81.74081899999999,30.193471999999996,120190302032,9,True,False,-81.8150316,30.180448900000002,Restaurants and Other Eating Places
445,sg:8189cef947754af1a026965df4dd193f,-81.782911,30.324581,120190302032,4,True,False,-81.8150316,30.180448900000002,Support Activities for Road Transportation
446,sg:b1faea44d98f4a838fbf29b9fec26068,-81.672051,30.323082,120190302032,4,True,False,-81.8150316,30.180448900000002,Restaurants and Other Eating Places
447,sg:46ae79c6cfcb493792408b3894ebf471,-81.740944,30.200807,120190302032,4,True,False,-81.8150316,30.180448900000002,Building Material and Supplies Dealers
448,sg:bed82513c3db4e3e951549c929796380,-81.826335,30.194344,120190302032,4,True,False,-81.8150316,30.180448900000002,Restaurants and Other Eating Places
449,sg:386ab5b053244da492d642125782533f,-81.682659,30.312853999999998,120190302032,4,True,False,-81.8150316,30.180448900000002,Offices of Other Health Practitioners
450,sg:af99bba3aec44500af8caa56980a4c74,-81.764868,30.196724,120190302032,13,True,True,-81.8150316,30.180448900000002,Gasoline Stations
451,sg:ff332d78bffb4e1c981e59fe4fa6d47c,-81.836815,30.177478999999998,120190302032,8,True,False,-81.8150316,30.180448900000002,"Museums, Historical Sites, and Similar Institutions"
452,sg:00f617d0790b4ed49ce36f235bc2ed9d,-81.526606,30.263528000000004,120190302032,4,True,False,-81.8150316,30.180448900000002,Clothing Stores
453,sg:a7ba4b9ecba14cdd85ce09e45011c779,-81.824246,30.196372999999998,120190302032,4,True,False,-81.8150316,30.180448900000002,Restaurants and Other Eating Places
454,sg:c5f29fbed9fe410eb237cf4f47fc974f,-81.825548,30.193614,120190302032,4,True,False,-81.8150316,30.180448900000002,Grocery Stores
455,sg:6035989fc1a447e89d870308f3be57df,-81.823306,30.198428999999997,120190302032,14,True,True,-81.8150316,30.180448900000002,Restaurants and Other Eating Places
456,sg:26c24273755a4217a3829c4c59b013a3,-81.653704,30.362871000000002,120190302032,4,True,False,-81.8150316,30.180448900000002,Bakeries and Tortilla Manufacturing
457,sg:a526f790b06047ee92dc10497ca951c0,-81.726275,30.310443,120190302032,6,True,False,-81.8150316,30.180448900000002,Offices of Physicians
458,sg:107bf9bf48504cbbbfa9688c69c00755,-81.794708,30.193353000000002,120190302032,6,True,False,-81.8150316,30.180448900000002,Other Amusement and Recreation Industries
459,sg:56e2f8af7de449d69119c82a2eb1ea9e,-81.713493,30.322222999999997,120190302032,4,True,False,-81.8150316,30.180448900000002,Religious Organizations
460,sg:b3ffc5628fba4fc6aae81d613ce2e5b1,-81.59161,30.219867999999998,120190302032,4,True,False,-81.8150316,30.180448900000002,Health and Personal Care Stores
461,sg:2bb6320367b74bdc8957975cb1539756,-81.526211,30.290233,120190302032,4,True,False,-81.8150316,30.180448900000002,Outpatient Care Centers
462,sg:ba3fd02e07104f75a2efa34df6d81c52,-81.830721,30.194948999999998,120190302032,25,True,True,-81.8150316,30.180448900000002,Used Merchandise Stores
463,sg:b7469a9c5cd14f8db33999d0047ecbbf,-81.72494300000001,30.370891999999998,120190302032,5,True,False,-81.8150316,30.180448900000002,
464,sg:7a94cf7601b74f8baa82939b25ae11b1,-81.826295,30.194522999999997,120190302032,4,True,False,-81.8150316,30.180448900000002,Restaurants and Other Eating Places
465,sg:1df75e05d47543b69baed84b33456dc1,-81.656743,30.353706,120190302032,4,True,False,-81.8150316,30.180448900000002,Religious Organizations
466,sg:acea49b1faa14900b6b07a4909015d05,-81.550816,30.187246999999996,120190302032,4,True,False,-81.8150316,30.180448900000002,Building Material and Supplies Dealers
467,sg:771d01eee9094d7eb5a2a19fed73bf03,-81.743543,30.197443,120190302032,23,True,True,-81.8150316,30.180448900000002,Other Amusement and Recreation Industries
468,sg:15f493e776bb4166bc91eee89f1b1a9e,-81.823846,30.199498,120190302032,9,True,False,-81.8150316,30.180448900000002,"Office Supplies, Stationery, and Gift Stores"
469,sg:6851251d20af41e5b8bf9be95aebdba3,-81.827381,30.199452,120190302032,17,True,True,-81.8150316,30.180448900000002,"General Merchandise Stores, including Warehouse Clubs and Supercenters"
470,sg:9aa32ac42f544a9b9cd5c42232c637a0,-81.719239,30.306174,120190302032,5,True,False,-81.8150316,30.180448900000002,"Museums, Historical Sites, and Similar Institutions"
471,sg:53100c5b083a41a48dc07726d43e6081,-81.77607900000001,30.195613,120190302032,10,True,False,-81.8150316,30.180448900000002,"General Merchandise Stores, including Warehouse Clubs and Supercenters"
472,sg:340ff0e6ebc344c3b6585cc5bef75114,-81.712778,30.330746,120190302032,4,True,False,-81.8150316,30.180448900000002,Automotive Repair and Maintenance
473,sg:bfee0507b1624755b0e5c0971f19999b,-81.7787,30.372573,120190302032,4,True,False,-81.8150316,30.180448900000002,Specialty Food Stores
474,sg:2ae52cee77d244e8846e1d69517eeb43,-81.717486,30.312337,120190302032,4,True,False,-81.8150316,30.180448900000002,Grocery Stores
475,sg:a6f2f2449bed4943bc38b32e94d7c750,-81.730743,30.28182,120190302032,4,True,False,-81.8150316,30.180448900000002,Gasoline Stations
476,sg:05f8ae6e3b6b45e8bc5112de025ad118,-81.82637700000001,30.196113,120190302032,19,True,True,-81.8150316,30.180448900000002,Restaurants and Other Eating Places
477,sg:3eda45624e0542aab177050b0b1da2bf,-81.397038,30.389668,120190302032,4,True,False,-81.8150316,30.180448900000002,Restaurants and Other Eating Places
478,sg:683c3ae8e11147c28572810efe009f4a,-81.796193,30.194307000000002,120190302032,61,True,True,-81.8150316,30.180448900000002,Grocery Stores
479,sg:9cb0582f6a6043938c915a60f4b0e0ec,-81.829626,30.199272999999998,120190302032,17,True,True,-81.8150316,30.180448900000002,"Sporting Goods, Hobby, and Musical Instrument Stores"
480,sg:9507411740fd47b7a2cf8103f2f3ffd1,-81.829789,30.174652000000002,120190302032,28,True,True,-81.8150316,30.180448900000002,"Museums, Historical Sites, and Similar Institutions"
481,sg:f88c558b6d8b4d2691f2f127b4dee568,-81.76017900000001,30.206239,120190302032,97,True,True,-81.8150316,30.180448900000002,Lessors of Real Estate
482,sg:80fd3d6d09ce46aaa56f4f9b6895fc17,-81.760826,30.204985999999998,120190302032,13,True,True,-81.8150316,30.180448900000002,Gasoline Stations
483,sg:36b386f7ddb44fb688a1e7713c8244f4,-81.742441,30.193634999999997,120190302032,7,True,False,-81.8150316,30.180448900000002,Other Amusement and Recreation Industries
484,sg:4712ce465b934e7e930fa8fe7282699a,-81.776352,30.285134000000003,120190302032,4,True,False,-81.8150316,30.180448900000002,Religious Organizations
485,sg:97defe27023e41f2b3e500417001a4f3,-81.587486,30.225111,120190302032,4,True,False,-81.8150316,30.180448900000002,Medical and Diagnostic Laboratories
486,sg:d61bc0dc31594dd2a6e1f49d954569a5,-81.827175,30.19732,120190302032,5,True,False,-81.8150316,30.180448900000002,"Office Supplies, Stationery, and Gift Stores"
487,sg:1e952db632bc45ce9622f12d46fc8d6e,-81.537036,30.157624,120190302032,5,True,False,-81.8150316,30.180448900000002,Building Material and Supplies Dealers
488,sg:3ed10988bde0438fa376951c3797edd9,-81.531089,30.279921999999996,120190302032,4,True,False,-81.8150316,30.180448900000002,Other Amusement and Recreation Industries
489,sg:2029d4f6b585481bb9f052217ebc7fde,-81.54836,30.185147999999998,120190302032,4,True,False,-81.8150316,30.180448900000002,Personal Care Services
490,sg:a33b850162654c0e9aad9224d05e7116,-81.826215,30.194616999999997,120190302032,9,True,False,-81.8150316,30.180448900000002,Restaurants and Other Eating Places
491,sg:4b66d4813b814906be0abbc47ae89b8b,-81.82734,30.196156,120190302032,10,True,False,-81.8150316,30.180448900000002,Restaurants and Other Eating Places
492,sg:842b6c76078b4dd6b3be927e22ec4634,-81.759303,30.204584999999998,120190302032,9,True,False,-81.8150316,30.180448900000002,Restaurants and Other Eating Places
493,sg:6ea9a16a3c2747cfa2b23e39a1c1bd6c,-81.730583,30.332184,120190302032,4,True,False,-81.8150316,30.180448900000002,Furniture Stores
494,sg:444717864e1e48e0bfb572eca2e0d81a,-81.829433,30.194959000000004,120190302032,6,True,False,-81.8150316,30.180448900000002,Furniture Stores
495,sg:4d2c9c31683747fa9ce84955d25b8060,-81.691501,30.307190999999996,120190302032,4,True,False,-81.8150316,30.180448900000002,Offices of Physicians
496,sg:20810459ee1a4afcbac94c5e73cf47d4,-81.744587,30.191067999999998,120190302032,8,True,False,-81.8150316,30.180448900000002,Restaurants and Other Eating Places
497,sg:ec69a24d922c47bebdbe06368b8055bb,-81.839653,30.159253999999997,120190302032,5,True,False,-81.8150316,30.180448900000002,"Museums, Historical Sites, and Similar Institutions"
498,sg:b6e23f5f82064698b78b4b11829f4d9d,-81.679451,30.310617999999998,120190302032,6,True,False,-81.8150316,30.180448900000002,Amusement Parks and Arcades
499,sg:ee4447da754f4bf6bf83227301fbebd4,-81.720164,30.275367,120190302032,4,True,False,-81.8150316,30.180448900000002,Building Material and Supplies Dealers
500,sg:1897a7b615e64056aa68fc70b2f54904,-81.639352,30.08275,121090208041,4,True,False,-81.63329379999999,30.0731353,Grocery Stores
501,sg:4753f33d40454dbfb72c1c5003fff27e,-81.6033,30.281155,121090208041,4,True,False,-81.63329379999999,30.0731353,Medical and Diagnostic Laboratories
502,sg:592c9d8982fa4a55945e6085ff3a6fde,-81.625213,30.116633,121090208041,5,True,False,-81.63329379999999,30.0731353,Child Day Care Services
503,sg:840dbe9fb0a0497e8dc87a4e1fe0c631,-81.621512,30.160436999999998,121090208041,4,True,False,-81.63329379999999,30.0731353,Religious Organizations
504,sg:d34e6ba0ff704071b8498b686da631d3,-81.604302,30.167031,121090208041,4,True,False,-81.63329379999999,30.0731353,Restaurants and Other Eating Places
505,sg:c620ee4abcb242d1b54a8e402a62576f,-81.639472,30.082651000000002,121090208041,5,True,False,-81.63329379999999,30.0731353,Building Material and Supplies Dealers
506,sg:afe6a2d0cbf943f4988890d9f754f786,-81.63170799999999,30.159559,121090208041,4,True,False,-81.63329379999999,30.0731353,"General Merchandise Stores, including Warehouse Clubs and Supercenters"
507,sg:f8f4a4b9165b47f68d4cc347e5654fda,-81.639412,30.082698999999998,121090208041,14,True,True,-81.63329379999999,30.0731353,Gasoline Stations
508,sg:299f035d81c44b3ca1afccb9f8f4b5f5,-81.603243,30.281142,121090208041,4,True,False,-81.63329379999999,30.0731353,Offices of Physicians
509,sg:ccfc2392b2f74a12abdae544b2287c3f,-81.651815,30.0786,121090208041,19,True,True,-81.63329379999999,30.0731353,"Museums, Historical Sites, and Similar Institutions"
510,sg:6629facb985346688a0b58754da7a6c2,-81.660337,30.310059000000003,121090208041,4,True,False,-81.63329379999999,30.0731353,Used Merchandise Stores
511,sg:c997d3280fb44928a594fed39aa5a7e1,-81.629048,30.092537,121090208041,4,True,False,-81.63329379999999,30.0731353,"Other Professional, Scientific, and Technical Services"
512,sg:58e7f6e7e55746f6988af81300cb7424,-81.632201,30.137455,121090208041,4,True,False,-81.63329379999999,30.0731353,Other Amusement and Recreation Industries
513,sg:22b6420e23644b2abe60ad7b0e5df391,-81.535388,30.139235,121090208041,6,True,False,-81.63329379999999,30.0731353,Offices of Physicians
514,sg:faa41689529e421a9adf069ab1d397a3,-81.62922900000001,30.088034999999998,121090208041,4,True,False,-81.63329379999999,30.0731353,"Museums, Historical Sites, and Similar Institutions"
515,sg:69174dad265c477e998d71944257e805,-81.60828000000001,30.182954,121090208041,4,True,False,-81.63329379999999,30.0731353,Restaurants and Other Eating Places
516,sg:74923408b0454f938a02bce2187c2ef2,-81.632048,30.146781,121090208041,13,True,True,-81.63329379999999,30.0731353,Restaurants and Other Eating Places
517,sg:7e6327c721ea42faada116988a67597b,-81.633212,30.156699,121090208041,4,True,False,-81.63329379999999,30.0731353,Offices of Physicians
518,sg:21becb3f4cd646799e6ae49f67353181,-81.581018,30.210862,121090208041,4,True,False,-81.63329379999999,30.0731353,Building Material and Supplies Dealers
519,sg:52ad383ae7dd47238ee73cd0a941d38d,-81.717745,30.321639,121090208041,4,True,False,-81.63329379999999,30.0731353,Automotive Repair and Maintenance
520,sg:9aa9d840977c454cbe93ec7e0edecd61,-81.64817,30.069298999999997,121090208041,4,True,False,-81.63329379999999,30.0731353,Building Material and Supplies Dealers
521,sg:9b784c2aedcf4b068a94240550b2f61c,-81.55269100000001,30.322871999999997,121090208041,4,True,False,-81.63329379999999,30.0731353,Automotive Repair and Maintenance
522,sg:f464b6faacbd4816870de2871d36ca9a,-81.572485,30.200962,121090208041,5,True,False,-81.63329379999999,30.0731353,Employment Services
523,sg:2e401adcff6844769a21242a1eb2c96e,-81.620456,30.197182,121090208041,5,True,False,-81.63329379999999,30.0731353,Personal Care Services
524,sg:1f9adb4caf894973acb27f83064c9d5b,-81.63295699999999,30.15905,121090208041,4,True,False,-81.63329379999999,30.0731353,Restaurants and Other Eating Places
525,sg:2407ccde73af4afba4f3fb89b07ec32a,-81.75780300000001,30.453207,120310115003,4,True,False,-81.69275040000001,30.369030100000003,Offices of Real Estate Agents and Brokers
526,sg:884eada16cc443d39ae2a9ce83e637b0,-81.639747,30.341229,120310115003,4,True,False,-81.69275040000001,30.369030100000003,Elementary and Secondary Schools
527,sg:3b8a179c9c3c4dc2ba9dfefc29b74086,-81.68818900000001,30.371470000000002,120310115003,5,True,False,-81.69275040000001,30.369030100000003,Restaurants and Other Eating Places
528,sg:fcee32db527945b9a96e8b71eebb875c,-81.682895,30.39765,120310115003,4,True,False,-81.69275040000001,30.369030100000003,"Automotive Parts, Accessories, and Tire Stores"
529,sg:5306f336eaf645b2a4da655596f4041b,-81.714214,30.374284999999997,120310115003,4,True,False,-81.69275040000001,30.369030100000003,Gasoline Stations
530,sg:a21ff25ae58f484d8f22e9f951c6fe91,-81.518057,30.287701000000002,120310115003,4,True,False,-81.69275040000001,30.369030100000003,Restaurants and Other Eating Places
531,sg:249268a419d3473a87cf99cfc381d2f6,-81.67134899999999,30.452563,120310115003,4,True,False,-81.69275040000001,30.369030100000003,Elementary and Secondary Schools
532,sg:29f87fed35a44e809f1747c68a9db467,-81.70707900000001,30.342467,120310115003,4,True,False,-81.69275040000001,30.369030100000003,Elementary and Secondary Schools
533,sg:7e1558d632884a0da621d0bec8dc393e,-81.792384,30.247169,120310115003,4,True,False,-81.69275040000001,30.369030100000003,Building Material and Supplies Dealers
534,sg:fccdde5b17e9498abc9ce552f21d5582,-81.631824,30.326806,120310115003,4,True,False,-81.69275040000001,30.369030100000003,Gasoline Stations
535,sg:9caca1d7405140a790b417c39f8800aa,-81.687031,30.385778000000002,120310115003,4,True,False,-81.69275040000001,30.369030100000003,Offices of Physicians
536,sg:b5d79c080e8345ee902e1f0f0ce79118,-81.696602,30.370163,120310115003,4,True,False,-81.69275040000001,30.369030100000003,Religious Organizations
537,sg:1f697c04a6784e4fbc8bddf42a1e143f,-81.682661,30.313840000000003,120310115003,4,True,False,-81.69275040000001,30.369030100000003,Offices of Dentists
538,sg:701836b7ce1e496eb623ac1223cf8efa,-81.699575,30.414303000000004,120310115003,6,True,False,-81.69275040000001,30.369030100000003,Elementary and Secondary Schools
539,sg:2feeb22b79364506abd486687ea3a7b8,-81.523815,30.287802000000003,120310143121,18,True,True,-81.5120863,30.291014399999998,Traveler Accommodation
540,sg:ea7c46fb2343437fba380643319f7ef5,-81.526979,30.278882,120310143121,4,True,False,-81.5120863,30.291014399999998,"Agencies, Brokerages, and Other Insurance Related Activities"
541,sg:5a67432b337e490f9db7e8226b64401f,-81.38901800000001,30.288811,120310143121,4,True,False,-81.5120863,30.291014399999998,"Sporting Goods, Hobby, and Musical Instrument Stores"
542,sg:f94376c4411b4c348460d35dcac50bf7,-81.51495899999999,30.297067,120310143121,6,True,False,-81.5120863,30.291014399999998,"Agencies, Brokerages, and Other Insurance Related Activities"
543,sg:0f12c49971ea475e9e28e1ede5cbc1b1,-81.522429,30.323315,120310143121,5,True,False,-81.5120863,30.291014399999998,Grocery Stores
544,sg:0b345613c86744bb9d3434b641926fa0,-81.52506899999999,30.288552000000003,120310143121,5,True,False,-81.5120863,30.291014399999998,Wired and Wireless Telecommunications Carriers
545,sg:f4cc760380d3433b8dd65a93adc84ddc,-81.525594,30.279837,120310143121,4,True,False,-81.5120863,30.291014399999998,Offices of Physicians
546,sg:9f56436810f7413d8bfba843d24a0695,-81.533829,30.244647999999998,120310143121,4,True,False,-81.5120863,30.291014399999998,Offices of Dentists
547,sg:6cdfa717c8144dbf81c569ca3a8acb42,-81.54948900000001,30.326696999999996,120310143121,5,True,False,-81.5120863,30.291014399999998,Restaurants and Other Eating Places
548,sg:09e6b7781cfe4d26a6dab8e9d65f4bb3,-81.528988,30.285231,120310143121,4,True,False,-81.5120863,30.291014399999998,Other Amusement and Recreation Industries
549,sg:a0769cc9ff0641749904691b2991d0ce,-81.51446899999999,30.291110999999997,120310143121,13,True,True,-81.5120863,30.291014399999998,"Museums, Historical Sites, and Similar Institutions"
550,sg:987997567da6404f8f0e0047054d9bf2,-81.55851700000001,30.274575,120310143121,4,True,False,-81.5120863,30.291014399999998,Gasoline Stations
551,sg:ab74eba5832b4b53adb16e6d4eba1242,-81.520719,30.217659,120310143121,4,True,False,-81.5120863,30.291014399999998,Restaurants and Other Eating Places
552,sg:07ebf6fc99064744b0010509de341bb1,-81.642758,30.289803999999997,120310143121,4,True,False,-81.5120863,30.291014399999998,Religious Organizations
553,sg:b2899597f80b4014954c1fe39feaceb0,-81.51481,30.287724,120310143121,11,True,False,-81.5120863,30.291014399999998,Lessors of Real Estate
554,sg:f5c3cf1271f5446da58fbb2286debaa1,-81.60162199999999,30.289913000000002,120310143121,8,True,False,-81.5120863,30.291014399999998,Offices of Physicians
555,sg:aaaacb3749a94618b683ac53f01d19c3,-81.503989,30.287934000000003,120310143121,7,True,False,-81.5120863,30.291014399999998,Restaurants and Other Eating Places
556,sg:8a571348d22e45a6ac4bbb69ac885d3c,-81.523675,30.286383,120310143121,4,True,False,-81.5120863,30.291014399999998,"Automotive Parts, Accessories, and Tire Stores"
557,sg:557824c8c4c34f4ba1988864e84b809d,-81.524847,30.286203999999998,120310143121,15,True,True,-81.5120863,30.291014399999998,Health and Personal Care Stores
558,sg:c42a7b28b6b64309aa562f142186202b,-81.44034599999999,30.289138,120310143121,4,True,False,-81.5120863,30.291014399999998,Other Amusement and Recreation Industries
559,sg:fca9315d3007408399ae48827fe57b35,-81.51658,30.288040000000002,120310143121,4,True,False,-81.5120863,30.291014399999998,Grocery Stores
560,sg:ef81da7f5f1644fdac07f48f1c29b2ab,-81.742891,30.312957,120310143121,4,True,False,-81.5120863,30.291014399999998,Elementary and Secondary Schools
561,sg:d0e83f024895486abd9eda616f136f0d,-81.737587,30.317484000000004,120310143121,4,True,False,-81.5120863,30.291014399999998,Drycleaning and Laundry Services
562,sg:0c3e07e303a54f05a4cb3b60094c207e,-81.515713,30.297798999999998,120310143121,4,True,False,-81.5120863,30.291014399999998,Services to Buildings and Dwellings
563,sg:6b97de7603174eb5a9207c817cc82ae0,-81.460654,30.259265999999997,120310143121,4,True,False,-81.5120863,30.291014399999998,Building Material and Supplies Dealers
564,sg:61d3602ee16c496a88c59d97ba30d3e3,-81.59435699999999,30.261875,121090208052,5,True,False,-81.6049058,30.0945873,Building Equipment Contractors
565,sg:0c0cb390dcbf46cdb73f3989b661b468,-81.625737,30.126421,121090208052,4,True,False,-81.6049058,30.0945873,Other Miscellaneous Store Retailers
566,sg:3b077397a8224f41af410d337fca9c53,-81.62769,30.190482,121090208052,4,True,False,-81.6049058,30.0945873,Wired and Wireless Telecommunications Carriers
567,sg:6b2e309c818d4c88b0d0a03e45a200a5,-81.688928,30.334806,121090208052,4,True,False,-81.6049058,30.0945873,Restaurants and Other Eating Places
568,sg:7a31e4f43a1a4061a0417864715abb0d,-81.643136,30.285048,121090208052,4,True,False,-81.6049058,30.0945873,Restaurants and Other Eating Places
569,sg:b1d36c0ff6b84651ba741576a6804662,-81.601792,30.171248,121090208052,4,True,False,-81.6049058,30.0945873,Building Material and Supplies Dealers
570,sg:dadac5fdd36e4e169f1744e293e4b67b,-81.62853199999999,30.171707,121090208052,6,True,False,-81.6049058,30.0945873,Restaurants and Other Eating Places
571,sg:91be4ad215154f58abe02b4d233bd0d5,-81.602376,30.166852000000002,121090208052,5,True,False,-81.6049058,30.0945873,Restaurants and Other Eating Places
572,sg:e99fc7c0a39e41fc9aeb02cba6be59c7,-81.62779599999999,30.173646999999995,121090208052,6,True,False,-81.6049058,30.0945873,Restaurants and Other Eating Places
573,sg:28dc8004d43a426c9f0319ce06422118,-81.602574,30.278997999999998,121090208052,4,True,False,-81.6049058,30.0945873,Restaurants and Other Eating Places
574,sg:8ca747a5e6da4c93b053481bd4dfad59,-81.630511,30.134546000000004,121090208052,4,True,False,-81.6049058,30.0945873,"Beer, Wine, and Liquor Stores"
575,sg:4df0b2a9e67e46f28c3f6cb1c38be114,-81.627037,30.187903000000002,121090208052,6,True,False,-81.6049058,30.0945873,Restaurants and Other Eating Places
576,sg:3883c9b6e9bc435fb8afdfe2d46c62d2,-81.611249,30.096749,121090208052,4,True,False,-81.6049058,30.0945873,Other Personal Services
577,sg:7a54ca5a26064fb8b81dbd7a61ea0cd6,-81.629237,30.168984000000002,121090208052,4,True,False,-81.6049058,30.0945873,Depository Credit Intermediation
578,sg:737ff96da22d490d9321043d5c3a9d44,-81.527851,30.307125,121090208052,4,True,False,-81.6049058,30.0945873,Elementary and Secondary Schools
579,sg:06464b8db59d459295e30b2243af8957,-81.531305,30.156567,121090208052,7,True,False,-81.6049058,30.0945873,Restaurants and Other Eating Places
580,sg:cea29cd36b654b34ac98c78c8e5362bc,-81.632076,30.138840999999996,121090208052,14,True,True,-81.6049058,30.0945873,Restaurants and Other Eating Places
581,sg:31ff62b6fa0e4d0997e38b86816a1ad8,-81.62472700000001,30.11895,121090208052,9,True,False,-81.6049058,30.0945873,Used Merchandise Stores
582,sg:7a2cb9070d254edb8d8369054caa3203,-81.652406,30.305675,121090208052,4,True,False,-81.6049058,30.0945873,Offices of Other Health Practitioners
583,sg:6c650e61d2b9412192b7823cf375ca30,-81.6315,30.140852000000002,121090208052,35,True,True,-81.6049058,30.0945873,"Sporting Goods, Hobby, and Musical Instrument Stores"
584,sg:0d78d7462c4a4a3989561a9f664eaa5f,-81.537876,30.163496000000002,121090208052,5,True,False,-81.6049058,30.0945873,Automobile Dealers
585,sg:44b3d9dfc546427d8acd45908e716cff,-81.741149,30.255118,121090208052,4,True,False,-81.6049058,30.0945873,Building Material and Supplies Dealers
586,sg:5e068795102c483ca43093197be99c70,-81.624657,30.12251,121090208052,19,True,True,-81.6049058,30.0945873,Restaurants and Other Eating Places
587,sg:7fbe21868f33498da1df32aac4c8473c,-81.62385400000001,30.195279,121090208052,4,True,False,-81.6049058,30.0945873,Drinking Places (Alcoholic Beverages)
588,sg:a965be5dda944538aa095b7116235fd5,-81.61865300000001,30.199016999999998,121090208052,4,True,False,-81.6049058,30.0945873,Other Amusement and Recreation Industries
589,sg:8f23b81924d84a95bfbdd178d79b2a1b,-81.629301,30.172514000000003,121090208052,6,True,False,-81.6049058,30.0945873,Gasoline Stations
590,sg:b2f250e5f32a4a04abef2756c55e2ed3,-81.633059,30.160548,121090208052,13,True,True,-81.6049058,30.0945873,Restaurants and Other Eating Places
591,sg:4143eb6a32a445c89a84f7ce018c72c1,-81.529763,30.26235,121090208052,7,True,False,-81.6049058,30.0945873,Restaurants and Other Eating Places
592,sg:0d66d2e60c5f40868c57838acb7186c1,-81.759585,30.337653000000003,121090208052,5,True,False,-81.6049058,30.0945873,Traveler Accommodation
593,sg:6525e75315da4440a9c70a3bc7184c19,-81.63006999999999,30.174111,121090208052,18,True,True,-81.6049058,30.0945873,"Office Supplies, Stationery, and Gift Stores"
594,sg:67447e68e9294e9b82d2c74107a97124,-81.588973,30.25008,121090208052,8,True,False,-81.6049058,30.0945873,Automobile Dealers
595,sg:ebbd0bd4b926425c9fcb02534c64b4b5,-81.625672,30.12555,121090208052,15,True,True,-81.6049058,30.0945873,"Beer, Wine, and Liquor Stores"
596,sg:a6ed6d42abc3481f87a51c9f94b68806,-81.642526,30.149875,121090208052,4,True,False,-81.6049058,30.0945873,Religious Organizations
597,sg:3f1a1bc6d4d04065be2222a38a5abcf1,-81.603808,30.170537,121090208052,4,True,False,-81.6049058,30.0945873,Traveler Accommodation
598,sg:cf4fef7493f04069837754d85a164da6,-81.633098,30.161108000000002,121090208052,14,True,True,-81.6049058,30.0945873,Restaurants and Other Eating Places
599,sg:d195ee413a94409dba70dedac615d938,-81.536091,30.085805,121090208052,5,True,False,-81.6049058,30.0945873,"Agencies, Brokerages, and Other Insurance Related Activities"
600,sg:30c05138aaff463e8da790730667e92a,-81.590814,30.115724,121090208052,9,True,False,-81.6049058,30.0945873,Religious Organizations
601,sg:331cb60efcdb4357845acec504357935,-81.597939,30.206513,121090208052,4,True,False,-81.6049058,30.0945873,Grocery Stores
602,sg:3e3a455518f3453eac405aa29609bc1e,-81.632226,30.156188,121090208052,8,True,False,-81.6049058,30.0945873,Restaurants and Other Eating Places
603,sg:28555edb5ebd461ca3d15a5947b1f7f0,-81.592423,30.224095000000002,121090208052,4,True,False,-81.6049058,30.0945873,Health and Personal Care Stores
604,sg:a23190256052421b902116951dabce4f,-81.625509,30.114458000000003,121090208052,13,True,True,-81.6049058,30.0945873,Other Miscellaneous Store Retailers
605,sg:1ad28210ba30473eaa860af8111b694a,-81.553599,30.186553999999997,121090208052,5,True,False,-81.6049058,30.0945873,Department Stores
606,sg:94e951b8c9ca4e50b38345fe3aa9018c,-81.626101,30.12073,121090208052,14,True,True,-81.6049058,30.0945873,Health and Personal Care Stores
607,sg:0802e802ee81445b8f7b29cdedecf1a2,-81.62903,30.176519,121090208052,18,True,True,-81.6049058,30.0945873,Lessors of Real Estate
608,sg:425083c8eba64a18a04a3640bddac2c9,-81.776939,30.31952,121090208052,4,True,False,-81.6049058,30.0945873,Building Material and Supplies Dealers
609,sg:2b274509c32842aeb7727e95392c1ffd,-81.624861,30.256865,121090208052,9,True,False,-81.6049058,30.0945873,Lessors of Real Estate
610,sg:58b5df6833de4f57ac3e743e39a63f02,-81.62725,30.104121000000003,121090208052,7,True,False,-81.6049058,30.0945873,"Other Professional, Scientific, and Technical Services"
611,sg:54b16158d3e44c80ab9af6bcc52ed28c,-81.627848,30.189735,121090208052,46,True,True,-81.6049058,30.0945873,Restaurants and Other Eating Places
612,sg:747f0ebfd0b046c198d4bb34499352a0,-81.568667,30.091272999999997,121090208052,38,True,True,-81.6049058,30.0945873,"Museums, Historical Sites, and Similar Institutions"
613,sg:efe3c9da2a9340b081549c803bdcabe5,-81.62684399999999,30.118927000000003,121090208052,28,True,True,-81.6049058,30.0945873,Other Amusement and Recreation Industries
614,sg:a158162a927f45928c2e8d52223ff28d,-81.590428,30.2277,121090208052,4,True,False,-81.6049058,30.0945873,Building Material and Supplies Dealers
615,sg:6dbc6820e52d416f8b88b43d9eeb5f68,-81.554202,30.184976000000002,121090208052,4,True,False,-81.6049058,30.0945873,"General Merchandise Stores, including Warehouse Clubs and Supercenters"
616,sg:a62684ddc3c74b30801ac66c293e8a34,-81.629829,30.187934999999996,121090208052,36,True,True,-81.6049058,30.0945873,Department Stores
617,sg:a90199906dfe4d6ea2a104dacf09f62f,-81.63332700000001,30.156745,121090208052,4,True,False,-81.6049058,30.0945873,Offices of Other Health Practitioners
618,sg:374a21a23fe649d4b3617476772b4f14,-81.62674,30.200259000000003,121090208052,4,True,False,-81.6049058,30.0945873,Automotive Repair and Maintenance
619,sg:9085e6666f4e4c6fb956684d1657438e,-81.546447,30.254965000000002,121090208052,5,True,False,-81.6049058,30.0945873,"Agencies, Brokerages, and Other Insurance Related Activities"
620,sg:f654385d640f4dd38b35368aa400ae56,-81.54915799999999,30.174729,121090208052,6,True,False,-81.6049058,30.0945873,Automobile Dealers
621,sg:e7dcaac3b25145e68fba0e5bff055ee3,-81.626646,30.119311,121090208052,138,True,True,-81.6049058,30.0945873,Lessors of Real Estate
622,sg:8fb0b770f4f241ec86fb15e75bcef6fd,-81.625656,30.185202,121090208052,4,True,False,-81.6049058,30.0945873,Restaurants and Other Eating Places
623,sg:56c260e41c43491fb365881c94aaff14,-81.61447,30.085504999999998,121090208052,4,True,False,-81.6049058,30.0945873,Other Miscellaneous Store Retailers
624,sg:9fed1038cbd649f5bc4e439beb30755c,-81.62909499999999,30.1764,121090208052,4,True,False,-81.6049058,30.0945873,Personal Care Services
625,sg:f20b2226c6bf4c03bf1da82cd5891991,-81.626918,30.120737,121090208052,28,True,True,-81.6049058,30.0945873,Restaurants and Other Eating Places
626,sg:32063b1e47d746fcb5918b4f53706517,-81.53758499999999,30.163158000000003,121090208052,4,True,False,-81.6049058,30.0945873,Automobile Dealers
627,sg:0e84ce1f90e64503b4162401a0b3f488,-81.632006,30.140247,121090208052,8,True,False,-81.6049058,30.0945873,Restaurants and Other Eating Places
628,sg:80d3f4491147446bb95c0b0cb85f2c0f,-81.60091800000001,30.161593,121090208052,4,True,False,-81.6049058,30.0945873,Elementary and Secondary Schools
629,sg:87e14c1a3e834e95b0d49e0e94a5ea3d,-81.554861,30.255431,121090208052,4,True,False,-81.6049058,30.0945873,Personal Care Services
630,sg:4672200b37834acbb8a728a414115c71,-81.61797,30.199169,121090208052,4,True,False,-81.6049058,30.0945873,Restaurants and Other Eating Places
631,sg:7856d8412a8e4f11ab3cbfa4b174793a,-81.55117,30.213194,121090208052,4,True,False,-81.6049058,30.0945873,Used Merchandise Stores
632,sg:53bfb133370749b397c0b2934d8b2f75,-81.628007,30.188625,121090208052,5,True,False,-81.6049058,30.0945873,Restaurants and Other Eating Places
633,sg:e1af158556154d19be5200675ecef210,-81.548771,30.141819,121090208052,4,True,False,-81.6049058,30.0945873,Depository Credit Intermediation
634,sg:78e524c310ed411b9b68a5e2a737a281,-81.62624699999999,30.121996000000003,121090208052,26,True,True,-81.6049058,30.0945873,Health and Personal Care Stores
635,sg:02f96e5d86a24127864ce5f3a3ddc796,-81.62615500000001,30.173246000000002,121090208052,34,True,True,-81.6049058,30.0945873,Lessors of Real Estate
636,sg:d9dc976ca35943ef98a4d36d66bae711,-81.563393,30.189338,121090208052,5,True,False,-81.6049058,30.0945873,Offices of Dentists
637,sg:b2f30df87e5b4373b84db187e1a39eeb,-81.63196500000001,30.141759000000004,121090208052,13,True,True,-81.6049058,30.0945873,Restaurants and Other Eating Places
638,sg:2adac9dbe40347eeaabd327f12f85bc1,-81.63325,30.141334999999998,121090208052,19,True,True,-81.6049058,30.0945873,"Automotive Parts, Accessories, and Tire Stores"
