,safegraph_place_id,longitude,latitude,cbg,visits,hotspot_origin,hotspot_destination,cbg_longitude,cbg_latitude,top_category
0,sg:06f62af9bbeb4dc7bedd4817af885369,-81.84638000000001,30.305674,120310137211,49,True,True,-81.8569717,30.2795641,Lessors of Real Estate
1,sg:d796386dd83645cc899736c491f2d2e2,-81.847689,30.268234999999997,120310137211,8,True,False,-81.8569717,30.2795641,Other Miscellaneous Store Retailers
2,sg:fd3f6673c2bb43afb43fa789a3df9175,-81.602609,30.247562,120310137211,4,True,False,-81.8569717,30.2795641,"Office Supplies, Stationery, and Gift Stores"
3,sg:8d3394f49ebf464dbee1d097ce58450a,-81.767924,30.289340999999997,120310137211,13,True,True,-81.8569717,30.2795641,Elementary and Secondary Schools
4,sg:b598c8a857dc415e857ece071955f95a,-81.77561899999999,30.295937,120310137211,21,True,True,-81.8569717,30.2795641,Restaurants and Other Eating Places
5,sg:d77d33e5e11649648785eae7bfbbed97,-81.759913,30.342692,120310137211,4,True,False,-81.8569717,30.2795641,Religious Organizations
6,sg:d1ea6c11e94340cb9598a65d7a0d6d0f,-81.48866,30.285375,120310137211,4,True,False,-81.8569717,30.2795641,Health and Personal Care Stores
7,sg:ccf5fb40d14e492aa32cddddcdee975b,-81.578274,30.219807,120310137211,5,True,False,-81.8569717,30.2795641,Restaurants and Other Eating Places
8,sg:e68304e9394b4165880af09d5cca0bcb,-81.583345,30.256163,120310137211,6,True,False,-81.8569717,30.2795641,Restaurants and Other Eating Places
9,sg:23662e9617774012866ff46df1d688de,-81.777592,30.293805,120310137211,34,True,True,-81.8569717,30.2795641,Gasoline Stations
10,sg:c98de4b95c3846a8a4d7827463ca0081,-81.772583,30.249598,120310137211,4,True,False,-81.8569717,30.2795641,Offices of Other Health Practitioners
11,sg:2d10764ac4ee4d5886fe554c2d436a47,-81.542746,30.258533,120310137211,7,True,False,-81.8569717,30.2795641,Offices of Physicians
12,sg:4e257d551d8348f5a205c1ea439278d8,-81.84473100000001,30.304021000000002,120310137211,12,True,False,-81.8569717,30.2795641,"General Merchandise Stores, including Warehouse Clubs and Supercenters"
13,sg:574536512e434ac8be6f806f547c2460,-81.75125799999999,30.301116999999998,120310137211,4,True,False,-81.8569717,30.2795641,Other Miscellaneous Store Retailers
14,sg:1bc4d97210c548988687aa5cafc77cce,-81.558262,30.262526,120310137211,4,True,False,-81.8569717,30.2795641,Offices of Dentists
15,sg:1cd1e610533343a8b04f972585debef1,-81.720035,30.313551,120310137211,4,True,False,-81.8569717,30.2795641,Wired and Wireless Telecommunications Carriers
16,sg:2165c37a41be4b32897fcaa2c777b583,-81.739892,30.311852000000002,120310137211,8,True,False,-81.8569717,30.2795641,Gasoline Stations
17,sg:555f24e7d4e34be3a081f71d168e887f,-81.555676,30.220138000000002,120310137211,4,True,False,-81.8569717,30.2795641,Electronics and Appliance Stores
18,sg:a43ed2d4e6e8410bbe6b0a3b52b36dda,-81.75717,30.426207,120310137211,5,True,False,-81.8569717,30.2795641,Home Furnishings Stores
19,sg:14543a54fad54a4d9c494089469059e7,-81.65954,30.334665,120310137211,6,True,False,-81.8569717,30.2795641,"Colleges, Universities, and Professional Schools"
20,sg:c74a2739d1684e46b9c2e440b1003015,-81.74382299999999,30.325788,120310137211,4,True,False,-81.8569717,30.2795641,Grocery Stores
21,sg:ed6266fb39dd4771ab68cbeac1235e60,-81.734261,30.315986,120310137211,11,True,False,-81.8569717,30.2795641,Building Material and Supplies Dealers
22,sg:b188b9e21d584855952d7ffc5d26841b,-81.749649,30.305490999999996,120310137211,4,True,False,-81.8569717,30.2795641,Drycleaning and Laundry Services
23,sg:e3bda87d8f264f5f91ec7445c74f0d70,-81.755571,30.336163,120310137211,4,True,False,-81.8569717,30.2795641,Wired and Wireless Telecommunications Carriers
24,sg:0c11d5ac67e242c094295caac5a125a9,-81.751355,30.301502000000003,120310137211,7,True,False,-81.8569717,30.2795641,"Sporting Goods, Hobby, and Musical Instrument Stores"
25,sg:e574773ecc164e26b2b30c5d7f26d88b,-81.765323,30.300036,120310137211,11,True,False,-81.8569717,30.2795641,Restaurants and Other Eating Places
26,sg:4953d3ca8647470abe99f1883026f5b5,-81.673755,30.392073999999997,120310137211,4,True,False,-81.8569717,30.2795641,Offices of Physicians
27,sg:df3041a3a9dd446db5d357f56bb0b9fe,-81.586088,30.223222999999997,120310137211,4,True,False,-81.8569717,30.2795641,Shoe Stores
28,sg:f03a4fc552da44b385737fb92a288806,-81.695451,30.305751,120310137211,4,True,False,-81.8569717,30.2795641,Religious Organizations
29,sg:ab5fe22dfbbe4598bfdab41820bfae75,-81.574179,30.287491999999997,120310137211,6,True,False,-81.8569717,30.2795641,Gasoline Stations
30,sg:63fa04afacca4bd48bdffdcc2cf1e25e,-81.844794,30.315088,120310137211,7,True,False,-81.8569717,30.2795641,"Other Professional, Scientific, and Technical Services"
31,sg:0c130cef9e1a4bcbac9faa751e3c7e2e,-81.75231,30.322212,120310137211,4,True,False,-81.8569717,30.2795641,Child Day Care Services
32,sg:755274c15a2f479ab73cc765525d043b,-81.749804,30.313403000000005,120310137211,12,True,False,-81.8569717,30.2795641,Lessors of Real Estate
33,sg:a4ca3a9893354c058e85a4b241d4b56b,-81.792648,30.290803999999998,120310137211,10,True,False,-81.8569717,30.2795641,Religious Organizations
34,sg:fa1305a0a98d4772b4767489c2df120b,-81.84900400000001,30.306377,120310137211,56,True,True,-81.8569717,30.2795641,Gasoline Stations
35,sg:d43569ddf6ac4baf9b23295ee5318b73,-81.858074,30.264526,120310137211,7,True,False,-81.8569717,30.2795641,Elementary and Secondary Schools
36,sg:d48dc794704d4c69808ccad855d45b56,-81.780563,30.29245,120310137211,5,True,False,-81.8569717,30.2795641,Automotive Repair and Maintenance
37,sg:12221f9e3c51401798bd214cfa285d4e,-81.844755,30.315982,120310137211,4,True,False,-81.8569717,30.2795641,Religious Organizations
38,sg:573cdd2f4c264eae8843060bf4acd6c9,-81.844751,30.308598999999997,120310137211,30,True,True,-81.8569717,30.2795641,Restaurants and Other Eating Places
39,sg:ddda39b59d794e88986a69934db0bbb8,-81.775599,30.2947,120310137211,9,True,False,-81.8569717,30.2795641,Gasoline Stations
40,sg:49aa27878517422999285864bf9431c2,-81.785924,30.248355,120310137211,4,True,False,-81.8569717,30.2795641,"Executive, Legislative, and Other General Government Support"
41,sg:0aca2303fd384615a8547442ca0863bc,-81.74663000000001,30.314663,120310137211,10,True,False,-81.8569717,30.2795641,Religious Organizations
42,sg:40313f2fd2c34c36b00967bccdd00117,-81.754694,30.304308000000002,120310137211,10,True,False,-81.8569717,30.2795641,Restaurants and Other Eating Places
43,sg:72085108087743d694b055463cd94f07,-81.845528,30.29353,120310137211,9,True,False,-81.8569717,30.2795641,Building Material and Supplies Dealers
44,sg:c7384df5a54c410782dc737e4f99850c,-81.619063,30.289185999999997,120310137211,4,True,False,-81.8569717,30.2795641,"Museums, Historical Sites, and Similar Institutions"
45,sg:40e65e9c2231422d8211fe40363a0a82,-81.852518,30.278684000000002,120310137211,9,True,False,-81.8569717,30.2795641,Elementary and Secondary Schools
46,sg:9f56436810f7413d8bfba843d24a0695,-81.533829,30.244647999999998,120310137211,6,True,False,-81.8569717,30.2795641,Offices of Dentists
47,sg:d85811a9b7ae4d3488386935facb36a7,-81.77559699999999,30.296941999999998,120310137211,24,True,True,-81.8569717,30.2795641,Grocery Stores
48,sg:3bd3160c86c84c08a9ed72a323801b5a,-81.857109,30.269394000000002,120310137211,5,True,False,-81.8569717,30.2795641,Services to Buildings and Dwellings
49,sg:115ac9dc2a994db69d61dfd51a184509,-81.846601,30.306728000000003,120310137211,73,True,True,-81.8569717,30.2795641,Grocery Stores
50,sg:571811514d794dd68d679c978f0544c1,-81.726828,30.320059000000004,120310137211,6,True,False,-81.8569717,30.2795641,Other Amusement and Recreation Industries
51,sg:33f33b2b813049f69ee0019b5eabd21c,-81.68098,30.311739000000003,120310137211,8,True,False,-81.8569717,30.2795641,Restaurants and Other Eating Places
52,sg:86bb4ce20ef345c5a5655bf70fb3a353,-81.602351,30.292163000000002,120310137211,7,True,False,-81.8569717,30.2795641,Used Merchandise Stores
53,sg:2062d925e6b54b7899014b80beb3197a,-81.84622,30.305090999999997,120310137211,18,True,True,-81.8569717,30.2795641,Restaurants and Other Eating Places
54,sg:45d3249755af4e4b947bcfd0c2590568,-81.751535,30.305231,120310137211,7,True,False,-81.8569717,30.2795641,Restaurants and Other Eating Places
55,sg:ea52c5172a1b4c7d82a34e5e4052bfe5,-81.616671,30.200049,120310137211,4,True,False,-81.8569717,30.2795641,Wired and Wireless Telecommunications Carriers
56,sg:5aa8688a9c584b82845a0812ea679e11,-81.736413,30.312986,120310137211,6,True,False,-81.8569717,30.2795641,Building Material and Supplies Dealers
57,sg:326b49a2fae94cd68b69d8d82a215756,-81.847887,30.295033,120310137211,4,True,False,-81.8569717,30.2795641,Offices of Real Estate Agents and Brokers
58,sg:ae0b298f49904f8cac8a48d72c4fbae0,-81.775707,30.296865999999998,120310137211,24,True,True,-81.8569717,30.2795641,Electronics and Appliance Stores
59,sg:c47c5793a4874546a5e12369297d22cd,-81.846216,30.305989,120310137211,6,True,False,-81.8569717,30.2795641,Restaurants and Other Eating Places
60,sg:5a5721cb40f7401ba1277594290f856b,-81.6018,30.171263,120310137211,4,True,False,-81.8569717,30.2795641,Other Motor Vehicle Dealers
61,sg:c1eeb6bc1edb499c94df6b3c931299b8,-81.848177,30.305512,120310137211,17,True,True,-81.8569717,30.2795641,Gasoline Stations
62,sg:aa0cba8eebca44f9b35878feb653f8ac,-81.845618,30.304989000000003,120310137211,4,True,False,-81.8569717,30.2795641,Depository Credit Intermediation
63,sg:8eca27a4e5c240d8ae16d03858b96441,-81.846228,30.305911,120310137211,5,True,False,-81.8569717,30.2795641,"Beer, Wine, and Liquor Stores"
64,sg:fafb77cddc5743a99154d7b84e4958dd,-81.651903,30.370784000000004,120310137211,4,True,False,-81.8569717,30.2795641,"Automotive Parts, Accessories, and Tire Stores"
65,sg:5084aed14b304965b17c05ceac60864f,-81.847424,30.305956,120310137211,30,True,True,-81.8569717,30.2795641,Restaurants and Other Eating Places
66,sg:3aa714fd8b0340e3a1308a51bf9499af,-81.601518,30.305614000000002,120310137211,4,True,False,-81.8569717,30.2795641,Support Activities for Road Transportation
67,sg:2c9d9c18dfd540c681c638078ac695c8,-81.655534,30.329212,120310137211,4,True,False,-81.8569717,30.2795641,Religious Organizations
68,sg:4c989a24ab864202a4592f58784c8a65,-81.681549,30.315396000000003,120310137211,7,True,False,-81.8569717,30.2795641,Gasoline Stations
69,sg:f0e860dc883b46b0a3638fb5a4c9d257,-81.73701899999999,30.310498,120310137211,4,True,False,-81.8569717,30.2795641,"General Merchandise Stores, including Warehouse Clubs and Supercenters"
70,sg:69674f48f81243a39ec4f48827097ea4,-81.84792,30.306390999999998,120310137211,43,True,True,-81.8569717,30.2795641,Restaurants and Other Eating Places
71,sg:e2c39cdd192346d38e020511019e5290,-81.563225,30.221474,120310137211,4,True,False,-81.8569717,30.2795641,Depository Credit Intermediation
72,sg:8eb2465f9e5c4e0ea7642162eb2568df,-81.847898,30.305381,120310137211,7,True,False,-81.8569717,30.2795641,Grocery Stores
73,sg:ab56696495f5497b90bdfd8cd4a0ea63,-81.796442,30.310471000000003,120310137211,26,True,True,-81.8569717,30.2795641,Elementary and Secondary Schools
74,sg:3970a386435e4a1fa78cb1268bd56cde,-81.849076,30.306434999999997,120310137211,13,True,True,-81.8569717,30.2795641,Grocery Stores
75,sg:da0f850333604fbf827a4703cc0492b9,-81.74387,30.250359000000003,120310137211,4,True,False,-81.8569717,30.2795641,Personal Care Services
76,sg:ea1fdaee1d4a4cc49009f02180ca2e0c,-81.53558199999999,30.252971000000002,120310137211,4,True,False,-81.8569717,30.2795641,Gasoline Stations
77,sg:202a6fcbbd22466ba6df993c1af3795c,-81.780147,30.292751000000003,120310137211,4,True,False,-81.8569717,30.2795641,Wired and Wireless Telecommunications Carriers
78,sg:b4327fc6ae454677b55187ca60fecbf5,-81.751853,30.359305,120310137211,4,True,False,-81.8569717,30.2795641,Religious Organizations
79,sg:00d6920f04724f2cb55b958dd8a92647,-81.738074,30.269405,120310137211,4,True,False,-81.8569717,30.2795641,Offices of Dentists
80,sg:8eb6ebfb7c59499c9374f9c295ba0e92,-81.534275,30.243298,120310137211,4,True,False,-81.8569717,30.2795641,Depository Credit Intermediation
81,sg:9350bd663ed24edba2e35bee1cf643a5,-81.7652,30.299661999999998,120310137211,8,True,False,-81.8569717,30.2795641,Restaurants and Other Eating Places
82,sg:9f98fcbe4c0f408983058133227f1cac,-81.733221,30.339089,120310137211,5,True,False,-81.8569717,30.2795641,Restaurants and Other Eating Places
83,sg:1026eb952c2a4fc9b922e42258253967,-81.781835,30.291745000000002,120310137211,21,True,True,-81.8569717,30.2795641,Gasoline Stations
84,sg:85552882883f484ca2b3c343bed80651,-81.77631600000001,30.296465,120310137211,4,True,False,-81.8569717,30.2795641,Restaurants and Other Eating Places
85,sg:363cf13367874c5c908df77031339400,-81.542335,30.130453000000003,120310137211,5,True,False,-81.8569717,30.2795641,Offices of Physicians
86,sg:13eb4996bb2f470a8e620fa85cd852f0,-81.748915,30.305438,120310137211,15,True,True,-81.8569717,30.2795641,Other Amusement and Recreation Industries
87,sg:ce0ba1477f2e46c2921e11de0dfb7a19,-81.77529200000001,30.297146,120310137211,13,True,True,-81.8569717,30.2795641,Building Material and Supplies Dealers
88,sg:9b6c3ac43a1c4240bd54e4f684a7441d,-81.847753,30.292687,120310137211,10,True,False,-81.8569717,30.2795641,Other Miscellaneous Store Retailers
89,sg:9081dc8b51184d71bd4dfe779934400d,-81.771502,30.248890000000003,120310137211,4,True,False,-81.8569717,30.2795641,"Beer, Wine, and Liquor Stores"
90,sg:87b906b1fc7d4c97a5eeef2659ab2f2c,-81.519184,30.241716999999998,120310137211,4,True,False,-81.8569717,30.2795641,Religious Organizations
91,sg:53dbcb42c7e44a9cbacea20d6be425ff,-81.780116,30.293588,120310137211,10,True,False,-81.8569717,30.2795641,Restaurants and Other Eating Places
92,sg:71cb7dc9ca7046318e054fe367881308,-81.672289,30.33482,120310137211,5,True,False,-81.8569717,30.2795641,Book Stores and News Dealers
93,sg:141b0933190b4a69b1dd1c667ae8fd30,-81.670948,30.323778000000004,120310137211,6,True,False,-81.8569717,30.2795641,Restaurants and Other Eating Places
94,sg:45ae21491a9c48ab9dc268b8712612b4,-81.84758000000001,30.292686,120310137211,8,True,False,-81.8569717,30.2795641,Other Amusement and Recreation Industries
95,sg:096ba4a4f8d64a038b4b1b1dc1e66513,-81.493016,30.321214,121090212031,4,False,False,-81.31094190000002,29.7816462,Electronics and Appliance Stores
96,sg:b5020f70486a4cef937c40daf3bc2980,-81.41879300000001,30.363815999999996,121090212031,4,False,False,-81.31094190000002,29.7816462,"Justice, Public Order, and Safety Activities"
97,sg:5a466003cb8d49c79637c722f9a4c395,-81.43781899999999,30.395205999999998,121090212031,4,False,False,-81.31094190000002,29.7816462,Grocery Stores
98,sg:dfa15f46836e4c0ca9f518b6cd445c6f,-81.56323499999999,30.188934000000003,121090212031,4,False,False,-81.31094190000002,29.7816462,Personal Care Services
99,sg:3acf011cadb049f483455bd99dba3b51,-81.696404,30.314069,121090212031,6,False,False,-81.31094190000002,29.7816462,"Sporting Goods, Hobby, and Musical Instrument Stores"
100,sg:761e0e3047e54d4881add6b62108d311,-81.604618,30.184757,121090212031,4,False,False,-81.31094190000002,29.7816462,"Museums, Historical Sites, and Similar Institutions"
101,sg:1da06c78288f42f9a0cc99e041e6c2a3,-81.54423,30.161127,120310144121,4,True,False,-81.474019,30.1745516,Building Material and Supplies Dealers
102,sg:dac194e201664a0abe47746c522cdffc,-81.593492,30.22152,120310144121,6,True,False,-81.474019,30.1745516,Grocery Stores
103,sg:eb63ec420f2e43569636b8063629859d,-81.55870999999999,30.264803000000004,120310144121,6,True,False,-81.474019,30.1745516,Restaurants and Other Eating Places
104,sg:9fe414635aa243a9aa459d2089f1e25e,-81.620698,30.197678999999997,120310144121,10,True,False,-81.474019,30.1745516,Restaurants and Other Eating Places
105,sg:fe3bf5c69fb34c2ea975f440374cc9cd,-81.528568,30.256338,120310144121,8,True,False,-81.474019,30.1745516,Restaurants and Other Eating Places
106,sg:f5b5f26a9d8c4ea0918bc25de1c8a107,-81.520759,30.112552,120310144121,5,True,False,-81.474019,30.1745516,Home Health Care Services
107,sg:3ff825e0351e42bb9fa022e64ff59100,-81.522223,30.140106,120310144121,84,True,True,-81.474019,30.1745516,Lessors of Real Estate
108,sg:5e8c138742d247f79078191236563868,-81.58431999999999,30.252858000000003,120310144121,6,True,False,-81.474019,30.1745516,Depository Credit Intermediation
109,sg:945d18cab8e84a478f4f679cd6b68664,-81.554107,30.184383,120310144121,112,True,True,-81.474019,30.1745516,Lessors of Real Estate
110,sg:c3c45c3ea56a49fc987400b68cc00d96,-81.507231,30.221322999999998,120310144121,10,True,False,-81.474019,30.1745516,Other Miscellaneous Store Retailers
111,sg:1cc16ae4a4164c2497058deea1b3159e,-81.55404300000001,30.217853,120310144121,5,True,False,-81.474019,30.1745516,Other Amusement and Recreation Industries
112,sg:3265fd6960984e328d0842ecb0fa89c4,-81.56918,30.220444,120310144121,7,True,False,-81.474019,30.1745516,Restaurants and Other Eating Places
113,sg:b5c15b6f074c4faeb668775bdedb4402,-81.51183499999999,30.231465999999998,120310144121,5,True,False,-81.474019,30.1745516,Furniture Stores
114,sg:4028bbae929746cb96250038cb553bd4,-81.547054,30.139319,120310144121,27,True,True,-81.474019,30.1745516,Restaurants and Other Eating Places
115,sg:7a082aac671f46718ced3fef67aad011,-81.5531,30.141245,120310144121,4,True,False,-81.474019,30.1745516,Child Day Care Services
116,sg:363c9729955b49f9bd7bb494ddd4931b,-81.624884,30.264451,120310144121,6,True,False,-81.474019,30.1745516,Restaurants and Other Eating Places
117,sg:728d47177010447787d6122f46c073d6,-81.532409,30.140372999999997,120310144121,13,True,True,-81.474019,30.1745516,Restaurants and Other Eating Places
118,sg:1069a547ae0944609d5320b36b7f0dc1,-81.57857800000001,30.221227000000003,120310144121,6,True,False,-81.474019,30.1745516,Restaurants and Other Eating Places
119,sg:1e49a45d979144b1b8a155dfe50e5ef2,-81.529977,30.253401,120310144121,13,True,True,-81.474019,30.1745516,"Sporting Goods, Hobby, and Musical Instrument Stores"
120,sg:d9311c5e222a42e38a1e0e2ff85c9457,-81.67758,30.313567,120310144121,6,True,False,-81.474019,30.1745516,Other Amusement and Recreation Industries
121,sg:cfdf279317c349b5a5718b16b172a135,-81.60736999999999,30.188388,120310144121,8,True,False,-81.474019,30.1745516,Religious Organizations
122,sg:0abd5a1b79634beda86ded7fdc741cae,-81.606341,30.177908000000002,120310144121,14,True,True,-81.474019,30.1745516,Elementary and Secondary Schools
123,sg:c2ee503b9a7647b481ce06abe39a0c61,-81.51090500000001,30.215736,120310144121,14,True,True,-81.474019,30.1745516,Restaurants and Other Eating Places
124,sg:d1e50f24a2f44cb2b2bda702b733f316,-81.55565899999999,30.218404999999997,120310144121,11,True,False,-81.474019,30.1745516,Religious Organizations
125,sg:9449bb405bb34167b98c5d35b6b14ff8,-81.518272,30.217114000000002,120310144121,65,True,True,-81.474019,30.1745516,Lessors of Real Estate
126,sg:fa567ca74bb345a1bc99eb3bae5909f9,-81.505572,30.126852000000003,120310144121,4,True,False,-81.474019,30.1745516,Services to Buildings and Dwellings
127,sg:0f19a94a3f9246f7b2c1cc5b16b831e1,-81.554826,30.327005,120310144121,11,True,False,-81.474019,30.1745516,Motion Picture and Video Industries
128,sg:12871285386241638bd19f2a40a433a3,-81.526837,30.258785999999997,120310144121,9,True,False,-81.474019,30.1745516,Restaurants and Other Eating Places
129,sg:31e59ceedc844a06b48fe4587aaec91f,-81.554215,30.190198,120310144121,12,True,False,-81.474019,30.1745516,Electronics and Appliance Stores
130,sg:81edaa62b3e34b049c840218408b577e,-81.539587,30.249122999999997,120310144121,14,True,True,-81.474019,30.1745516,Other Information Services
131,sg:70fce9105068489883ca5104ee78787c,-81.652579,30.306775,120310144121,8,True,False,-81.474019,30.1745516,Religious Organizations
132,sg:b78c4370cfae4f128c88b0dd05d04048,-81.510323,30.219456,120310144121,10,True,False,-81.474019,30.1745516,Other Financial Investment Activities
133,sg:38aa8b5e68bf4cbf8b47f68618773565,-81.511443,30.219098,120310144121,23,True,True,-81.474019,30.1745516,Health and Personal Care Stores
134,sg:be400a6a8a3947b6b52dcda5428e4b97,-81.557047,30.176628000000004,120310144121,15,True,True,-81.474019,30.1745516,"General Merchandise Stores, including Warehouse Clubs and Supercenters"
135,sg:183f15a761aa4ae7aa6858b61535f8a3,-81.529354,30.156707,120310144121,5,True,False,-81.474019,30.1745516,"Office Supplies, Stationery, and Gift Stores"
136,sg:f3b77ccfe7984d0993102d681e249884,-81.566487,30.219069,120310144121,4,True,False,-81.474019,30.1745516,"Justice, Public Order, and Safety Activities"
137,sg:67801cc80dab4e25bc4ad2e23ad233ac,-81.548638,30.194057,120310144121,55,True,True,-81.474019,30.1745516,Department Stores
138,sg:8b698c1671f24f4fac5c5e70b021eb7e,-81.608326,30.183023,120310144121,7,True,False,-81.474019,30.1745516,Restaurants and Other Eating Places
139,sg:d2b1f41ced80430d91255047b4920198,-81.548572,30.14033,120310144121,7,True,False,-81.474019,30.1745516,Restaurants and Other Eating Places
140,sg:0d01b755cdc34c859c5a5eefae24dcdb,-81.541348,30.153862,120310144121,5,True,False,-81.474019,30.1745516,Elementary and Secondary Schools
141,sg:04d63ba6c8b54d31b4c1bd0dc42c7657,-81.549684,30.192325,120310144121,8,True,False,-81.474019,30.1745516,Health and Personal Care Stores
142,sg:06f6c560cc774564b9702cb39b24ca30,-81.559586,30.269073,120310144121,7,True,False,-81.474019,30.1745516,Restaurants and Other Eating Places
143,sg:79dea506c5f74b6fb206b2024d7abd8c,-81.55597399999999,30.179039000000003,120310144121,112,True,True,-81.474019,30.1745516,"General Merchandise Stores, including Warehouse Clubs and Supercenters"
144,sg:60fd5df574b34bce81bf8f7890d76cb0,-81.63335,30.147328,120310144121,4,True,False,-81.474019,30.1745516,Child Day Care Services
145,sg:86e159e6b10b47c0b8ec42547f4464ef,-81.55077,30.140832,120310144121,5,True,False,-81.474019,30.1745516,Restaurants and Other Eating Places
146,sg:8ff3df5c17d64fbd87114877f62a3b86,-81.633348,30.157559000000003,120310144121,4,True,False,-81.474019,30.1745516,Other Miscellaneous Store Retailers
147,sg:bbecf0e12ffc4d019e76cde8d29e36c6,-81.494805,30.109249,120310144121,38,True,True,-81.474019,30.1745516,Elementary and Secondary Schools
148,sg:2e23ba3412294b8785d1f38c9d20da3e,-81.501042,30.228440000000003,120310144121,5,True,False,-81.474019,30.1745516,Building Material and Supplies Dealers
149,sg:f22df33ea3bf4d749d152a2568298b14,-81.567207,30.221432,120310144121,4,True,False,-81.474019,30.1745516,Depository Credit Intermediation
150,sg:4d15820477ae4e9bbb5191fb322707e9,-81.53009399999999,30.25202,120310144121,12,True,False,-81.474019,30.1745516,Clothing Stores
151,sg:a74e68403e28446cbd3a1dae51c0101f,-81.663049,30.315942,120310144121,5,True,False,-81.474019,30.1745516,Offices of Physicians
152,sg:62a2b68482a84e349490c6b194ef93c2,-81.672478,30.35228,120310144121,26,True,True,-81.474019,30.1745516,Elementary and Secondary Schools
153,sg:80d71a5697fd4d38b5bc7f0e471531b1,-81.51546,30.141274,120310144121,5,True,False,-81.474019,30.1745516,Other Amusement and Recreation Industries
154,sg:9c1520d8f87f442d80fc582accaafbc5,-81.66027700000001,30.312601,120310144121,9,True,False,-81.474019,30.1745516,Restaurants and Other Eating Places
155,sg:bed88950b86d4d9582d8edcc89592d6c,-81.526558,30.256172999999997,120310144121,11,True,False,-81.474019,30.1745516,"Sporting Goods, Hobby, and Musical Instrument Stores"
156,sg:bc6285ab35454c24ae026a1c1d953269,-81.441022,30.26343,120310144121,46,True,True,-81.474019,30.1745516,Restaurants and Other Eating Places
157,sg:f2f5c5f5d042480c85eea45eb0ffe577,-81.510058,30.217919000000002,120310144121,6,True,False,-81.474019,30.1745516,Restaurants and Other Eating Places
158,sg:4eac40897da5428db4d79ca89d481f25,-81.629684,30.185955,120310144121,5,True,False,-81.474019,30.1745516,Health and Personal Care Stores
159,sg:b3db00ef6e9544bcacd9fe7affcafc48,-81.55030699999999,30.142131,120310144121,11,True,False,-81.474019,30.1745516,Restaurants and Other Eating Places
160,sg:f59a4c9659104e1c8c513054eba3d857,-81.63215699999999,30.146192,120310144121,4,True,False,-81.474019,30.1745516,Offices of Physicians
161,sg:9359ba957de54775aa425a33adb8b8f2,-81.546657,30.140459999999997,120310144121,7,True,False,-81.474019,30.1745516,Restaurants and Other Eating Places
162,sg:ab3870b49d824a5dbc45b458aa088626,-81.575103,30.286247999999997,120310144121,4,True,False,-81.474019,30.1745516,Motor Vehicle and Motor Vehicle Parts and Supplies Merchant Wholesalers
163,sg:a008ccd9fb6845b39b43e857ce3b3ac8,-81.555764,30.256929,120310144121,4,True,False,-81.474019,30.1745516,Personal Care Services
164,sg:1d0ab2b94dfa4bc5abce5cb3a2e14776,-81.522586,30.267226,120310144121,5,True,False,-81.474019,30.1745516,Home Health Care Services
165,sg:af61d78453a24a17bcd8b7bd8f7e75ea,-81.657097,30.316005,120310144121,4,True,False,-81.474019,30.1745516,Restaurants and Other Eating Places
166,sg:612ea0fdbada478d9f6dd4c42c64d3e6,-81.70979100000001,30.300793,120310144121,4,True,False,-81.474019,30.1745516,Gasoline Stations
167,sg:41c80e650aba4b61a8c4705bf66e8566,-81.482778,30.105137,120310144121,14,True,True,-81.474019,30.1745516,Child Day Care Services
168,sg:bc0427a3a90542d4a7acb5c71523ffd1,-81.518135,30.217235,120310144121,29,True,True,-81.474019,30.1745516,Grocery Stores
169,sg:8cc4d3810b0c445faad7e4cc6962f897,-81.55432900000001,30.252462,120310144121,7,True,False,-81.474019,30.1745516,Offices of Other Health Practitioners
170,sg:78c119a87d3040c6b75c473c67fb1dfc,-81.584347,30.22123,120310144121,6,True,False,-81.474019,30.1745516,Restaurants and Other Eating Places
171,sg:be10fba6248d40fa995d99b85fb612f2,-81.65594,30.325940000000003,120310144121,6,True,False,-81.474019,30.1745516,Book Stores and News Dealers
172,sg:c9e900ba0afe48fe89d5e2372662cc79,-81.706949,30.303548,120310144121,4,True,False,-81.474019,30.1745516,Personal Care Services
173,sg:e7b989480efd4557b5e5affd54fcab33,-81.576611,30.160756,120310144121,11,True,False,-81.474019,30.1745516,Specialty Food Stores
174,sg:837871585fb84f52bc45d51654a9d877,-81.577564,30.217427,120310144121,5,True,False,-81.474019,30.1745516,Offices of Physicians
175,sg:b1be28fe2e0a4c209e460be885f0347e,-81.510102,30.217897999999998,120310144121,11,True,False,-81.474019,30.1745516,Restaurants and Other Eating Places
176,sg:883dc49453514cf086689ae02803a50f,-81.532607,30.140404999999998,120310144121,10,True,False,-81.474019,30.1745516,Restaurants and Other Eating Places
177,sg:3046256702a446b7a5e7413cf90577aa,-81.550158,30.140739,120310144121,4,True,False,-81.474019,30.1745516,Health and Personal Care Stores
178,sg:699ab3f3449c465e944c1f4c76733aec,-81.51798199999999,30.213948,120310144121,8,True,False,-81.474019,30.1745516,Offices of Dentists
179,sg:696eb1cc75e54a6fb327ad2424bd54bf,-81.52350899999999,30.139871000000003,120310144121,21,True,True,-81.474019,30.1745516,Grocery Stores
180,sg:96d49039aeb444f5863ca21e0c90abd3,-81.58657600000001,30.219359000000004,120310144121,13,True,True,-81.474019,30.1745516,Lessors of Real Estate
181,sg:32a98c1a7b054f82b358a2d94984596f,-81.654397,30.307053999999997,120310144121,5,True,False,-81.474019,30.1745516,Restaurants and Other Eating Places
182,sg:39b12dfafa1f48908a7261d91fe0d665,-81.603882,30.171812,120310144121,9,True,False,-81.474019,30.1745516,Restaurants and Other Eating Places
183,sg:0146cd6427eb40569941d4acb6190123,-81.743398,30.253208,120310144121,4,True,False,-81.474019,30.1745516,Offices of Physicians
184,sg:4f548c28d726420c86a4033d229c2cb1,-81.51582900000001,30.215321000000003,120310144121,7,True,False,-81.474019,30.1745516,Other Miscellaneous Store Retailers
185,sg:12d5821801224510a88a19820400e41f,-81.553011,30.142625,120310144121,28,True,True,-81.474019,30.1745516,Restaurants and Other Eating Places
186,sg:8122164f885b43d7ad9c42d90cf574e8,-81.519035,30.216389000000003,120310144121,23,True,True,-81.474019,30.1745516,Restaurants and Other Eating Places
187,sg:efe1f6b98adb4d68ab4ca9520858d686,-81.543378,30.170915,120310144121,15,True,True,-81.474019,30.1745516,Gasoline Stations
188,sg:082e00c662c84530a33ee8feb5643214,-81.625631,30.190532,120310144121,6,True,False,-81.474019,30.1745516,Offices of Physicians
189,sg:95fbe41c86db42cbbca8206694b1195c,-81.550822,30.219648,120310144121,9,True,False,-81.474019,30.1745516,Restaurants and Other Eating Places
190,sg:3b6efc4113764301a7da45141dad202d,-81.517447,30.143009999999997,120310144121,4,True,False,-81.474019,30.1745516,Used Merchandise Stores
191,sg:034dccccf4f841f5b1786b8236937e9b,-81.680867,30.312988,120310144121,4,True,False,-81.474019,30.1745516,Restaurants and Other Eating Places
192,sg:364d8acef0124169848ffc7b3e515496,-81.545586,30.320159999999998,120310144121,5,True,False,-81.474019,30.1745516,Clothing Stores
193,sg:536d99e15d4f4960ae8dd825e434e726,-81.510489,30.20767,120310144121,14,True,True,-81.474019,30.1745516,Religious Organizations
194,sg:9136307e615349f58d0dddf437811c53,-81.520721,30.142796999999998,120310144121,10,True,False,-81.474019,30.1745516,Restaurants and Other Eating Places
195,sg:849726c848d74365aa3d327385814424,-81.59260400000001,30.220955,120310144121,4,True,False,-81.474019,30.1745516,Clothing Stores
196,sg:68614337e9014b56a574a579596e7395,-81.519185,30.2137,120310144121,4,True,False,-81.474019,30.1745516,Florists
197,sg:4db04d23cef5434cb52b417a4c1f7c31,-81.448091,30.288406,120310144121,4,True,False,-81.474019,30.1745516,Restaurants and Other Eating Places
198,sg:8798160250cc4fe5a16db49c346b364d,-81.518838,30.213813000000002,120310144121,6,True,False,-81.474019,30.1745516,Other Amusement and Recreation Industries
199,sg:cbad24b74ca54ad6ae6672d483b7e648,-81.517422,30.217505,120310144121,23,True,True,-81.474019,30.1745516,"General Merchandise Stores, including Warehouse Clubs and Supercenters"
200,sg:1a02c100773b467fa20902fa735dca7d,-81.613146,30.197623999999998,120310144121,4,True,False,-81.474019,30.1745516,Offices of Physicians
201,sg:d7af0f9d4ac64cc99fd69db04e476020,-81.509427,30.233671,120310144121,4,True,False,-81.474019,30.1745516,Offices of Physicians
202,sg:a6d31319ed9f4c7f98d2e047e5b19d52,-81.54825799999999,30.175821000000003,120310144121,12,True,False,-81.474019,30.1745516,Restaurants and Other Eating Places
203,sg:4ae7ee6c8641453bac532d0794fe485c,-81.506539,30.222205,120310144121,12,True,False,-81.474019,30.1745516,Florists
204,sg:7ee87d1a49ed44f2bbe8884a994f356c,-81.510707,30.228257,120310144121,10,True,False,-81.474019,30.1745516,Offices of Other Health Practitioners
205,sg:b09d52b94cd34cf5b2d40d59d885500b,-81.49698599999999,30.118677,120310144121,7,True,False,-81.474019,30.1745516,"Colleges, Universities, and Professional Schools"
206,sg:b0a38d0452054474a5303f474a6a6d3b,-81.599891,30.207353,120310144121,11,True,False,-81.474019,30.1745516,Other Amusement and Recreation Industries
207,sg:122e9d1cd7cd4c5e9b69fec4ce0968b7,-81.526987,30.256146,120310144121,47,True,True,-81.474019,30.1745516,Lessors of Real Estate
208,sg:2502b0d3a05e4826a7b20c165fac6735,-81.519279,30.235501,120310144121,4,True,False,-81.474019,30.1745516,Offices of Physicians
209,sg:90519cac3bba4b529bb4473ac4c0b6d1,-81.533165,30.322863,120310144121,4,True,False,-81.474019,30.1745516,Other Motor Vehicle Dealers
210,sg:896b0586d97241549b4a3e7e1f3ef6db,-81.528058,30.285190999999998,120310144121,4,True,False,-81.474019,30.1745516,Used Merchandise Stores
211,sg:45d742ecf1624102b20e7cd044c35cee,-81.55113100000001,30.142309,120310144121,4,True,False,-81.474019,30.1745516,Depository Credit Intermediation
212,sg:6944154992a7468f84cd40a2f1886658,-81.55255799999999,30.189597999999997,120310144121,4,True,False,-81.474019,30.1745516,Restaurants and Other Eating Places
213,sg:d0b1236c71114206af205ab4747e60fa,-81.54996,30.140703000000002,120310144121,13,True,True,-81.474019,30.1745516,Electronics and Appliance Stores
214,sg:4d688a55d88e4dafba52d6ec0622a704,-81.653912,30.325499,120310144121,12,True,False,-81.474019,30.1745516,Restaurants and Other Eating Places
215,sg:bc5eeb552c3e4735af2d071ff496eed2,-81.54848100000001,30.193309999999997,120310144121,14,True,True,-81.474019,30.1745516,Grocery Stores
216,sg:a91d378dba21426b9d18caa7b4a8973e,-81.550634,30.140801,120310144121,4,True,False,-81.474019,30.1745516,Restaurants and Other Eating Places
217,sg:71c90f8278e0445a880ecf5d4089de87,-81.52695200000001,30.130854,120310144121,31,True,True,-81.474019,30.1745516,Other Miscellaneous Store Retailers
218,sg:79674556dc534a318535496c51271c83,-81.614532,30.217603000000004,120310144121,6,True,False,-81.474019,30.1745516,Lessors of Real Estate
219,sg:102f51861b8d4a1cb2269bd0c6449f22,-81.550742,30.194027000000002,120310144121,21,True,True,-81.474019,30.1745516,Furniture Stores
220,sg:fd14270694354cad9e46e80c2b6cf3e8,-81.522725,30.139803999999998,120310144121,42,True,True,-81.474019,30.1745516,Other Amusement and Recreation Industries
221,sg:03ba0625bc3d4a08b21546acf7d5ef9f,-81.53099,30.260659000000004,120310144121,8,True,False,-81.474019,30.1745516,Restaurants and Other Eating Places
222,sg:386e0f78e4be478986f8675db27442f6,-81.621553,30.310933000000002,120310144121,25,True,True,-81.474019,30.1745516,Elementary and Secondary Schools
223,sg:f572786519e64c6cb04b56f9d2da6fb2,-81.519177,30.145313,120310144121,24,True,True,-81.474019,30.1745516,Grocery Stores
224,sg:096a4879339941a2936103fc0797d60f,-81.54971,30.242031,120310144121,7,True,False,-81.474019,30.1745516,Restaurants and Other Eating Places
225,sg:111a41a3c6484da3a54ebd9b5074326e,-81.51089300000001,30.21575,120310144121,18,True,True,-81.474019,30.1745516,Restaurants and Other Eating Places
226,sg:0903610500384ab18eb75006627ecbc7,-81.556072,30.181756,120310144121,25,True,True,-81.474019,30.1745516,Restaurants and Other Eating Places
227,sg:19ea61cf73f34dc58ca947cb8d14121a,-81.53603000000001,30.256085,120310144121,13,True,True,-81.474019,30.1745516,"Sporting Goods, Hobby, and Musical Instrument Stores"
228,sg:79763e0f97f04051a81f46418f6b5a07,-81.578439,30.230596999999996,120310144121,4,True,False,-81.474019,30.1745516,Restaurants and Other Eating Places
229,sg:008e2a8551864d5084f928ebfbeadeb9,-81.510121,30.218003000000003,120310144121,28,True,True,-81.474019,30.1745516,Other Amusement and Recreation Industries
230,sg:7a7ae2254e7e411b9ccf8744a55e0d54,-81.57273199999999,30.148671000000004,120310144121,4,True,False,-81.474019,30.1745516,Religious Organizations
231,sg:88dac43cc74c4bf881f603b2901f2112,-81.52653000000001,30.261816999999997,120310144121,5,True,False,-81.474019,30.1745516,Shoe Stores
232,sg:fc0f7a7a514541b3be26c01feb0a7a37,-81.675402,30.335637,120310144121,4,True,False,-81.474019,30.1745516,Specialty Food Stores
233,sg:b40dd5594e244df6a7740d7a616ba045,-81.55108100000001,30.216865999999996,120310144121,6,True,False,-81.474019,30.1745516,"Automotive Parts, Accessories, and Tire Stores"
234,sg:ce4a008a7ec74658b38acbbdbf507a07,-81.54635,30.139389,120310144121,23,True,True,-81.474019,30.1745516,Restaurants and Other Eating Places
235,sg:4625a147cd9742ed8e572e799d54dd79,-81.520361,30.217634999999998,120310144121,15,True,True,-81.474019,30.1745516,Other Amusement and Recreation Industries
236,sg:78ce3d95c6614b2c8a0d7d8ed85de2d9,-81.52113299999999,30.142843,120310144121,11,True,False,-81.474019,30.1745516,Other Amusement and Recreation Industries
237,sg:d6d80f7010a84b159055accd42fd619d,-81.51691600000001,30.138596000000003,120310144121,38,True,True,-81.474019,30.1745516,Religious Organizations
238,sg:e1ba927ce2d045dab4fc47ab370bfba0,-81.520579,30.263295,120310144121,18,True,True,-81.474019,30.1745516,Other Amusement and Recreation Industries
239,sg:3eb47288a5214327b1d756d084c2eeab,-81.55254599999999,30.189049,120310144121,39,True,True,-81.474019,30.1745516,Restaurants and Other Eating Places
240,sg:9cabf14579244647bd9d34ceb8ad127e,-81.55554000000001,30.217709000000003,120310144121,16,True,True,-81.474019,30.1745516,Elementary and Secondary Schools
241,sg:b832040f7ad74622bf011784d947bdff,-81.553618,30.218033000000002,120310144121,45,True,True,-81.474019,30.1745516,Lessors of Real Estate
242,sg:062e8416655843179151cb05ea0e9938,-81.550143,30.199917,120310144121,16,True,True,-81.474019,30.1745516,Other Miscellaneous Store Retailers
243,sg:82c6785a72e942daaee35a377f9fc3d3,-81.56106,30.221429999999998,120310144121,12,True,False,-81.474019,30.1745516,Restaurants and Other Eating Places
244,sg:0d6dc30cd79b42e4a8ad6c9f2139b8bf,-81.689287,30.312711,120310144121,5,True,False,-81.474019,30.1745516,"Museums, Historical Sites, and Similar Institutions"
245,sg:2319baa4134a464581dd8f5aaa2efe30,-81.67795500000001,30.314188,120310144121,8,True,False,-81.474019,30.1745516,Restaurants and Other Eating Places
246,sg:3bb8babdfa5943088b7e75c5b331f539,-81.46729599999999,30.259375,120310144121,5,True,False,-81.474019,30.1745516,Other Amusement and Recreation Industries
247,sg:5eb39f9664d448e6a16f964bba8d4146,-81.54424200000001,30.161556,120310144121,4,True,False,-81.474019,30.1745516,Automotive Repair and Maintenance
248,sg:93140009af2348b287c8252e20577a8f,-81.50636999999999,30.22713,120310144121,12,True,False,-81.474019,30.1745516,
249,sg:04b9900097a348989854a00c68408616,-81.53535500000001,30.252121999999996,120310144121,20,True,True,-81.474019,30.1745516,Restaurants and Other Eating Places
250,sg:2d37257a81864a2b943fd6fb81ef2017,-81.553876,30.189728000000002,120310144121,26,True,True,-81.474019,30.1745516,Lessors of Real Estate
251,sg:7d954650ed9244eabc39a96ced48bbe9,-81.51182800000001,30.265949,120310144121,5,True,False,-81.474019,30.1745516,"Museums, Historical Sites, and Similar Institutions"
252,sg:ce19bdcc572941f2afcb5f26b35c6431,-81.674199,30.319186,120310144121,13,True,True,-81.474019,30.1745516,Offices of Real Estate Agents and Brokers
253,sg:c282d735f5774b97aed4a49f357411af,-81.552806,30.217908,120310144121,13,True,True,-81.474019,30.1745516,Restaurants and Other Eating Places
254,sg:c7d38d152b8b41748c26fd47c2251a15,-81.588186,30.254109000000003,120310144121,4,True,False,-81.474019,30.1745516,Outpatient Care Centers
255,sg:dcbd7090850b491ea45e61f12c9bde45,-81.544074,30.150454999999997,120310144121,7,True,False,-81.474019,30.1745516,Miscellaneous Durable Goods Merchant Wholesalers
256,sg:7611308c01a443c68a57ec5fca9be779,-81.59899,30.31237,120310144121,4,True,False,-81.474019,30.1745516,Offices of Physicians
257,sg:c25ec11682ce4c81bed083278255bc51,-81.532574,30.140403999999997,120310144121,7,True,False,-81.474019,30.1745516,Restaurants and Other Eating Places
258,sg:6c0346fb141f41a4afbd94277f7f2906,-81.517555,30.214271000000004,120310144121,53,True,True,-81.474019,30.1745516,Restaurants and Other Eating Places
259,sg:21ca4a18e8ac433da1c59c9072cdd6df,-81.51280600000001,30.220334,120310144121,5,True,False,-81.474019,30.1745516,Traveler Accommodation
260,sg:5044c8753a9c42f7aca06f923f3b45d5,-81.658843,30.283161,120310144121,4,True,False,-81.474019,30.1745516,"Museums, Historical Sites, and Similar Institutions"
261,sg:6293bcb537234e5aa5b34479aca28d58,-81.59393,30.157501,120310144121,5,True,False,-81.474019,30.1745516,Religious Organizations
262,sg:ba602d6c254b4ff9b628d7f644ac8b69,-81.653697,30.361399,120310144121,6,True,False,-81.474019,30.1745516,Building Material and Supplies Dealers
263,sg:7485759a850f4cbca5ce2087bf3d45f6,-81.55119,30.1409,120310144121,4,True,False,-81.474019,30.1745516,Health and Personal Care Stores
264,sg:b4157c7000d64501a8dba70c8ce6d0a0,-81.55018000000001,30.199559000000004,120310144121,17,True,True,-81.474019,30.1745516,"General Merchandise Stores, including Warehouse Clubs and Supercenters"
265,sg:56f8803cba2649208046a6e3febca091,-81.54909599999999,30.195964,120310144121,39,True,True,-81.474019,30.1745516,Building Material and Supplies Dealers
266,sg:06e07058ca8a485b8a000a0cdd13389b,-81.528791,30.255925,120310144121,10,True,False,-81.474019,30.1745516,Restaurants and Other Eating Places
267,sg:0754961bc78149e19291cb7e68494b08,-81.672155,30.327827000000003,120310144121,8,True,False,-81.474019,30.1745516,"Museums, Historical Sites, and Similar Institutions"
268,sg:23c809adab8b4501999df9ca2b42b4b3,-81.545506,30.142379,120310144121,28,True,True,-81.474019,30.1745516,Restaurants and Other Eating Places
269,sg:92f5c1f736e64ee0ae00e439d5480305,-81.520561,30.216739,120310144121,23,True,True,-81.474019,30.1745516,Health and Personal Care Stores
270,sg:cd21622573a74bffbc5ee7a8db3449d7,-81.521565,30.140216,120310144121,20,True,True,-81.474019,30.1745516,Restaurants and Other Eating Places
271,sg:25e07dbd758546d8b414b6c243d7572a,-81.518417,30.14435,120310144121,21,True,True,-81.474019,30.1745516,Restaurants and Other Eating Places
272,sg:bb0f05c7518c49baa69bb7d0726f8328,-81.553691,30.183846000000003,120310144121,13,True,True,-81.474019,30.1745516,Restaurants and Other Eating Places
273,sg:121f8bef8e6e4a039756266284af7d36,-81.553651,30.182273,120310144121,10,True,False,-81.474019,30.1745516,"General Merchandise Stores, including Warehouse Clubs and Supercenters"
274,sg:72041bc5bd6b44ebbdee7303b572acfd,-81.550849,30.194231,120310144121,12,True,False,-81.474019,30.1745516,Restaurants and Other Eating Places
275,sg:4d1cfa12e52f47deb43f80a8ffa10c20,-81.625824,30.192541,120310144121,4,True,False,-81.474019,30.1745516,Other Amusement and Recreation Industries
276,sg:f9dbc7e20d7c4697922a528183e63762,-81.521351,30.1266,120310144121,31,True,True,-81.474019,30.1745516,"Sporting Goods, Hobby, and Musical Instrument Stores"
277,sg:2e262567019a4958b6ead849fa3d7b84,-81.581427,30.252572999999998,120310144121,6,True,False,-81.474019,30.1745516,Offices of Physicians
278,sg:a0ec688abc8344ccba3e69a0ef690b0b,-81.546605,30.140715000000004,120310144121,16,True,True,-81.474019,30.1745516,Drinking Places (Alcoholic Beverages)
279,sg:7df58d7d2d814880968fbf965c6d5e5d,-81.554046,30.179812,120310144121,13,True,True,-81.474019,30.1745516,Restaurants and Other Eating Places
280,sg:aff2a8994e624feb97bd23b227f1925e,-81.58098100000001,30.253020000000003,120310144121,4,True,False,-81.474019,30.1745516,Offices of Physicians
281,sg:93b410a852b241d38539bb7b6b70659e,-81.563397,30.221681,120310144121,5,True,False,-81.474019,30.1745516,Offices of Dentists
282,sg:72d8431d8a864f16b4347a834c0dc508,-81.528044,30.261846000000002,120310144121,4,True,False,-81.474019,30.1745516,Other Miscellaneous Store Retailers
283,sg:f8bd31906758483b9ca7073132b78669,-81.600938,30.162784000000002,120310144121,4,True,False,-81.474019,30.1745516,Offices of Dentists
284,sg:d238ef19189e43d896b4d0f170ab88d5,-81.59589799999999,30.241614000000002,120310144121,4,True,False,-81.474019,30.1745516,Offices of Other Health Practitioners
285,sg:fe4866325e6742c78cf21dcacdaaf9eb,-81.534642,30.138115999999997,120310144121,6,True,False,-81.474019,30.1745516,Offices of Physicians
286,sg:a125644a97f549b6b8f749d826434124,-81.53200799999999,30.255460999999997,120310144121,8,True,False,-81.474019,30.1745516,Restaurants and Other Eating Places
287,sg:d2ae31bd6459442fad5663f713d0c5f1,-81.630207,30.147140000000004,120310144121,4,True,False,-81.474019,30.1745516,Automobile Dealers
288,sg:a858d18e01634d5996b66b77ac33705f,-81.556393,30.182111,120310144121,6,True,False,-81.474019,30.1745516,Restaurants and Other Eating Places
289,sg:e30e48bd66ec436abac4602de8ff0aa1,-81.574203,30.160099,120310144121,18,True,True,-81.474019,30.1745516,Elementary and Secondary Schools
290,sg:759d500784464e3b8d6a5d248da66907,-81.56997199999999,30.198355,120310144121,6,True,False,-81.474019,30.1745516,"Museums, Historical Sites, and Similar Institutions"
291,sg:2389c941e8994525a424965daf34d885,-81.518354,30.13076,120310144121,10,True,False,-81.474019,30.1745516,Home Health Care Services
292,sg:7ef652a4a2c94b78b8d3a764aa5d1e6d,-81.532977,30.16142,120310144121,7,True,False,-81.474019,30.1745516,Automobile Dealers
293,sg:a8970b3ecf384b7ca24f681788bf6ebe,-81.623092,30.193875,120310144121,10,True,False,-81.474019,30.1745516,Restaurants and Other Eating Places
294,sg:de1f57ad4b904d0c8297120748918cf6,-81.596468,30.244241,120310144121,4,True,False,-81.474019,30.1745516,Restaurants and Other Eating Places
295,sg:e91aa89bb08e4608bdced92e2d18c162,-81.664642,30.316565999999998,120310144121,11,True,False,-81.474019,30.1745516,Restaurants and Other Eating Places
296,sg:5e5f838d7d27484a974cf6037dcc171b,-81.51673100000001,30.142654999999998,120310144121,14,True,True,-81.474019,30.1745516,Gasoline Stations
297,sg:8477265f7cb74489b4aa1e66fb9e8d66,-81.527186,30.161765000000003,120310144121,4,True,False,-81.474019,30.1745516,Drycleaning and Laundry Services
298,sg:f76e2a103657487aad64875448e8e0ca,-81.511445,30.219065000000004,120310144121,12,True,False,-81.474019,30.1745516,Restaurants and Other Eating Places
299,sg:271ad11d63474e26820a7e6b0c7a1a56,-81.51838199999999,30.214468,120310144121,108,True,True,-81.474019,30.1745516,Lessors of Real Estate
300,sg:23005f7bc0d84ebca2575c611feed145,-81.555543,30.181433000000002,120310144121,9,True,False,-81.474019,30.1745516,Restaurants and Other Eating Places
301,sg:5a65537c3b9f4cdd83e6f40acf71e276,-81.515794,30.222151,120310144121,31,True,True,-81.474019,30.1745516,Elementary and Secondary Schools
302,sg:6675454ac381467aae5d3c6d173c0854,-81.512796,30.220222999999997,120310144121,5,True,False,-81.474019,30.1745516,Traveler Accommodation
303,sg:a380c8736f494c118aae73c7fa867f11,-81.550967,30.19571,120310144121,17,True,True,-81.474019,30.1745516,Grocery Stores
304,sg:cdc1d1494fcd40c891304063e855cae6,-81.510855,30.230413000000002,120310144121,9,True,False,-81.474019,30.1745516,Depository Credit Intermediation
305,sg:9f0979c5424e476aadb2ca5657cd7c0c,-81.53078199999999,30.156144,120310144121,15,True,True,-81.474019,30.1745516,Gasoline Stations
306,sg:5e3f2fc4d7334e40a83bf769a1bc5845,-81.66496,30.326779,120310144121,7,True,False,-81.474019,30.1745516,Other Personal Services
307,sg:e62c6f2827514848bb19e23162b42e68,-81.531337,30.134120000000003,120310144121,4,True,False,-81.474019,30.1745516,"Agencies, Brokerages, and Other Insurance Related Activities"
308,sg:8c1db6ef2a1d417c9cdb68840ce80806,-81.539948,30.284278000000004,120310144121,29,True,True,-81.474019,30.1745516,"General Merchandise Stores, including Warehouse Clubs and Supercenters"
309,sg:aadcae5499b047aeac0ad51fbe6f5ba4,-81.669569,30.339392999999998,120310144121,5,True,False,-81.474019,30.1745516,Elementary and Secondary Schools
310,sg:54840cca35964f679561b2573d2cdfa2,-81.517577,30.144319,120310144121,5,True,False,-81.474019,30.1745516,Other Amusement and Recreation Industries
311,sg:94d45124741c4897aced2bbc81332e87,-81.530524,30.261326,120310144121,9,True,False,-81.474019,30.1745516,Restaurants and Other Eating Places
312,sg:2b05541a6a3a4e34961d64039b155aeb,-81.61718,30.202299,120310144121,14,True,True,-81.474019,30.1745516,Restaurants and Other Eating Places
313,sg:1f716cf34cad413694779dbd150e46a0,-81.531095,30.253373999999997,120310144121,11,True,False,-81.474019,30.1745516,Restaurants and Other Eating Places
314,sg:e4be0986992041a98a29fc361255095d,-81.52071,30.142816999999997,120310144121,12,True,False,-81.474019,30.1745516,Restaurants and Other Eating Places
315,sg:879afad1acac423786c0e0de9f814912,-81.630706,30.143014,120310144121,4,True,False,-81.474019,30.1745516,Offices of Dentists
316,sg:4d6e638da2574ed092bce23b381dd9ca,-81.515681,30.218255,120310144121,14,True,True,-81.474019,30.1745516,Restaurants and Other Eating Places
317,sg:357f37f66a1440659aafc3813ff5e5eb,-81.526912,30.261909000000003,120310144121,13,True,True,-81.474019,30.1745516,Department Stores
318,sg:66de847d6d164b50885cad8539332f7f,-81.732343,30.304436,120310144121,4,True,False,-81.474019,30.1745516,Child Day Care Services
319,sg:dff7866e885d4c338a1685b53fffd394,-81.550983,30.21988,120310144121,8,True,False,-81.474019,30.1745516,Restaurants and Other Eating Places
320,sg:d456e0f77ddc460eb0ff7b455dc3e2eb,-81.51907299999999,30.217338,120310144121,12,True,False,-81.474019,30.1745516,Restaurants and Other Eating Places
321,sg:cb2fa0a499c7490093c23da3194d1291,-81.567832,30.221359000000003,120310144121,5,True,False,-81.474019,30.1745516,Restaurants and Other Eating Places
322,sg:17db56e4d8d74c539bcb5b26cfb7804c,-81.51539100000001,30.218763,120310144121,4,True,False,-81.474019,30.1745516,Religious Organizations
323,sg:58d539a66dc0486b81081d9595ea3676,-81.540817,30.131660999999998,120310144121,9,True,False,-81.474019,30.1745516,Other Amusement and Recreation Industries
324,sg:ab0e6d3e4e724edd8a31e5834ba91b6b,-81.526771,30.263047999999998,120310144121,8,True,False,-81.474019,30.1745516,Restaurants and Other Eating Places
325,sg:72099cef59ee458593102a15503dadce,-81.540582,30.131113,120310144121,5,True,False,-81.474019,30.1745516,Other Amusement and Recreation Industries
326,sg:8a471bb56bb049e2b350dd4ca3237f0d,-81.518598,30.213883000000003,120310144121,20,True,True,-81.474019,30.1745516,Restaurants and Other Eating Places
327,sg:4e9d4cb4681c41ab958fbfa10e8218bb,-81.723955,30.365501000000002,120310144121,7,True,False,-81.474019,30.1745516,Automotive Equipment Rental and Leasing
328,sg:7859a20c7ac74bd4acfb475a25ae333c,-81.550602,30.200041,120310144121,37,True,True,-81.474019,30.1745516,Lessors of Real Estate
329,sg:982024d2e3f14cd8b173cdc4a34fcb3e,-81.508116,30.124416999999998,120310144121,4,True,False,-81.474019,30.1745516,"Agencies, Brokerages, and Other Insurance Related Activities"
330,sg:8c5e0c6d7a89494391cd699617183334,-81.50924300000001,30.228881,120310144121,7,True,False,-81.474019,30.1745516,"Museums, Historical Sites, and Similar Institutions"
331,sg:15717ecd7ea9456687f4f32278b27410,-81.517516,30.144237,120310144121,7,True,False,-81.474019,30.1745516,Restaurants and Other Eating Places
332,sg:478b4002044a440da1b87becd92c4d15,-81.535071,30.138287,120310144121,36,True,True,-81.474019,30.1745516,Restaurants and Other Eating Places
333,sg:e85ec3df28684f98b5c4786487f64acb,-81.585719,30.250719,120310144121,6,True,False,-81.474019,30.1745516,Offices of Physicians
334,sg:fab7e3f544484337b3b5be37ad7d4854,-81.541147,30.258972999999997,120310144121,8,True,False,-81.474019,30.1745516,Child Day Care Services
335,sg:890c51f6574345bba6bea3332fb424ca,-81.55111600000001,30.140906,120310144121,9,True,False,-81.474019,30.1745516,Restaurants and Other Eating Places
336,sg:4a6d9b95c21b4d95b6218648b0487cbf,-81.506548,30.218279,120310144121,11,True,False,-81.474019,30.1745516,Home Health Care Services
337,sg:1c077d5f4d50429cb1423b029c991bdf,-81.519372,30.143707,120310144121,19,True,True,-81.474019,30.1745516,Restaurants and Other Eating Places
338,sg:e76eea6f7b124716a644542040b56cdf,-81.509055,30.215593,120310144121,15,True,True,-81.474019,30.1745516,Offices of Dentists
339,sg:80d3f4491147446bb95c0b0cb85f2c0f,-81.60091800000001,30.161593,120310144121,12,True,False,-81.474019,30.1745516,Elementary and Secondary Schools
340,sg:6fe63417ace94feaa55bc54654d99980,-81.562653,30.221246,120310144121,4,True,False,-81.474019,30.1745516,Depository Credit Intermediation
341,sg:1ba96cd860d7410ca0d6baf6b10ae2ea,-81.520488,30.143487,120310144121,61,True,True,-81.474019,30.1745516,Lessors of Real Estate
342,sg:2745694b76df4f189969994943720378,-81.60379499999999,30.288442,120310144121,4,True,False,-81.474019,30.1745516,Health and Personal Care Stores
343,sg:f5aa1c748573450d8da906a2f21186a3,-81.533259,30.135694,120310144121,6,True,False,-81.474019,30.1745516,Restaurants and Other Eating Places
344,sg:507eaf45c77446109a5a250258de06d6,-81.517332,30.21647,120310144121,8,True,False,-81.474019,30.1745516,Depository Credit Intermediation
345,sg:5b1031472c1a448d964ce48afbf8b06f,-81.52507800000001,30.2537,120310144121,6,True,False,-81.474019,30.1745516,Health and Personal Care Stores
346,sg:64ee170ed5d74d17a070012e30e94e89,-81.525816,30.25835,120310144121,5,True,False,-81.474019,30.1745516,Other Miscellaneous Store Retailers
347,sg:73f4da65a17b41fbae18bf22d19337ad,-81.662289,30.327616,120310144121,8,True,False,-81.474019,30.1745516,Restaurants and Other Eating Places
348,sg:7465d39026fe4c9b9ae58d17ec9d264c,-81.536626,30.164454,120310144121,7,True,False,-81.474019,30.1745516,Automobile Dealers
349,sg:12140797a5b648e58ba1c4488743ff4e,-81.567725,30.221899,120310144121,4,True,False,-81.474019,30.1745516,Child Day Care Services
350,sg:6bc84ba16d244581b0ec9949a4bc1ab0,-81.516724,30.142656,120310144121,14,True,True,-81.474019,30.1745516,Other Miscellaneous Store Retailers
351,sg:ea636c004ae94847a51507c7ef14d7cf,-81.65881999999999,30.325862,120310144121,9,True,False,-81.474019,30.1745516,Restaurants and Other Eating Places
352,sg:69c55ecc448f4fa5a82977c6e9862e94,-81.633299,30.145823999999998,120310144121,4,True,False,-81.474019,30.1745516,Offices of Physicians
353,sg:3a74074b15df4f0ebbb4e7d256d0145a,-81.630484,30.178079999999998,120310144121,5,True,False,-81.474019,30.1745516,Offices of Real Estate Agents and Brokers
354,sg:eb94e29a90a447de89a311b8e65dbb30,-81.55461,30.222479999999997,120310144121,15,True,True,-81.474019,30.1745516,"Colleges, Universities, and Professional Schools"
355,sg:3b3ed2af6c0c4286815fa7fe0ceb7f1c,-81.558408,30.272893,120310144121,4,True,False,-81.474019,30.1745516,Restaurants and Other Eating Places
356,sg:fd37627cc9c74ec4aa263a31d18e15c8,-81.654162,30.307777,120310144121,4,True,False,-81.474019,30.1745516,Restaurants and Other Eating Places
357,sg:6d879641521d43218bf401f3bb04763b,-81.509505,30.224254,120310144121,14,True,True,-81.474019,30.1745516,"Museums, Historical Sites, and Similar Institutions"
358,sg:088cacc6010c477db729cacad7b8dcc7,-81.462069,30.287059999999997,120310144121,4,True,False,-81.474019,30.1745516,Automotive Repair and Maintenance
359,sg:75b76cadbbb648c3a9653be07dead83a,-81.530486,30.163939000000003,120310144121,4,True,False,-81.474019,30.1745516,"Sporting Goods, Hobby, and Musical Instrument Stores"
360,sg:98ff7f4916d6427bb6684dd93245ccb7,-81.52074499999999,30.143842,120310144121,11,True,False,-81.474019,30.1745516,Amusement Parks and Arcades
361,sg:96b2aaab823b4c03a6593946c1c6e489,-81.554252,30.190234999999998,120310144121,5,True,False,-81.474019,30.1745516,Electronics and Appliance Stores
362,sg:bd213a9ca8884c7e8be69e25b49887d1,-81.549706,30.193475,120310144121,7,True,False,-81.474019,30.1745516,Other Miscellaneous Store Retailers
363,sg:45e8309830f84e47bb29ce1fc883e5ff,-81.515986,30.215212,120310144121,8,True,False,-81.474019,30.1745516,Lessors of Real Estate
364,sg:e83fef0773a344ce985378063ce6fb08,-81.553638,30.183211,120310144121,10,True,False,-81.474019,30.1745516,"Office Supplies, Stationery, and Gift Stores"
365,sg:e16134f6657c43cc9f880c79858be30d,-81.553937,30.263413,120310144121,14,True,True,-81.474019,30.1745516,Motion Picture and Video Industries
366,sg:72dd0e2dc4274899bdc6f96e8a3b2fae,-81.516653,30.237159000000002,120310144121,25,True,True,-81.474019,30.1745516,Furniture Stores
367,sg:0d22e5b455cc4fcd90587c1b43b4cd08,-81.618934,30.198749,120310144121,16,True,True,-81.474019,30.1745516,Lessors of Real Estate
368,sg:26b300cf47714e9c8685c8e4e5d42ccc,-81.626492,30.186202,120310144121,4,True,False,-81.474019,30.1745516,Restaurants and Other Eating Places
369,sg:d901b97e38eb49b6b11fe7ce36abd594,-81.520797,30.140563,120310144121,7,True,False,-81.474019,30.1745516,"Beer, Wine, and Liquor Stores"
370,sg:8464fd4a143c43058c604102debb2b91,-81.620012,30.198168,120310144121,5,True,False,-81.474019,30.1745516,"Sporting Goods, Hobby, and Musical Instrument Stores"
371,sg:7ed2f6c561c34da0a1fc747b26e1d181,-81.680952,30.314789,120310144121,4,True,False,-81.474019,30.1745516,Restaurants and Other Eating Places
372,sg:f789fcaf260a4ca186ff926f68471742,-81.55769699999999,30.177114000000003,120310144121,6,True,False,-81.474019,30.1745516,Restaurants and Other Eating Places
373,sg:97a0eb81d8854fa697616ce4e2957990,-81.462091,30.288422999999998,120310144121,4,True,False,-81.474019,30.1745516,"Other Professional, Scientific, and Technical Services"
374,sg:13df370373174376a8e832124a306471,-81.623075,30.194189,120310144121,16,True,True,-81.474019,30.1745516,Lessors of Real Estate
375,sg:84a09c278ee84534a3e85ad8683c9e8e,-81.552588,30.189514000000003,120310144121,5,True,False,-81.474019,30.1745516,Restaurants and Other Eating Places
376,sg:e20e83199f0b4277a6649414250824d1,-81.58187,30.249145000000002,120310144121,4,True,False,-81.474019,30.1745516,"Colleges, Universities, and Professional Schools"
377,sg:12d6122da9f04a1aa5d54511bb6caa7c,-81.518535,30.214605,120310144121,38,True,True,-81.474019,30.1745516,Grocery Stores
378,sg:e7adc50113704efbaaa52459a27b62f9,-81.54850400000001,30.262607,120310144121,4,True,False,-81.474019,30.1745516,"Agencies, Brokerages, and Other Insurance Related Activities"
379,sg:5a452e78371c436bb519afae91ecc092,-81.510726,30.228225,120310144121,4,True,False,-81.474019,30.1745516,Personal Care Services
380,sg:9857725f095b47b1b560632ca56d13df,-81.580128,30.22185,120310144121,6,True,False,-81.474019,30.1745516,Building Material and Supplies Dealers
381,sg:c80ac04b221740abbbb14c06edc7a804,-81.506495,30.202546999999996,120310144121,65,True,True,-81.474019,30.1745516,Elementary and Secondary Schools
382,sg:f47e445317a7446aa78a39b3af952eb6,-81.548459,30.139478999999998,120310144121,13,True,True,-81.474019,30.1745516,Restaurants and Other Eating Places
383,sg:02585431bc4647658e2c660e30d83a9c,-81.536178,30.245602,120310144121,7,True,False,-81.474019,30.1745516,Restaurants and Other Eating Places
384,sg:d8a1426cd36e4f1599d236d9db90ec89,-81.656763,30.327206,120310144121,4,True,False,-81.474019,30.1745516,Individual and Family Services
385,sg:175b8dcbb5284a2fbd41a05e256f871c,-81.655294,30.324294000000002,120310144121,14,True,True,-81.474019,30.1745516,Traveler Accommodation
386,sg:21c7e36541704b859cccde74bb38c67b,-81.483132,30.105548,120310144121,18,True,True,-81.474019,30.1745516,Restaurants and Other Eating Places
387,sg:706d9d367ffb408fb4d65c1986003c6b,-81.553155,30.218035999999998,120310144121,9,True,False,-81.474019,30.1745516,Restaurants and Other Eating Places
388,sg:6dc87f33a00348e49ef0930f4a010570,-81.535752,30.247428000000003,120310144121,4,True,False,-81.474019,30.1745516,Other Financial Investment Activities
389,sg:e655e73b76a44e28a9c215477d2cd669,-81.567481,30.19507,120310144121,6,True,False,-81.474019,30.1745516,Restaurants and Other Eating Places
390,sg:736748248b7d4e1d8193eb33305ef403,-81.549637,30.140499,120310144121,89,True,True,-81.474019,30.1745516,Grocery Stores
391,sg:8aff52aececc4e34aa4f8f635244be51,-81.580093,30.193944000000002,120310144121,6,True,False,-81.474019,30.1745516,Elementary and Secondary Schools
392,sg:88f6faed1a1f410bbb42dc1b3ab9cc25,-81.53195799999999,30.253528000000003,120310144121,10,True,False,-81.474019,30.1745516,"Sporting Goods, Hobby, and Musical Instrument Stores"
393,sg:18a6690e4e6b4594a0f43d9ffa45ca74,-81.586765,30.221238,120310144121,5,True,False,-81.474019,30.1745516,Restaurants and Other Eating Places
394,sg:13518b92efe645ef8d294649d5ec86e1,-81.585133,30.256002000000002,120310144121,4,True,False,-81.474019,30.1745516,Offices of Dentists
395,sg:63ddf1aabb6e4a8d806e30ed2364924d,-81.521235,30.140377,120310144121,14,True,True,-81.474019,30.1745516,Other Miscellaneous Store Retailers
396,sg:79b20766c178413b9ca44fd6899b3aa7,-81.539589,30.129554,120310144121,4,True,False,-81.474019,30.1745516,Offices of Physicians
397,sg:0ef8edbd01344c7c82c4e3b12c590b44,-81.680094,30.484548999999998,120310144121,4,True,False,-81.474019,30.1745516,"Colleges, Universities, and Professional Schools"
398,sg:d96a086dde434442b7cbab882d4b4be4,-81.517179,30.215055,120310144121,4,True,False,-81.474019,30.1745516,Depository Credit Intermediation
399,sg:06eb7a36cc56432daca611809c390715,-81.651545,30.316,120310144121,7,True,False,-81.474019,30.1745516,Offices of Physicians
400,sg:f2c894db553b4bb2bd170107473cbc6e,-81.55409399999999,30.218409,120310144121,19,True,True,-81.474019,30.1745516,"Sporting Goods, Hobby, and Musical Instrument Stores"
401,sg:381f405bdba74cedb52b3c2aca4cb019,-81.518649,30.213849,120310144121,6,True,False,-81.474019,30.1745516,Other Amusement and Recreation Industries
402,sg:d0d89df3840a44eabfbbccb8a34a3368,-81.483104,30.106069,120310144121,7,True,False,-81.474019,30.1745516,Other Personal Services
403,sg:c5a851fa888e4a648f61b5ad6068e599,-81.550859,30.194683,120310144121,12,True,False,-81.474019,30.1745516,Restaurants and Other Eating Places
404,sg:681473402c3145c89b41166944ccf7eb,-81.510664,30.231579999999997,120310144121,5,True,False,-81.474019,30.1745516,Health and Personal Care Stores
405,sg:570084ad42be4487a73774364dbd76d8,-81.532811,30.253791999999997,120310144121,121,True,True,-81.474019,30.1745516,Lessors of Real Estate
406,sg:2ffa2ad517914a9f998e51f0b192318d,-81.52051,30.146376,120310144121,5,True,False,-81.474019,30.1745516,Personal and Household Goods Repair and Maintenance
407,sg:5657effa5d114df1b1fdeff053aa1ef9,-81.547189,30.161493,120310144121,7,True,False,-81.474019,30.1745516,Offices of Dentists
408,sg:8f72b36b540e433fa9dae6f1603e2870,-81.526822,30.257523,120310144121,13,True,True,-81.474019,30.1745516,Restaurants and Other Eating Places
409,sg:454b0143426b4e1aaf406ae050c344d3,-81.678097,30.320072999999997,120310144121,6,True,False,-81.474019,30.1745516,"Automotive Parts, Accessories, and Tire Stores"
410,sg:c6385216226f40d7be8d0dcbc2449eac,-81.44112700000001,30.263624,120310144121,58,True,True,-81.474019,30.1745516,General Medical and Surgical Hospitals
411,sg:76acffb53a924e38acbe606bb58f187c,-81.525044,30.252571000000003,120310144121,8,True,False,-81.474019,30.1745516,Restaurants and Other Eating Places
412,sg:241f657d1f564020a13663b7cd2bee36,-81.632188,30.147437,120310168063,9,True,False,-81.5602172,30.1267195,Gasoline Stations
413,sg:8f035880b0f048e48706f573ab06e7e5,-81.560857,30.338192,120310168063,6,True,False,-81.5602172,30.1267195,Other Motor Vehicle Dealers
414,sg:c756fb216d5c4423b9270bcedac62220,-81.53070500000001,30.123608,120310168063,6,True,False,-81.5602172,30.1267195,Services to Buildings and Dwellings
415,sg:26464237c10b4dad96eb731590b46aeb,-81.60505699999999,30.171908000000002,120310168063,9,True,False,-81.5602172,30.1267195,Other Amusement and Recreation Industries
416,sg:33fe6d960715496dbb19c7d4f17a060b,-81.61676,30.257837,120310168063,5,True,False,-81.5602172,30.1267195,Restaurants and Other Eating Places
417,sg:665df7704e3a4f9cb55ecaaa3660e502,-81.71837,30.281990999999998,120310168063,4,True,False,-81.5602172,30.1267195,Health and Personal Care Stores
418,sg:3814607cf01a405fb20e3162b622550e,-81.519144,30.106640999999996,120310168063,4,True,False,-81.5602172,30.1267195,Depository Credit Intermediation
419,sg:7bb28a56f3eb4e50b9a45d64d36f3a81,-81.633264,30.292159,120310168063,8,True,False,-81.5602172,30.1267195,Other Amusement and Recreation Industries
420,sg:d8e3cab6c6b94e3b858fd3769ad009b2,-81.543803,30.139709999999997,120310168063,9,True,False,-81.5602172,30.1267195,Traveler Accommodation
421,sg:d34e6ba0ff704071b8498b686da631d3,-81.604302,30.167031,120310168063,6,True,False,-81.5602172,30.1267195,Restaurants and Other Eating Places
422,sg:a932151571674672b69f155a5d609e5b,-81.526712,30.120955,120310168063,17,True,True,-81.5602172,30.1267195,Depository Credit Intermediation
423,sg:e4d1adebe7a84fe4b9ba8290a2ebc62e,-81.594657,30.242028,120310168063,4,True,False,-81.5602172,30.1267195,Offices of Physicians
424,sg:794a102aa4b5456f937a79c7cd123015,-81.525576,30.121707,120310168063,13,True,True,-81.5602172,30.1267195,Services to Buildings and Dwellings
425,sg:43f489603b8d4119af32b4e5a5d4313d,-81.546564,30.140915000000003,120310168063,23,True,True,-81.5602172,30.1267195,Restaurants and Other Eating Places
426,sg:0a4be2aac94b46c79214f072d4b658e5,-81.53149599999999,30.138714,120310168063,5,True,False,-81.5602172,30.1267195,"Accounting, Tax Preparation, Bookkeeping, and Payroll Services"
427,sg:5341b2fe14c341a8b2774da3c83da9d6,-81.546159,30.138596000000003,120310168063,19,True,True,-81.5602172,30.1267195,Restaurants and Other Eating Places
428,sg:d6a0cbb866d94391b8a595a7c59662fa,-81.500546,30.257618,120310168063,6,True,False,-81.5602172,30.1267195,Electronics and Appliance Stores
429,sg:5f6aa2c90975463d8b3b2b7eae366789,-81.615678,30.218289000000002,120310168063,4,True,False,-81.5602172,30.1267195,Restaurants and Other Eating Places
430,sg:a5e2fab319a442a4bf358fa85bfdee7d,-81.615548,30.21735,120310168063,7,True,False,-81.5602172,30.1267195,Restaurants and Other Eating Places
431,sg:2b3b26a6fec14315bd8eda5ea1d7d8fd,-81.549114,30.140556,120310168063,4,True,False,-81.5602172,30.1267195,Wired and Wireless Telecommunications Carriers
432,sg:b88e5ea261bf48a68c3b3f51385521ac,-81.515327,30.219997999999997,120310168063,4,True,False,-81.5602172,30.1267195,Outpatient Care Centers
433,sg:95cf16dbf63d4aa0bf732d72e228f1f9,-81.64590600000001,30.260408,120310168063,4,True,False,-81.5602172,30.1267195,"Agencies, Brokerages, and Other Insurance Related Activities"
434,sg:9cba54b50030498d9bcf3f4e63e2acfd,-81.517586,30.113515999999997,120310168063,10,True,False,-81.5602172,30.1267195,Depository Credit Intermediation
435,sg:6dd765dd08cb4e8185a4deb4e7793fa3,-81.618563,30.194587,120310168063,6,True,False,-81.5602172,30.1267195,Child Day Care Services
436,sg:a236f4da4d3c46948a7e52b76f0e60ae,-81.50263299999999,30.357684000000003,120310168063,4,True,False,-81.5602172,30.1267195,Offices of Dentists
437,sg:db75a8d2409f45468c4a306ce1ec0a5c,-81.543717,30.138919,120310168063,8,True,False,-81.5602172,30.1267195,Traveler Accommodation
438,sg:0b45f259252a4b0aaf7433a1a14cf3d8,-81.605048,30.171921,120310168063,4,True,False,-81.5602172,30.1267195,Home Furnishings Stores
439,sg:27e960635490402a98e2321a5517f455,-81.581177,30.218826,120310168063,4,True,False,-81.5602172,30.1267195,Offices of Dentists
440,sg:b81422913aeb474ea01318c77119db0e,-81.589973,30.226888,120310168063,6,True,False,-81.5602172,30.1267195,Home Furnishings Stores
441,sg:061065083ee648588fa59c1ead68e626,-81.550499,30.133827,120310168063,7,True,False,-81.5602172,30.1267195,Services to Buildings and Dwellings
442,sg:f7c476a7259a414d8b38dd04df9b7a41,-81.733326,30.358791999999998,120310168063,4,True,False,-81.5602172,30.1267195,Personal Care Services
443,sg:7dabfa1d286741f8b4634872bb7d16a6,-81.548947,30.287134000000002,120310168063,9,True,False,-81.5602172,30.1267195,Restaurants and Other Eating Places
444,sg:40350bb89c3548a7b62f37b5e893ae5e,-81.548608,30.139113000000002,120310168063,5,True,False,-81.5602172,30.1267195,Building Material and Supplies Dealers
445,sg:aa876dd1b5a746df89befc9615420e6c,-81.635962,30.147082,120310168063,5,True,False,-81.5602172,30.1267195,Elementary and Secondary Schools
446,sg:f83a213b60e6470f9bec4d456e98b8d3,-81.525029,30.284368,120310168063,4,True,False,-81.5602172,30.1267195,Restaurants and Other Eating Places
447,sg:678d166c3eb24161992beb94faecadba,-81.550414,30.140744,120310168063,7,True,False,-81.5602172,30.1267195,"Office Supplies, Stationery, and Gift Stores"
448,sg:0da79d1f71934d0e9978da032bd7400e,-81.629704,30.168451,120310168063,4,True,False,-81.5602172,30.1267195,Depository Credit Intermediation
449,sg:c26605fbe5d84d6ebd2154870912ca6a,-81.565841,30.215121999999997,120310168063,5,True,False,-81.5602172,30.1267195,Other Amusement and Recreation Industries
450,sg:c3bafd5a77c6461bbbdca2cf367754d4,-81.513805,30.06151,120310168063,4,True,False,-81.5602172,30.1267195,Grocery Stores
451,sg:6eb22b46b0744e73a30f3c60f7c472e1,-81.662328,30.327544,120310168063,7,True,False,-81.5602172,30.1267195,Restaurants and Other Eating Places
452,sg:034817b6701f4d67982d4c70b55ef44a,-81.55368,30.141927000000003,120310168063,14,True,True,-81.5602172,30.1267195,Used Merchandise Stores
453,sg:e82ca499f0b246e1b962527f8a42bf08,-81.524842,30.295376,120310168063,7,True,False,-81.5602172,30.1267195,"Office Supplies, Stationery, and Gift Stores"
454,sg:f50e58b4f8824d858f2f26b82de5e798,-81.64652199999999,30.262415,120310168063,4,True,False,-81.5602172,30.1267195,Clothing Stores
455,sg:e66323398a5e43dfa4785aad2b9fe831,-81.54693,30.138513,120310168063,13,True,True,-81.5602172,30.1267195,Restaurants and Other Eating Places
456,sg:087889c6fbcd4668886357493f00dfc2,-81.544747,30.141173,120310168063,4,True,False,-81.5602172,30.1267195,Depository Credit Intermediation
457,sg:3da5b5bae45e4bd99bbfbc5b8d9be573,-81.551965,30.140976000000002,120310168063,48,True,True,-81.5602172,30.1267195,Department Stores
458,sg:455d116707c94bc7ace13590490a64d7,-81.52292299999999,30.161803999999997,120310168063,4,True,False,-81.5602172,30.1267195,"Automotive Parts, Accessories, and Tire Stores"
459,sg:7538d5d7e4b44e02a3faf8b9f4a02816,-81.51779,30.235640000000004,120310168063,4,True,False,-81.5602172,30.1267195,Other Miscellaneous Store Retailers
460,sg:aa46af4fab1b4c48b49e3ab912a81e34,-81.544731,30.1386,120310168063,8,True,False,-81.5602172,30.1267195,Traveler Accommodation
461,sg:baccdfccf3334fc48c63bfe05ce4f241,-81.548812,30.1405,120310168063,15,True,True,-81.5602172,30.1267195,Restaurants and Other Eating Places
462,sg:4a802cfe136444e7b7f35ec67712fee3,-81.638947,30.359469,120310168063,4,True,False,-81.5602172,30.1267195,Religious Organizations
463,sg:472d62a9d216431cabd9f026e4dddd62,-81.60336099999999,30.165390000000002,120310168063,6,True,False,-81.5602172,30.1267195,Restaurants and Other Eating Places
464,sg:e16f296272414cafa075fe164c87ea0c,-81.55356,30.141782,120310168063,10,True,False,-81.5602172,30.1267195,Restaurants and Other Eating Places
465,sg:0a55d3f7c67b4d06ad95e1e5fd9b8bfd,-81.53970600000001,30.130395,120310168063,4,True,False,-81.5602172,30.1267195,Offices of Other Health Practitioners
466,sg:adf927d5778c415bac8f425cc889c871,-81.511372,30.212565,120310168063,4,True,False,-81.5602172,30.1267195,Offices of Physicians
467,sg:a91cc3b98ba2487c9be8e53f0a3fd7ed,-81.597094,30.248457000000002,120310168063,12,True,False,-81.5602172,30.1267195,Restaurants and Other Eating Places
468,sg:c17b6f1abe9142a48d840d757d0be292,-81.556832,30.182526,120310168063,4,True,False,-81.5602172,30.1267195,Furniture Stores
469,sg:eb1e9b7fe3ce4592875b600939452a70,-81.550497,30.140877000000003,120310168063,5,True,False,-81.5602172,30.1267195,Lessors of Real Estate
470,sg:f71229b2bfdc496cba49f9394c65f857,-81.604392,30.275128999999996,120310168063,5,True,False,-81.5602172,30.1267195,Religious Organizations
471,sg:143113dd3945486fa0bee6f949a705b0,-81.59219,30.219858000000002,120310168063,4,True,False,-81.5602172,30.1267195,Restaurants and Other Eating Places
472,sg:4fc57e47aa7a43bb9bb5fa0366031686,-81.602586,30.165363,120310168063,5,True,False,-81.5602172,30.1267195,Restaurants and Other Eating Places
473,sg:775d03e8f1d54bc9870c645b9bd854c8,-81.53968499999999,30.129920000000002,120310168063,4,True,False,-81.5602172,30.1267195,Offices of Physicians
474,sg:d0605600a0ed42e19de1731cf8047757,-81.529557,30.252951,120310168063,5,True,False,-81.5602172,30.1267195,Restaurants and Other Eating Places
475,sg:d44f87df063a4e2c81a2e39a6446e4a1,-81.53385,30.127896999999997,120310168063,11,True,False,-81.5602172,30.1267195,Depository Credit Intermediation
476,sg:dfd4d32efb994ce7bccce027baa77d72,-81.60245,30.167136,120310168063,4,True,False,-81.5602172,30.1267195,Restaurants and Other Eating Places
477,sg:6ae650959ab34eec959feb8cd0146548,-81.550471,30.140846000000003,120310168063,244,True,True,-81.5602172,30.1267195,Lessors of Real Estate
478,sg:97e3f15a598c4733af32228c6c102a91,-81.600207,30.164056,120310168063,6,True,False,-81.5602172,30.1267195,"Jewelry, Luggage, and Leather Goods Stores"
479,sg:41a4e97642ee47d7a922860c43c14a9f,-81.586812,30.221452000000003,120310168063,6,True,False,-81.5602172,30.1267195,Restaurants and Other Eating Places
480,sg:fd8725afc1b745d2ba41c98898985ed4,-81.529896,30.104795000000003,120310168063,8,True,False,-81.5602172,30.1267195,Home Health Care Services
481,sg:c3d7a79f73654a27b2c699e03bba2c48,-81.59603299999999,30.134552000000003,120310168063,8,True,False,-81.5602172,30.1267195,Restaurants and Other Eating Places
482,sg:6c86b41956494a068c29c80f0ac6d09d,-81.409643,30.371510999999998,120310168063,5,True,False,-81.5602172,30.1267195,Motion Picture and Video Industries
483,sg:e65db37278164b16b47d29fe2a353c3d,-81.762213,30.244637,120310168063,5,True,False,-81.5602172,30.1267195,Other Motor Vehicle Dealers
484,sg:7856d8412a8e4f11ab3cbfa4b174793a,-81.55117,30.213194,120310168063,8,True,False,-81.5602172,30.1267195,Used Merchandise Stores
485,sg:73732345f1bf497a8e3858d9e8c76e0e,-81.66112700000001,30.328373,120310168063,5,True,False,-81.5602172,30.1267195,Shoe Stores
486,sg:c18cabd593274e2d9476ba8952f19d9c,-81.54635,30.141240000000003,120310168063,8,True,False,-81.5602172,30.1267195,Restaurants and Other Eating Places
487,sg:f654385d640f4dd38b35368aa400ae56,-81.54915799999999,30.174729,120310168063,10,True,False,-81.5602172,30.1267195,Automobile Dealers
488,sg:0153cc284e1c43e2b32267f66f5c9a5c,-81.549722,30.141979,120310168063,44,True,True,-81.5602172,30.1267195,Gasoline Stations
489,sg:becb4a3e291c4abea77022de321f52c3,-81.54679,30.138162,120310168063,14,True,True,-81.5602172,30.1267195,Restaurants and Other Eating Places
490,sg:ce9a86d260b246e385840029faebc081,-81.592837,30.231758000000003,120310168063,4,True,False,-81.5602172,30.1267195,"Colleges, Universities, and Professional Schools"
491,sg:c78c6e11db6a4fc7936ba483a7df8d92,-81.634571,30.151740000000004,120310168063,5,True,False,-81.5602172,30.1267195,Offices of Other Health Practitioners
492,sg:b477065f3ce54432bb04e8bb29d350b5,-81.54675,30.138229,120310168063,24,True,True,-81.5602172,30.1267195,Restaurants and Other Eating Places
493,sg:defbc6e2c3664ea3a11b217c850d244e,-81.61608100000001,30.220075,120310168063,4,True,False,-81.5602172,30.1267195,Personal Care Services
494,sg:596b2af22d1b4d4ca3165bf0207503a2,-81.606545,30.274611,120310168063,4,True,False,-81.5602172,30.1267195,"Automotive Parts, Accessories, and Tire Stores"
495,sg:cc195b9fc5b348a68f59eb377ae4e244,-81.54529699999999,30.141246000000002,120310168063,29,True,True,-81.5602172,30.1267195,Gasoline Stations
496,sg:bc74bd33a7df44b7ad58a6acd10a3d0a,-81.54851,30.138927000000002,120310168063,14,True,True,-81.5602172,30.1267195,Restaurants and Other Eating Places
497,sg:d09328b3273048098f0d7fbb26eeb43a,-81.547751,30.263153000000003,120310168063,4,True,False,-81.5602172,30.1267195,Other Financial Investment Activities
498,sg:5edf76744a3d4b90a88d9472ea8a6c40,-81.632047,30.161651000000003,120310168063,4,True,False,-81.5602172,30.1267195,"Automotive Parts, Accessories, and Tire Stores"
499,sg:7284b44596b845e686114b91790a333e,-81.550395,30.140744,120310168063,9,True,False,-81.5602172,30.1267195,"Office Supplies, Stationery, and Gift Stores"
500,sg:5c583e16dc4048eba1ceea022d815963,-81.63305,30.147688,120310168063,5,True,False,-81.5602172,30.1267195,Electronics and Appliance Stores
501,sg:7b9b2b6433574685954ecf03ab4af379,-81.43713699999999,30.287257,120310168063,4,True,False,-81.5602172,30.1267195,Grocery Stores
502,sg:9782d1c783aa4e22bfab550c07989310,-81.525184,30.298257,120310168063,4,True,False,-81.5602172,30.1267195,Other Amusement and Recreation Industries
503,sg:1ab67c03e5e64d8caed96d748830cbb5,-81.650366,30.317301,120310168063,4,True,False,-81.5602172,30.1267195,Elementary and Secondary Schools
504,sg:d3f65c1e33264f379ccddd857ca85478,-81.555522,30.180983,120310168063,4,True,False,-81.5602172,30.1267195,Other Amusement and Recreation Industries
505,sg:cfc676522c634dbfbedfcb03e6fbfb5a,-81.531341,30.134104999999998,120310168063,7,True,False,-81.5602172,30.1267195,"Agencies, Brokerages, and Other Insurance Related Activities"
506,sg:c2f9950a08fd4be09080961332ad2d37,-81.53384100000001,30.127896000000003,120310168063,15,True,True,-81.5602172,30.1267195,Depository Credit Intermediation
507,sg:357866a569994f18a57704292053af07,-81.546543,30.142711,120310168063,39,True,True,-81.5602172,30.1267195,Health and Personal Care Stores
508,sg:07ff8bfba6124cafac3166e94d880ebb,-81.59194000000001,30.219856,120310168063,4,True,False,-81.5602172,30.1267195,Restaurants and Other Eating Places
509,sg:561c0686d63c4addb7399b3e2d8c9ee0,-81.63082,30.178698999999998,120310168063,4,True,False,-81.5602172,30.1267195,Offices of Dentists
510,sg:2aa4e9360ab7407d9f3cb943f38f809f,-81.581242,30.218735,120310166013,4,True,False,-81.6210622,30.2551599,Offices of Dentists
511,sg:a340ddf611264d0a81bc969f26794499,-81.68100799999999,30.311301,120310166013,7,True,False,-81.6210622,30.2551599,Restaurants and Other Eating Places
512,sg:d990fdc8dd28421899a866e43e8da06f,-81.602315,30.281549,120310166013,4,True,False,-81.6210622,30.2551599,Health and Personal Care Stores
513,sg:c304f19f7d3b4fbea4171be1d88397ef,-81.553676,30.22036,120310166013,8,True,False,-81.6210622,30.2551599,Restaurants and Other Eating Places
514,sg:5bb6e467dcba48bbb63ef683b5db6b9d,-81.621121,30.450001,120310166013,4,True,False,-81.6210622,30.2551599,Support Activities for Road Transportation
515,sg:98da1a30ccaa4eb4a8ba15017d0f4567,-81.61544599999999,30.255522999999997,120310166013,4,True,False,-81.6210622,30.2551599,Home Furnishings Stores
516,sg:8f2d97c43deb48968fd8400f27447956,-81.61671,30.252990999999998,120310166013,9,True,False,-81.6210622,30.2551599,Restaurants and Other Eating Places
517,sg:032beda9aa78452086d93d2c673b95e2,-81.584424,30.313459,120310166013,4,True,False,-81.6210622,30.2551599,"Automotive Parts, Accessories, and Tire Stores"
518,sg:2209b373d05141c38ab289962d3be32d,-81.624657,30.255834999999998,120310166013,4,True,False,-81.6210622,30.2551599,Offices of Dentists
519,sg:339a4f6f43f540488194e517293c3658,-81.620418,30.262234999999997,120310166013,4,True,False,-81.6210622,30.2551599,Building Material and Supplies Dealers
520,sg:10d51831d116471c85e548134a1eafb1,-81.600166,30.310484999999996,120310166013,4,True,False,-81.6210622,30.2551599,"Agencies, Brokerages, and Other Insurance Related Activities"
521,sg:36b7893856f4472ca3979ee79e8955a4,-81.584991,30.208671000000002,120310166013,4,True,False,-81.6210622,30.2551599,Offices of Dentists
522,sg:2240283242c644a8b24e42911e92f030,-81.617009,30.209604,120310166013,4,True,False,-81.6210622,30.2551599,Personal Care Services
523,sg:062230881fb94b12bc76a8a04e8375d5,-81.532169,30.288484000000004,120310166013,4,True,False,-81.6210622,30.2551599,Restaurants and Other Eating Places
524,sg:4363ebab6b8c4f3d9c0008bea90a4b3e,-81.629098,30.261607,120310166013,21,True,True,-81.6210622,30.2551599,Grocery Stores
525,sg:20edd9022d644e91a2e87ac85661e930,-81.553697,30.320490999999997,120310166013,4,True,False,-81.6210622,30.2551599,"Sporting Goods, Hobby, and Musical Instrument Stores"
526,sg:ce0bd36278e04a22bf4b913af6f81064,-81.625725,30.294287,120310166013,5,True,False,-81.6210622,30.2551599,Services to Buildings and Dwellings
527,sg:a7dd48cbc1954c6599c1377029db60d0,-81.605303,30.274627000000002,120310166013,4,True,False,-81.6210622,30.2551599,"Automotive Parts, Accessories, and Tire Stores"
528,sg:ec3436ec803e47e1be7e94423af6e1ec,-81.626932,30.255067999999998,120310166013,7,True,False,-81.6210622,30.2551599,Depository Credit Intermediation
529,sg:5616216a2a1b4e71aa30e667b5883f6f,-81.55983,30.314429999999998,121090208052,4,True,False,-81.6049058,30.0945873,Restaurants and Other Eating Places
530,sg:1b2aa025a308493f90b675d535a64e13,-81.63151500000001,30.135637,121090208052,37,True,True,-81.6049058,30.0945873,Lessors of Real Estate
531,sg:a62684ddc3c74b30801ac66c293e8a34,-81.629829,30.187934999999996,121090208052,31,True,True,-81.6049058,30.0945873,Department Stores
532,sg:c90837e884824fa287bdda8d4b190aef,-81.633099,30.136613,121090208052,4,True,False,-81.6049058,30.0945873,Offices of Dentists
533,sg:edd32161e8224e77b09a68ee34468f80,-81.633945,30.159569,121090208052,11,True,False,-81.6049058,30.0945873,Other Miscellaneous Store Retailers
534,sg:715da2928e6249799188ac75583d2515,-81.636769,30.083135,121090208052,4,True,False,-81.6049058,30.0945873,"Automotive Parts, Accessories, and Tire Stores"
535,sg:7f4dc1e5f0ff46fa8808e78786d6f1f5,-81.630151,30.178214,121090208052,4,True,False,-81.6049058,30.0945873,Offices of Physicians
536,sg:3746503b5b7b41a4a1de749b5f2a5db1,-81.705717,30.324247999999997,121090208052,5,True,False,-81.6049058,30.0945873,Religious Organizations
537,sg:f4b83556837e468c95919a19bbda18a1,-81.633337,30.166071000000002,121090208052,7,True,False,-81.6049058,30.0945873,Specialty Food Stores
538,sg:63a6fc8f79de478c8bcd0492eb9ba57d,-81.633144,30.146932,121090208052,5,True,False,-81.6049058,30.0945873,Depository Credit Intermediation
539,sg:640586adbdeb49c6be539b1fc1c5a22a,-81.637237,30.323939000000003,121090208052,5,True,False,-81.6049058,30.0945873,"Museums, Historical Sites, and Similar Institutions"
540,sg:592c9d8982fa4a55945e6085ff3a6fde,-81.625213,30.116633,121090208052,40,True,True,-81.6049058,30.0945873,Child Day Care Services
541,sg:38545a28621345d0b158653cb665088c,-81.632115,30.164058,121090208052,10,True,False,-81.6049058,30.0945873,Lessors of Real Estate
542,sg:be5ca901ac9b4a64a4b998f3c128a452,-81.634751,30.146315,121090208052,10,True,False,-81.6049058,30.0945873,Other Amusement and Recreation Industries
543,sg:c48458ee03e8470eadb594c807fc9e8d,-81.65397,30.313159000000002,121090208052,9,True,False,-81.6049058,30.0945873,Restaurants and Other Eating Places
544,sg:d75909586694418eb30a9f39a608d4fe,-81.632113,30.134389000000002,121090208052,15,True,True,-81.6049058,30.0945873,Restaurants and Other Eating Places
545,sg:eaa1859c2d4646fba7238410d6513f55,-81.548687,30.140482000000002,121090208052,10,True,False,-81.6049058,30.0945873,Restaurants and Other Eating Places
546,sg:235052b5c1ba40b3b02df9ef9e5d62aa,-81.53741099999999,30.255253999999997,121090208052,6,True,False,-81.6049058,30.0945873,Restaurants and Other Eating Places
547,sg:27cc379844f34cec9fe64ed158e5da8f,-81.606202,30.172326,121090208052,4,True,False,-81.6049058,30.0945873,Couriers and Express Delivery Services
548,sg:90bc08ae5a92440aac740670f33b2e99,-81.667332,30.32433,121090208052,4,True,False,-81.6049058,30.0945873,Couriers and Express Delivery Services
549,sg:dbcfa10aaf944bc2a2135823f907e1d0,-81.615864,30.098827000000004,121090208052,4,True,False,-81.6049058,30.0945873,Wired and Wireless Telecommunications Carriers
550,sg:1642cc4bd189425b950097510b9471c9,-81.628833,30.269371000000003,121090208052,5,True,False,-81.6049058,30.0945873,Grocery Stores
551,sg:f8fe8130c9e64100b35fc3b89ed95e10,-81.588052,30.223644,121090208052,9,True,False,-81.6049058,30.0945873,Restaurants and Other Eating Places
552,sg:aa481885a18e4b71a064f7a58f14fe45,-81.526611,30.256040999999996,121090208052,11,True,False,-81.6049058,30.0945873,Department Stores
553,sg:bc64ff42f40f47479be24839ead0491c,-81.73044200000001,30.3196,121090208052,4,True,False,-81.6049058,30.0945873,Couriers and Express Delivery Services
554,sg:fbf90df852994de2bf16daf2acbfc259,-81.633177,30.162053000000004,121090208052,7,True,False,-81.6049058,30.0945873,Restaurants and Other Eating Places
555,sg:1703c4ccb697476db9f46b061daf8c0e,-81.723776,30.271715999999998,121090208052,4,True,False,-81.6049058,30.0945873,Elementary and Secondary Schools
556,sg:018aa00ed14a4c7ebd56c42c763cf5fa,-81.524953,30.256428000000003,121090208052,4,True,False,-81.6049058,30.0945873,Clothing Stores
557,sg:48b8b0c6804f4baca41ebddc751e88c0,-81.735759,30.270096000000002,121090208052,4,True,False,-81.6049058,30.0945873,"Other Professional, Scientific, and Technical Services"
558,sg:3876d2d1caa64c52ab494ee5dd7d521a,-81.590807,30.117054,121090208052,13,True,True,-81.6049058,30.0945873,Administration of Economic Programs
559,sg:cea29cd36b654b34ac98c78c8e5362bc,-81.632076,30.138840999999996,121090208052,27,True,True,-81.6049058,30.0945873,Restaurants and Other Eating Places
560,sg:6525e75315da4440a9c70a3bc7184c19,-81.63006999999999,30.174111,121090208052,22,True,True,-81.6049058,30.0945873,"Office Supplies, Stationery, and Gift Stores"
561,sg:505febf41fba45c7821094a1e03d57a3,-81.467236,30.257714,121090208052,6,True,False,-81.6049058,30.0945873,Offices of Other Health Practitioners
562,sg:5e849f9fa94b4673aabee8dc7b7c8470,-81.523213,30.288232,121090208052,4,True,False,-81.6049058,30.0945873,Other Miscellaneous Store Retailers
563,sg:4a17d730e5884de68ae5bd47c4cc2d1c,-81.57804399999999,30.205668,121090208052,4,True,False,-81.6049058,30.0945873,Home Furnishings Stores
564,sg:05e0a17bf81248c8bf405a7096ba4b18,-81.654472,30.308484999999997,121090208052,5,True,False,-81.6049058,30.0945873,Other Amusement and Recreation Industries
565,sg:add59ec4c835428d9865c4fe54b423f0,-81.586075,30.239215,121090208052,6,True,False,-81.6049058,30.0945873,Depository Credit Intermediation
566,sg:7349f5a6047c4c94b7602db0e00fdece,-81.589311,30.225296999999998,121090208052,9,True,False,-81.6049058,30.0945873,"Machinery, Equipment, and Supplies Merchant Wholesalers"
567,sg:aed506ca851340278d9241cda858223c,-81.62554499999999,30.174195,121090208052,20,True,True,-81.6049058,30.0945873,Restaurants and Other Eating Places
568,sg:62f12d9cc83a4ebda8b648ee3483593d,-81.634651,30.145834000000004,121090208052,5,True,False,-81.6049058,30.0945873,Restaurants and Other Eating Places
569,sg:12c0658ccc494cc5bf6444565b71c2f5,-81.565364,30.190979,121090208052,4,True,False,-81.6049058,30.0945873,"Jewelry, Luggage, and Leather Goods Stores"
570,sg:25b1e8aacce940f7a75c131df5a87bcd,-81.506025,30.062976000000003,121090208052,4,True,False,-81.6049058,30.0945873,Automotive Repair and Maintenance
571,sg:df554ed312454bfb925fa660e80a207b,-81.564916,30.218953000000003,121090208052,4,True,False,-81.6049058,30.0945873,Health and Personal Care Stores
572,sg:ebbd0bd4b926425c9fcb02534c64b4b5,-81.625672,30.12555,121090208052,11,True,False,-81.6049058,30.0945873,"Beer, Wine, and Liquor Stores"
573,sg:917b696a49b1474ba3e1b8697dd97a17,-81.564779,30.176176,121090208052,22,True,True,-81.6049058,30.0945873,"Museums, Historical Sites, and Similar Institutions"
574,sg:1c72d2c635f9444f9a0cad4648167b3a,-81.654666,30.327565000000003,121090208052,4,True,False,-81.6049058,30.0945873,"Agencies, Brokerages, and Other Insurance Related Activities"
575,sg:75df82a5e5da4a5f90d2f74a6365e07c,-81.771837,30.451833,121090208052,7,True,False,-81.6049058,30.0945873,Automobile Dealers
576,sg:980b41ad14ae4f78bab36900da9c2313,-81.619828,30.195891999999997,121090208052,4,True,False,-81.6049058,30.0945873,Offices of Physicians
577,sg:6c6e3d9cca62424fa5879fa836115976,-81.59291400000001,30.114103000000004,121090208052,13,True,True,-81.6049058,30.0945873,"Automotive Parts, Accessories, and Tire Stores"
578,sg:cf4fef7493f04069837754d85a164da6,-81.633098,30.161108000000002,121090208052,18,True,True,-81.6049058,30.0945873,Restaurants and Other Eating Places
579,sg:2c69b9459fb049928ca3b9ad9fe36b88,-81.630832,30.171241,121090208052,5,True,False,-81.6049058,30.0945873,"Office Supplies, Stationery, and Gift Stores"
580,sg:f71750869ab74253ad254d7032fcbf0a,-81.624586,30.122768,121090208052,12,True,False,-81.6049058,30.0945873,Restaurants and Other Eating Places
581,sg:637e634a13404902bb036d006eacc276,-81.752422,30.303928000000003,121090208052,4,True,False,-81.6049058,30.0945873,"Colleges, Universities, and Professional Schools"
582,sg:15c318f751474cd1b658e291cdab6e42,-81.625547,30.174293,121090208052,19,True,True,-81.6049058,30.0945873,Other Amusement and Recreation Industries
583,sg:b40ce586fc684fdfb75168a82ba32be0,-81.558444,30.27873,121090208052,4,True,False,-81.6049058,30.0945873,Clothing Stores
584,sg:599f84d8d2bf4c3ca2761a5278d0a0d1,-81.51236800000001,30.212653000000003,121090208052,4,True,False,-81.6049058,30.0945873,Home Health Care Services
585,sg:6229518c023d4c77bc90a184f73c5b4a,-81.633173,30.137144,121090208052,6,True,False,-81.6049058,30.0945873,Offices of Real Estate Agents and Brokers
586,sg:5283f99ff9a9474289efa4fd197d9589,-81.660371,30.308059000000004,121090208052,4,True,False,-81.6049058,30.0945873,"Jewelry, Luggage, and Leather Goods Stores"
587,sg:bfc2c4e8e13b488ea9ed52f1c5c3fd6b,-81.63465,30.14585,121090208052,15,True,True,-81.6049058,30.0945873,Restaurants and Other Eating Places
588,sg:b8795e210a07473da31e2ac15058d81a,-81.62663,30.111382,121090208052,4,True,False,-81.6049058,30.0945873,Other Amusement and Recreation Industries
589,sg:a18572e7b17c44b69f046c775b2f2323,-81.62349,30.120458000000003,121090208052,15,True,True,-81.6049058,30.0945873,Used Merchandise Stores
590,sg:4ae5c63fdcf04d919551bc5589eef3ac,-81.534997,30.140393,121090208052,9,True,False,-81.6049058,30.0945873,Traveler Accommodation
591,sg:361c39e5613744d880f6f7da9efe8be5,-81.571511,30.201076,121090208052,4,True,False,-81.6049058,30.0945873,Elementary and Secondary Schools
592,sg:4b5a9aedbb754cb4a71f17b6d7e36c87,-81.591048,30.113867,121090208052,6,True,False,-81.6049058,30.0945873,Depository Credit Intermediation
593,sg:5b4f4ec908c3400cb04174687ce14926,-81.630212,30.173859999999998,121090208052,19,True,True,-81.6049058,30.0945873,Other Amusement and Recreation Industries
594,sg:ccfc2392b2f74a12abdae544b2287c3f,-81.651815,30.0786,121090208052,11,True,False,-81.6049058,30.0945873,"Museums, Historical Sites, and Similar Institutions"
595,sg:e3cded36c87d464a9bd8b8fb86416f15,-81.554769,30.320018,121090208052,7,True,False,-81.6049058,30.0945873,Automobile Dealers
596,sg:d553fca6e528406f941920890a0b66ee,-81.59235,30.113819,121090208052,27,True,True,-81.6049058,30.0945873,Health and Personal Care Stores
597,sg:f1fc56af427442fc9174413009431eb0,-81.6312,30.135140000000003,121090208052,17,True,True,-81.6049058,30.0945873,Drinking Places (Alcoholic Beverages)
598,sg:82ef348f4f334acb93cd60ad7b80a6c5,-81.630877,30.185845,121090208052,4,True,False,-81.6049058,30.0945873,Offices of Dentists
599,sg:cb04c44e9d9a48b0a959d9fce10593a3,-81.553613,30.185701,121090208052,4,True,False,-81.6049058,30.0945873,Clothing Stores
600,sg:9da3c86b610c4eedb960174caa805f36,-81.592998,30.116469,121090208052,13,True,True,-81.6049058,30.0945873,Other Amusement and Recreation Industries
601,sg:74bfd712288548e3aa5ef524a7c18d0f,-81.621429,30.199240000000003,121090208052,5,True,False,-81.6049058,30.0945873,Other Miscellaneous Store Retailers
602,sg:6ac90eadc5524f89ba9b3427f1086d21,-81.624687,30.122782,121090208052,23,True,True,-81.6049058,30.0945873,Restaurants and Other Eating Places
603,sg:20772db31419467183df836cd10f0dc7,-81.547374,30.1759,121090208052,8,True,False,-81.6049058,30.0945873,Automobile Dealers
604,sg:dc86b14a89d44ba89976a832f91e675f,-81.73305699999999,30.340825,121090208052,4,True,False,-81.6049058,30.0945873,"Community Food and Housing, and Emergency and Other Relief Services"
605,sg:775c2a7d823c47f8852720ae67118a26,-81.571443,30.199378000000003,121090208052,5,True,False,-81.6049058,30.0945873,Medical and Diagnostic Laboratories
606,sg:1f3d004b449c41dc9aac75d3341b139d,-81.61389,30.291565000000002,121090208052,4,True,False,-81.6049058,30.0945873,Religious Organizations
607,sg:664e5dcc0bd3418c829f7ee0c53b0049,-81.58837700000001,30.086068,121090208052,102,True,True,-81.6049058,30.0945873,"Museums, Historical Sites, and Similar Institutions"
608,sg:ddc388da0dd34fb1a01bcfbf730dd35b,-81.631525,30.134673,121090208052,35,True,True,-81.6049058,30.0945873,Restaurants and Other Eating Places
609,sg:a23190256052421b902116951dabce4f,-81.625509,30.114458000000003,121090208052,9,True,False,-81.6049058,30.0945873,Other Miscellaneous Store Retailers
610,sg:8b29887df8af4357b1decc65e8df31da,-81.524906,30.256331,121090208052,5,True,False,-81.6049058,30.0945873,Clothing Stores
611,sg:ca49a659ae4f4a91bb8575d56d74ede1,-81.63208,30.151422999999998,121090208052,6,True,False,-81.6049058,30.0945873,Other Miscellaneous Store Retailers
612,sg:f20b2226c6bf4c03bf1da82cd5891991,-81.626918,30.120737,121090208052,23,True,True,-81.6049058,30.0945873,Restaurants and Other Eating Places
613,sg:9f404c7af7964cc4be7baf3116fe10ec,-81.743018,30.336959999999998,121090208052,4,True,False,-81.6049058,30.0945873,Building Material and Supplies Dealers
614,sg:9870d157b1c74cf2b5f687e73501b454,-81.594373,30.262256,121090208052,4,True,False,-81.6049058,30.0945873,"General Merchandise Stores, including Warehouse Clubs and Supercenters"
615,sg:4fbb55dc846c4f90bb87ea22a07284dd,-81.66246600000001,30.315768,121090208052,7,True,False,-81.6049058,30.0945873,Personal Care Services
616,sg:56c260e41c43491fb365881c94aaff14,-81.61447,30.085504999999998,121090208052,4,True,False,-81.6049058,30.0945873,Other Miscellaneous Store Retailers
617,sg:b19f2621b4144945b85602024ad42770,-81.633453,30.158684,121090208052,6,True,False,-81.6049058,30.0945873,Other Miscellaneous Store Retailers
618,sg:e7dcaac3b25145e68fba0e5bff055ee3,-81.626646,30.119311,121090208052,193,True,True,-81.6049058,30.0945873,Lessors of Real Estate
619,sg:f8aabfc3eca44282b6be09500e8f2f83,-81.63385799999999,30.148290000000003,121090208052,23,True,True,-81.6049058,30.0945873,Lessors of Real Estate
620,sg:abf7fe17fba34e86be008c650f9583a9,-81.633095,30.142077,121090208052,4,True,False,-81.6049058,30.0945873,Automotive Repair and Maintenance
621,sg:6dbc6820e52d416f8b88b43d9eeb5f68,-81.554202,30.184976000000002,121090208052,10,True,False,-81.6049058,30.0945873,"General Merchandise Stores, including Warehouse Clubs and Supercenters"
622,sg:38d272f1d1194867849544356b896e9d,-81.54706800000001,30.172715999999998,121090208052,8,True,False,-81.6049058,30.0945873,Automobile Dealers
623,sg:d0e69386dd4545b888bce6e20bf7bec7,-81.721727,30.319951,121090208052,5,True,False,-81.6049058,30.0945873,Building Material and Supplies Dealers
624,sg:2522be2797ed4f8a9cc579230628cf58,-81.621003,30.196543,121090208052,4,True,False,-81.6049058,30.0945873,Personal Care Services
625,sg:efe3c9da2a9340b081549c803bdcabe5,-81.62684399999999,30.118927000000003,121090208052,67,True,True,-81.6049058,30.0945873,Other Amusement and Recreation Industries
626,sg:afb536b11f4541648801c85797e5cb29,-81.6338,30.158551,121090208052,12,True,False,-81.6049058,30.0945873,Other Amusement and Recreation Industries
627,sg:a6dcfb121a41480b83bf477143172562,-81.619738,30.195566999999997,121090208052,4,True,False,-81.6049058,30.0945873,Lumber and Other Construction Materials Merchant Wholesalers
628,sg:0c3e07e303a54f05a4cb3b60094c207e,-81.515713,30.297798999999998,121090208052,5,True,False,-81.6049058,30.0945873,Services to Buildings and Dwellings
629,sg:7d8ddcc2c07c433a979160f51a7249c9,-81.626186,30.117939,121090208052,4,True,False,-81.6049058,30.0945873,Depository Credit Intermediation
630,sg:38ce9c8f6fd94d66bba7bdaa10092249,-81.601042,30.287298999999997,121090208052,12,True,False,-81.6049058,30.0945873,Offices of Physicians
631,sg:e6e59c326ce54651a245b3387347a0c0,-81.625641,30.173302000000003,121090208052,24,True,True,-81.6049058,30.0945873,Other Amusement and Recreation Industries
632,sg:b2f30df87e5b4373b84db187e1a39eeb,-81.63196500000001,30.141759000000004,121090208052,20,True,True,-81.6049058,30.0945873,Restaurants and Other Eating Places
633,sg:acea49b1faa14900b6b07a4909015d05,-81.550816,30.187246999999996,121090208052,6,True,False,-81.6049058,30.0945873,Building Material and Supplies Dealers
634,sg:3a326e7d38ec4d96903cc553ae1e37da,-81.566009,30.215109,121090208052,19,True,True,-81.6049058,30.0945873,Other Amusement and Recreation Industries
635,sg:3871c0c544b24e828cd5c391fd3960a1,-81.631599,30.166519,121090208052,14,True,True,-81.6049058,30.0945873,Restaurants and Other Eating Places
636,sg:7264887e0a5644ddaa3b39e785ab3514,-81.597598,30.186145,121090208052,4,True,False,-81.6049058,30.0945873,Home Furnishings Stores
637,sg:d2ed4bf32892434abe58c8e6fb405429,-81.451572,30.322002,121090208052,4,True,False,-81.6049058,30.0945873,Health and Personal Care Stores
638,sg:5cab5d99f8d446ba9fdc9b39d3050c96,-81.554763,30.185779999999998,121090208052,21,True,True,-81.6049058,30.0945873,Department Stores
639,sg:88765200ec23461bbd3a96a8151f66b9,-81.647702,30.075468,121090208052,4,True,False,-81.6049058,30.0945873,Other Amusement and Recreation Industries
640,sg:88e3b43f9583425ea433e05c6766209f,-81.633764,30.158739,121090208052,22,True,True,-81.6049058,30.0945873,Other Amusement and Recreation Industries
641,sg:78e524c310ed411b9b68a5e2a737a281,-81.62624699999999,30.121996000000003,121090208052,36,True,True,-81.6049058,30.0945873,Health and Personal Care Stores
642,sg:74923408b0454f938a02bce2187c2ef2,-81.632048,30.146781,121090208052,12,True,False,-81.6049058,30.0945873,Restaurants and Other Eating Places
643,sg:64b62c2ebfa0457c9cc45351b0cf0433,-81.5872,30.225153999999996,121090208052,5,True,False,-81.6049058,30.0945873,Personal Care Services
644,sg:deb6021aa546451abb347898d82847ae,-81.618927,30.199646,121090208052,19,True,True,-81.6049058,30.0945873,Restaurants and Other Eating Places
645,sg:f17312e244914c40af5751cde7a4002b,-81.63130600000001,30.166897,121090208052,5,True,False,-81.6049058,30.0945873,Electronics and Appliance Stores
646,sg:02f96e5d86a24127864ce5f3a3ddc796,-81.62615500000001,30.173246000000002,121090208052,113,True,True,-81.6049058,30.0945873,Lessors of Real Estate
647,sg:2adac9dbe40347eeaabd327f12f85bc1,-81.63325,30.141334999999998,121090208052,23,True,True,-81.6049058,30.0945873,"Automotive Parts, Accessories, and Tire Stores"
648,sg:c339a845ad8244fe87eb9042b606b2c4,-81.619447,30.197007,121090208052,4,True,False,-81.6049058,30.0945873,Other Amusement and Recreation Industries
649,sg:4843ac90658048f5adafd18b0363d097,-81.627627,30.172024,121090208052,16,True,True,-81.6049058,30.0945873,"General Merchandise Stores, including Warehouse Clubs and Supercenters"
650,sg:65972426765b4d72af99e6ba0780c654,-81.52220600000001,30.092722,121090208052,39,True,True,-81.6049058,30.0945873,Restaurants and Other Eating Places
651,sg:d7d6dc8df2e84a33802f38febbe8d5ce,-81.625268,30.177566,121090208052,41,True,True,-81.6049058,30.0945873,"General Merchandise Stores, including Warehouse Clubs and Supercenters"
652,sg:07c2f077d896479a9af30fec6d1d52d9,-81.626115,30.177388,121090208052,68,True,True,-81.6049058,30.0945873,Lessors of Real Estate
653,sg:8dd8c3ad54c74bf4a987e1e11e32c48d,-81.630499,30.179983,121090208052,7,True,False,-81.6049058,30.0945873,Other Amusement and Recreation Industries
654,sg:2a7107ece1e24d15b4ff2977ecf096c3,-81.601698,30.165156,121090208052,7,True,False,-81.6049058,30.0945873,Gasoline Stations
655,sg:2241ca7f16f94547bf59d8eec789610f,-81.631695,30.135831,121090208052,18,True,True,-81.6049058,30.0945873,Grocery Stores
656,sg:38bd7d58c7ce422084e1699d802e7d5f,-81.52484100000001,30.260098,121090208052,4,True,False,-81.6049058,30.0945873,Health and Personal Care Stores
657,sg:2d5b899ac08d45d7b538b6b7c078de68,-81.632478,30.142706,121090208052,7,True,False,-81.6049058,30.0945873,"Sporting Goods, Hobby, and Musical Instrument Stores"
658,sg:6715db6cf5b04273bb1aae91a06a438d,-81.629582,30.174118,121090208052,63,True,True,-81.6049058,30.0945873,Lessors of Real Estate
659,sg:22e02e701e594bd991d9c5b3902ab819,-81.589505,30.224231,121090208052,26,True,True,-81.6049058,30.0945873,"General Merchandise Stores, including Warehouse Clubs and Supercenters"
660,sg:a8ce0a5ad2ae4875ba76e27300adb446,-81.55117800000001,30.213856,121090208052,4,True,False,-81.6049058,30.0945873,Child Day Care Services
661,sg:bf85063289e84e198e9364098cf23cc7,-81.62939399999999,30.187952000000003,121090208052,30,True,True,-81.6049058,30.0945873,Lessors of Real Estate
662,sg:79a5a4b8c3f7462abcb8ed1d7bcafb1b,-81.63428,30.148411,121090208052,7,True,False,-81.6049058,30.0945873,Department Stores
663,sg:4055216377ad4975acf64f81b4805cac,-81.73805899999999,30.269399,121090208052,4,True,False,-81.6049058,30.0945873,Offices of Dentists
664,sg:7c05f76781ae464e86f3f6a78a369d1b,-81.651461,30.375187,120310111001,4,True,False,-81.67391070000001,30.398362300000002,"General Merchandise Stores, including Warehouse Clubs and Supercenters"
665,sg:5a1672a0a72a4b74b96d26f13f9c3540,-81.656962,30.363053000000004,120310111001,5,True,False,-81.67391070000001,30.398362300000002,Religious Organizations
666,sg:a675be0597904824a11c5f8e6e1a19b7,-81.671614,30.3969,120310111001,9,True,False,-81.67391070000001,30.398362300000002,"Museums, Historical Sites, and Similar Institutions"
667,sg:253aed646ebe48908913158533b3f4f3,-81.591904,30.234571999999996,120310111001,4,True,False,-81.67391070000001,30.398362300000002,Drycleaning and Laundry Services
668,sg:aea92eee6b964967bd85687faf4775e7,-81.689389,30.409534999999998,120310111001,4,True,False,-81.67391070000001,30.398362300000002,Child Day Care Services
669,sg:906b7f4e91f54fe79fa0941fce0d0482,-81.713824,30.407587,120310111001,4,True,False,-81.67391070000001,30.398362300000002,Religious Organizations
670,sg:a81faf272f574bfe868cd9aa8c9d5325,-81.65655699999999,30.385357,120310111001,4,True,False,-81.67391070000001,30.398362300000002,Restaurants and Other Eating Places
671,sg:98c18d25ed0640efb83c168e8171f34d,-81.641641,30.477323,120310111001,4,True,False,-81.67391070000001,30.398362300000002,Clothing Stores
