,safegraph_place_id,longitude,latitude,cbg,visits,hotspot_origin,hotspot_destination,cbg_longitude,cbg_latitude,top_category
0,sg:28f98112fff3494f8c43691f22d51b65,-97.376951,32.639979,484391042022,4,True,False,-97.36963420000001,32.690415,Religious Organizations
1,sg:331ee554909b48e898c90f064bc65b35,-97.335317,32.739069,484391042022,4,True,False,-97.36963420000001,32.690415,Religious Organizations
2,sg:bed93a37d79d42ee84fd70f5bb25634e,-97.35088,32.684197,484391042022,7,True,True,-97.36963420000001,32.690415,Restaurants and Other Eating Places
3,sg:27be49e299454311887b7807dc495556,-97.37620600000001,32.671535999999996,484391042022,6,True,True,-97.36963420000001,32.690415,Health and Personal Care Stores
4,sg:a71a03f764fe4d1c81405b2d312c88b8,-97.37416,32.680908,484391042022,6,True,True,-97.36963420000001,32.690415,Restaurants and Other Eating Places
5,sg:85620ecc4b4e41c198251a3cdf942716,-97.35260500000001,32.748706,484391042022,6,True,True,-97.36963420000001,32.690415,Traveler Accommodation
6,sg:2d652e51a8c24ebd9f782058fdcc50a3,-97.393244,32.678783,484391026022,4,True,False,-97.3772624,32.7286221,Electronics and Appliance Stores
7,sg:378d1725e9274d0697b582d6b6bbbc77,-97.372116,32.731952,484391026022,11,True,True,-97.3772624,32.7286221,Restaurants and Other Eating Places
8,sg:39fe537a31fa430aa1af8c33bd6d4ad3,-97.361838,32.730272,484391026022,5,True,True,-97.3772624,32.7286221,Restaurants and Other Eating Places
9,sg:97ff6eef8edd453d81d2300642eb96f1,-97.290087,32.930477,484391026022,4,True,False,-97.3772624,32.7286221,"Automotive Parts, Accessories, and Tire Stores"
10,sg:9c9d932957f148a1a0aaf121e3dcafea,-97.388438,32.731558,484391026022,5,True,True,-97.3772624,32.7286221,Shoe Stores
11,sg:48859f4ff60848e79f527410c2541d19,-97.447402,32.722284,484391026022,6,True,True,-97.3772624,32.7286221,"Automotive Parts, Accessories, and Tire Stores"
12,sg:0b3833ec7cd54496818a1e52b702c618,-97.386409,32.723994,484391026022,4,True,False,-97.3772624,32.7286221,Offices of Dentists
13,sg:5c3eb0cbd4064e6898447d4cbce8eab4,-97.37683,32.727688,484391026022,4,True,False,-97.3772624,32.7286221,Building Material and Supplies Dealers
14,sg:4b17e0c657154ff890be176658846130,-97.378132,32.72691,484391026022,4,True,False,-97.3772624,32.7286221,Restaurants and Other Eating Places
15,sg:07db6a6278f74df091a172b0b9cd86cb,-97.34343199999999,32.715021,484391026022,4,True,False,-97.3772624,32.7286221,Home Health Care Services
16,sg:386f42c77bf94f968eb2512fa19529d0,-97.388441,32.728777,484391026022,9,True,True,-97.3772624,32.7286221,Restaurants and Other Eating Places
17,sg:1ca1102bb30044be8a6b4e41fc769d1f,-97.38508900000001,32.71156,484391026022,4,True,False,-97.3772624,32.7286221,Other Amusement and Recreation Industries
18,sg:80eeb9517f8b40a59a64902dcbcdbe48,-97.33037,32.733815,484391026022,4,True,False,-97.3772624,32.7286221,Nondepository Credit Intermediation
19,sg:d51f1926af234addbfb73db615b27799,-97.323634,32.761179999999996,484391026022,5,True,True,-97.3772624,32.7286221,Other Miscellaneous Store Retailers
20,sg:57e6243b34ef403bb9d4626861c67116,-97.39019499999999,32.704231,484391026022,4,True,False,-97.3772624,32.7286221,Offices of Real Estate Agents and Brokers
21,sg:2dcbb58f3e154a9f8de630092cf30201,-97.28824,32.872467,484391139181,4,True,False,-97.2870554,32.8672487,"General Merchandise Stores, including Warehouse Clubs and Supercenters"
22,sg:8e7eb147ab904702a446a785f5391e44,-97.289379,32.866113,484391139181,14,True,True,-97.2870554,32.8672487,Traveler Accommodation
23,sg:303fc54d9b274e3e9aebf136d855d298,-97.290277,32.867511,484391139181,6,True,True,-97.2870554,32.8672487,Depository Credit Intermediation
24,sg:be5a295bcd024775b733d01654caf5cd,-97.289743,32.871928000000004,484391139181,5,True,True,-97.2870554,32.8672487,Health and Personal Care Stores
25,sg:ce3a53565ace48a9a8558f8efe912a8a,-97.288885,32.872971,484391139181,11,True,True,-97.2870554,32.8672487,Lessors of Real Estate
26,sg:4dae2be39d3f42e995db74fe254d29b6,-97.314683,32.869403000000005,484391139181,4,True,False,-97.2870554,32.8672487,Automotive Repair and Maintenance
27,sg:2eb6b9a01da4460eb80b87904dc47487,-97.358104,32.79453,484391139181,4,True,False,-97.2870554,32.8672487,Personal Care Services
28,sg:ba7137925e0348ec894a488784e43b7e,-97.236333,32.701581,484391139181,4,True,False,-97.2870554,32.8672487,Child Day Care Services
29,sg:5491dad9db31444f8903519232e0fa19,-97.291097,32.858565000000006,484391139181,8,True,True,-97.2870554,32.8672487,Offices of Dentists
30,sg:110980002ca74756a2d90d3a7bd9fbb6,-97.28568100000001,32.866391,484391139181,4,True,False,-97.2870554,32.8672487,"Sporting Goods, Hobby, and Musical Instrument Stores"
31,sg:66f6f2216fc64a08b0f16283e2b66d6a,-97.432057,32.820528,484391139181,4,True,False,-97.2870554,32.8672487,Building Material and Supplies Dealers
32,sg:91fc15e3e07c4c72a838e65cdb70c617,-97.291146,32.860607,484391139181,19,True,True,-97.2870554,32.8672487,Restaurants and Other Eating Places
33,sg:fceadf8f98f14be882bf4d3eaf99353d,-97.291203,32.86319,484391139181,4,True,False,-97.2870554,32.8672487,Other Miscellaneous Store Retailers
34,sg:3a247fa8ea514f10abc69947cbf8febb,-97.38152,32.64124,484391048022,4,False,False,-97.3564441,32.6744726,Building Material and Supplies Dealers
35,sg:bf4a8085c9ee42a38f8f8647d9fc1c60,-97.433909,32.703164,484391048022,4,False,False,-97.3564441,32.6744726,Other Financial Investment Activities
36,sg:9973b7fd3727400593765563ceb5d864,-97.360097,32.707333,484391048022,5,False,True,-97.3564441,32.6744726,Restaurants and Other Eating Places
37,sg:cd07290408f640dcb883abe50de4ffb3,-97.331912,32.708828999999994,484391048022,9,False,True,-97.3564441,32.6744726,Grocery Stores
38,sg:4202b7910d8e41a4abdb0c7415cd4e1e,-97.301288,32.766389000000004,484391048022,4,False,False,-97.3564441,32.6744726,"Beer, Wine, and Liquor Stores"
39,sg:3f9e9e2da7174e2ba74f9f0bcf34e257,-97.311824,32.824856,484391132201,5,False,True,-97.2081177,32.8452488,Gasoline Stations
40,sg:71d352c5e5594c0b9a6bc226df0781e5,-97.30767800000001,32.957699,484391132201,6,False,True,-97.2081177,32.8452488,Restaurants and Other Eating Places
41,sg:d897dab8939c47f29fb593784f4b8be4,-97.34405,32.725946,484391132201,4,False,False,-97.2081177,32.8452488,Automobile Dealers
42,sg:ff1188c0c451497e8278c01e428f9614,-97.353441,32.80092,484391132201,4,False,False,-97.2081177,32.8452488,Automotive Repair and Maintenance
43,sg:400ef64dba5a41349b32432904c3034f,-97.245639,32.731533,484391062014,4,False,False,-97.2582282,32.7046808,Grocery Stores
44,sg:ed098e2a95294469be6db005370c0cbb,-97.252741,32.699542,484391062014,5,False,True,-97.2582282,32.7046808,Religious Organizations
45,sg:86fe476abf3c4ad188adb96374e4f821,-97.258975,32.909799,484391062014,4,False,False,-97.2582282,32.7046808,Other Amusement and Recreation Industries
46,sg:9006a5277bfc4a92a18ce048f0a1f756,-97.260837,32.90992,484391062014,4,False,False,-97.2582282,32.7046808,Other Miscellaneous Store Retailers
47,sg:520177a1e60643e08b6829610e0e3ef0,-97.40294,32.663686,484391055073,4,True,False,-97.4402647,32.66153,Restaurants and Other Eating Places
48,sg:f8f0b989df804c83835424d0530cd5c7,-97.331754,32.754909000000005,484391055073,4,True,False,-97.4402647,32.66153,Restaurants and Other Eating Places
49,sg:b31198251fcb471f98542cf08db493e5,-97.423477,32.661889,484391055073,12,True,True,-97.4402647,32.66153,Health and Personal Care Stores
50,sg:1cde2af974a44844a6fbf2e4e723bd7f,-97.41556800000001,32.677432,484391055073,19,True,True,-97.4402647,32.66153,Restaurants and Other Eating Places
51,sg:85bcf0a5b0f04b8f9306c827c48e429c,-97.421649,32.662302000000004,484391055073,9,True,True,-97.4402647,32.66153,Gasoline Stations
52,sg:7c80c420590c499f9355278463b79a07,-97.37686500000001,32.744488,484391055073,5,True,True,-97.4402647,32.66153,Clothing Stores
53,sg:ed0d764ed13c46e791328b67844113db,-97.39442,32.737965,484391055073,4,True,False,-97.4402647,32.66153,Offices of Dentists
54,sg:b4c0c84f32104cf3a6a5000f041f4e87,-97.430134,32.654752,484391055073,4,True,False,-97.4402647,32.66153,"Other Professional, Scientific, and Technical Services"
55,sg:51d18492d64240cdae3a997c76a331ee,-97.435564,32.658454,484391055073,17,True,True,-97.4402647,32.66153,"Museums, Historical Sites, and Similar Institutions"
56,sg:9b754fbd13d642038aa8336f6ca86f20,-97.357748,32.706278999999995,484391055073,4,True,False,-97.4402647,32.66153,Restaurants and Other Eating Places
57,sg:12ef5049c2864d608eee79b3feb7f396,-97.438017,32.658823,484391055073,87,True,True,-97.4402647,32.66153,Other Amusement and Recreation Industries
58,sg:b9688a4196c54edebac409f6a66498af,-97.40301,32.658609000000006,484391055073,4,True,False,-97.4402647,32.66153,Other Amusement and Recreation Industries
59,sg:5ed642c8fda6417c9f1c0389ada3d845,-97.3991,32.668742,484391055073,4,True,False,-97.4402647,32.66153,Other Financial Investment Activities
60,sg:c487ac3b50d74f56bbccefbf3e82e5da,-97.333725,32.754397,484391055073,4,True,False,-97.4402647,32.66153,Traveler Accommodation
61,sg:606010e4e869401eaf8ae20a19bd34df,-97.42134,32.66128,484391055073,18,True,True,-97.4402647,32.66153,Restaurants and Other Eating Places
62,sg:2cf4070e1fed43f6847e7327eb1858d2,-97.428443,32.657545,484391055073,4,True,False,-97.4402647,32.66153,Child Day Care Services
63,sg:46aa551407924d9dabc31651655eff0b,-97.40605,32.651188,484391055073,4,True,False,-97.4402647,32.66153,Offices of Physicians
64,sg:ab3486381cd74e429875fc66364dbe7a,-97.419785,32.663003,484391055073,37,True,True,-97.4402647,32.66153,Grocery Stores
65,sg:ca9b1fe8793b4e43a630c9248935de31,-97.330337,32.751455,484391055073,4,True,False,-97.4402647,32.66153,Restaurants and Other Eating Places
66,sg:da4936eb01fb48229d9f851a844b6613,-97.416802,32.664778999999996,484391055073,4,True,False,-97.4402647,32.66153,Offices of Physicians
67,sg:2c25fa4dbe9c4951b0e2de14c8ab9d6b,-97.340814,32.730878000000004,484391055073,5,True,True,-97.4402647,32.66153,Restaurants and Other Eating Places
68,sg:1a8984539ff7408096135360b1e6a410,-97.388388,32.704527,484391055073,4,True,False,-97.4402647,32.66153,Depository Credit Intermediation
69,sg:a7977eed8ffc46f880a1c961e10c6381,-97.39506,32.680353000000004,484391055073,6,True,True,-97.4402647,32.66153,Restaurants and Other Eating Places
70,sg:7daab8df1f86464297732947f0e2aa1b,-97.316076,32.906465999999995,481210203072,5,True,True,-97.22233659999999,33.0422947,Restaurants and Other Eating Places
71,sg:84c1c5d8c82e422d9b82dfa13ba6e041,-97.42767099999999,32.818793,481210203072,4,True,False,-97.22233659999999,33.0422947,Child Day Care Services
72,sg:57236b3f147748f098d3f3175f35ee9a,-97.27816,33.032477,481210203072,4,True,False,-97.22233659999999,33.0422947,Health and Personal Care Stores
73,sg:786a612e5cf549179216a7043d6ee61a,-97.30378,32.770598,481210203072,4,True,False,-97.22233659999999,33.0422947,Postal Service
74,sg:154705db598b4aef9e41a251a5d98df5,-97.36349200000001,32.75247,481210203072,4,True,False,-97.22233659999999,33.0422947,Depository Credit Intermediation
75,sg:3a8e812d3bb04a3191756e069799c638,-97.38418399999999,32.711512,481210203072,4,True,False,-97.22233659999999,33.0422947,Home Health Care Services
76,sg:c902253488764587979163fe16506521,-97.37640999999999,32.651064,481210203072,5,True,True,-97.22233659999999,33.0422947,Gasoline Stations
77,sg:14004abe5477423dad2ff64283393d84,-97.370135,32.638329999999996,481210203072,5,True,True,-97.22233659999999,33.0422947,Automotive Repair and Maintenance
78,sg:c418d9bf42764e36a2e70dd8e8c747d8,-97.260542,32.910927,481210203072,4,True,False,-97.22233659999999,33.0422947,"Sporting Goods, Hobby, and Musical Instrument Stores"
79,sg:59838889492f4f1ba82cbf49b2f63390,-97.309493,32.907242,481210203072,4,True,False,-97.22233659999999,33.0422947,Personal Care Services
80,sg:5f2e7d74c38c4d3fb371f7cec11b5dfb,-97.33895600000001,32.735851000000004,481210203072,4,True,False,-97.22233659999999,33.0422947,Offices of Physicians
81,sg:ecc323310d744ea786ea79706148313c,-97.342134,32.688462,481210203072,4,True,False,-97.22233659999999,33.0422947,Religious Organizations
82,sg:80e0b84db51049c8af278783bdc4f582,-97.337724,32.685028,481210203052,4,False,False,-97.1845276,33.0011651,Gasoline Stations
83,sg:97b2f6e183eb4444b459461693d7ecda,-97.351218,32.79476,484391140075,4,True,False,-97.42209129999999,32.8432657,Grocery Stores
84,sg:92e82fed48754f4980899add8ea890a3,-97.34674100000001,32.778306,484391140075,4,True,False,-97.42209129999999,32.8432657,Restaurants and Other Eating Places
85,sg:157b621c68f744d99df3956efc13d8a2,-97.340408,32.747106,484391140075,4,True,False,-97.42209129999999,32.8432657,Child Day Care Services
86,sg:43ceb5d196834295a6f1265673b16cc0,-97.308357,32.937455,484391140075,6,True,True,-97.42209129999999,32.8432657,Child Day Care Services
87,sg:875634337aff475e92a731c94e4925d7,-97.435744,32.746608,484391140075,4,True,False,-97.42209129999999,32.8432657,Furniture Stores
88,sg:d1ddee9403744c9787ad070b29b3ea83,-97.35185200000001,32.805325,484391140075,7,True,True,-97.42209129999999,32.8432657,Lessors of Real Estate
89,sg:74e73e1321a34af8a842b0aec7eae151,-97.424818,32.846784,484391140075,5,True,True,-97.42209129999999,32.8432657,"Sporting Goods, Hobby, and Musical Instrument Stores"
90,sg:1fa035a9c21944b598e616c02eb7b84c,-97.360428,32.750394,484391140075,4,True,False,-97.42209129999999,32.8432657,Restaurants and Other Eating Places
91,sg:170194e223bf4b9c96139f2a102c179c,-97.424603,32.836738000000004,484391140075,13,True,True,-97.42209129999999,32.8432657,Grocery Stores
92,sg:7fb9bebaf651444eb627e0d5943ae513,-97.319073,32.860468,484391140075,4,True,False,-97.42209129999999,32.8432657,Automotive Repair and Maintenance
93,sg:2f379fd352bf439f973a3e3120d0f8ed,-97.30993199999999,32.930769,484391140075,5,True,True,-97.42209129999999,32.8432657,Offices of Physicians
94,sg:529bbb1f026b40b58ab494e4d191e404,-97.34966,32.793768,484391140075,6,True,True,-97.42209129999999,32.8432657,"Beer, Wine, and Liquor Stores"
95,sg:fa99175f6f854dc7b64af85b0e39817b,-97.479739,32.72806,484391140075,4,True,False,-97.42209129999999,32.8432657,Other Motor Vehicle Dealers
96,sg:eb4b8156de19499ba31dea378b640eba,-97.237481,32.719635,484391140075,4,True,False,-97.42209129999999,32.8432657,Elementary and Secondary Schools
97,sg:72a8d701b64d424898e66bd1ba316cc9,-97.424563,32.850082,484391140075,4,True,False,-97.42209129999999,32.8432657,Automotive Repair and Maintenance
98,sg:ea46bd089014470b838f1a9ebcba3e2b,-97.428658,32.723696000000004,484391140075,4,True,False,-97.42209129999999,32.8432657,Restaurants and Other Eating Places
99,sg:e7818ff1ff7f484092bbbcf3bbc68d10,-97.394032,32.685571,484391140075,4,True,False,-97.42209129999999,32.8432657,"Agencies, Brokerages, and Other Insurance Related Activities"
100,sg:9fe81de6c16e4fc5b712d31f2b0301c1,-97.355374,32.662894,484391023022,4,True,False,-97.4510819,32.696315399999996,"Beer, Wine, and Liquor Stores"
101,sg:c881c4ff790c443398ca3ddd2b3ec432,-97.44136800000001,32.728732,484391023022,4,True,False,-97.4510819,32.696315399999996,"Beer, Wine, and Liquor Stores"
102,sg:f542641714ec4c2caba90b790636f899,-97.446685,32.702125,484391023022,8,True,True,-97.4510819,32.696315399999996,Automotive Repair and Maintenance
103,sg:d2cee0a3092e41ed961ac67ed8e45330,-97.40110200000001,32.644783000000004,484391023022,4,True,False,-97.4510819,32.696315399999996,Religious Organizations
104,sg:e4a4f5719b154465b0d6bc0f247776b2,-97.450059,32.706003,484391023022,7,True,True,-97.4510819,32.696315399999996,"General Merchandise Stores, including Warehouse Clubs and Supercenters"
105,sg:ee57ca4e704d40489c4e19a047202045,-97.35690699999999,32.749876,484391023022,4,True,False,-97.4510819,32.696315399999996,"Beer, Wine, and Liquor Stores"
106,sg:a6d728c89bd946de82cfb28ef410a295,-97.386445,32.669881,484391055022,6,True,True,-97.3857316,32.6645496,"Sporting Goods, Hobby, and Musical Instrument Stores"
107,sg:04bfe483ddb44307ba077690380a3131,-97.366217,32.701306,484391055022,5,True,True,-97.3857316,32.6645496,Child Day Care Services
108,sg:5d118bdca9f7479c90be6e0f26249b1e,-97.344149,32.73209,484391055022,4,True,False,-97.3857316,32.6645496,Restaurants and Other Eating Places
109,sg:b7b72103a2ba4273aca3a43d0d63b62f,-97.332111,32.693101,484391055022,9,True,True,-97.3857316,32.6645496,Restaurants and Other Eating Places
110,sg:709ccfa0df7d459385a4a8aa96167d9e,-97.237278,32.713597,484391055022,4,True,False,-97.3857316,32.6645496,Home Health Care Services
111,sg:b00f8bd46dc646f7b845dbc33cda17ed,-97.294344,32.794523999999996,484391004003,4,False,False,-97.37158520000001,32.785265100000004,Automobile Dealers
112,sg:50204868cef44825ac429e254161335e,-97.370315,32.790795,484391004003,4,False,False,-97.37158520000001,32.785265100000004,Religious Organizations
113,sg:5d7e9b73c4af4cbfb763b533686a0f77,-97.405823,32.810793,484391004003,4,False,False,-97.37158520000001,32.785265100000004,Other Motor Vehicle Dealers
114,sg:b0d407d611ac422eb035e36603ad76d2,-97.41297800000001,32.700019,484391134031,4,False,False,-97.2006095,32.8261558,Restaurants and Other Eating Places
115,sg:71233b4f696044bebf48e12bb155e11f,-97.355676,32.676331,484391134031,4,False,False,-97.2006095,32.8261558,Religious Organizations
116,sg:db1e21c54b7f4f0ebab49179f710cb34,-97.344047,32.852088,483671404091,4,True,False,-97.6405195,32.906408,Other Amusement and Recreation Industries
117,sg:bc940e8c154f418b8098025cce6886df,-97.314195,32.763731,483671404091,4,True,False,-97.6405195,32.906408,Other Amusement and Recreation Industries
118,sg:c1b0ad8880b34b02a513ea6280d1b5db,-97.434064,32.816004,483671404091,4,True,False,-97.6405195,32.906408,Restaurants and Other Eating Places
119,sg:dbe9c8c6a7654fc7ab9cfb2b0dda0406,-97.35889499999999,32.766959,483671404091,4,True,False,-97.6405195,32.906408,Restaurants and Other Eating Places
120,sg:d3347e5cbd1f4091acd52e56be355329,-97.309113,32.773241999999996,483671404091,4,True,False,-97.6405195,32.906408,Used Merchandise Stores
121,sg:ad524b2af8d147e69b197901f777f3d3,-97.249321,32.794221,483671404091,4,True,False,-97.6405195,32.906408,Clothing Stores
122,sg:d350048cb6cc477faacc7ca97218bf87,-97.42716,32.806585999999996,483671404091,4,True,False,-97.6405195,32.906408,Electronics and Appliance Stores
123,sg:dc8604f7065147debb4bcd7bf567b5bc,-97.30963299999999,32.930797,482511303022,4,False,False,-97.432171,32.354100300000006,Offices of Physicians
124,sg:e10aa563c8194b08a00b08acadfe0575,-97.30964399999999,32.930807,482511303022,5,False,True,-97.432171,32.354100300000006,Medical and Diagnostic Laboratories
125,sg:3f028da0ef654a7ba0d1c1f9072594fc,-97.32985500000001,32.752024,482511303022,4,False,False,-97.432171,32.354100300000006,Restaurants and Other Eating Places
126,sg:e30208be01ee44f19d9b275ed7465359,-97.408109,32.735307,484391230001,4,True,False,-97.4123181,32.7438397,Offices of Dentists
127,sg:11e7c09938a742f78250bb0afe772398,-97.400906,32.734401,484391230001,5,True,True,-97.4123181,32.7438397,Restaurants and Other Eating Places
128,sg:cea42a543dc04dd795c8ac430ebc7079,-97.413329,32.742391999999995,484391230001,4,True,False,-97.4123181,32.7438397,Offices of Dentists
129,sg:072ca87c3e1e4bc2aa9a6fb1a86c957b,-97.356099,32.748092,484391230001,4,True,False,-97.4123181,32.7438397,Other Miscellaneous Manufacturing
130,sg:d895fc50fd94494caa52f2e00b6ca687,-97.368246,32.731076,484391230001,5,True,True,-97.4123181,32.7438397,Offices of Physicians
131,sg:b9fdf72ba61e43ffaa2a59adad02cba8,-97.358683,32.751375,484391230001,6,True,True,-97.4123181,32.7438397,Restaurants and Other Eating Places
132,sg:e679484cf3094f8e9d654656c28b90f2,-97.26821600000001,32.875233,484391139242,4,True,False,-97.3023243,32.8818945,Personal Care Services
133,sg:0d358ec558484289aaf1840044c45d29,-97.326092,32.941412,484391139242,4,True,False,-97.3023243,32.8818945,Electronics and Appliance Stores
134,sg:f1f6be0803df4f358e6c9e05682566b3,-97.290596,32.873773,484391139242,4,True,False,-97.3023243,32.8818945,"Automotive Parts, Accessories, and Tire Stores"
135,sg:7ca7116c0c0c4543b44d9ac075c8ee4f,-97.305584,32.881434999999996,484391139242,4,True,False,-97.3023243,32.8818945,Elementary and Secondary Schools
136,sg:daefd10662d346258df2f6bccdab000d,-97.299098,32.886463,484391139242,4,True,False,-97.3023243,32.8818945,Religious Organizations
137,sg:e87c5bb440794f9ea23e40ee7d087e63,-97.32504399999999,32.941765999999994,484391139242,4,True,False,-97.3023243,32.8818945,Other Miscellaneous Manufacturing
138,sg:cf6f50ed95e3470e9e952816c90d003d,-97.289276,32.861534000000006,484391139242,4,True,False,-97.3023243,32.8818945,Offices of Dentists
139,sg:616490b1efcd48fc93b919bdc13012af,-97.311953,32.911896,484391139242,4,True,False,-97.3023243,32.8818945,Clothing Stores
140,sg:522d241e567343ffa232ec491609ef59,-97.325288,32.942566,484391139242,4,True,False,-97.3023243,32.8818945,Support Activities for Road Transportation
141,sg:15b4ee61f9e7400fb39a1ec5acc07c88,-97.30233,32.872381,484391139242,8,True,True,-97.3023243,32.8818945,Grocery Stores
142,sg:948a1bf8a55741fea794c9d5175c8f95,-97.313629,32.906374,484391139242,4,True,False,-97.3023243,32.8818945,Motion Picture and Video Industries
143,sg:04f73e69e91d4686aa53718dd488bc0f,-97.345455,32.673041,484391048023,4,True,False,-97.35002359999999,32.6731984,Elementary and Secondary Schools
144,sg:b7be1bba22464f4e837b225ffb8c256d,-97.337851,32.729623,484391048023,4,True,False,-97.35002359999999,32.6731984,Home Furnishings Stores
145,sg:7fde5427050141cfacec1dd6517a002d,-97.35031500000001,32.684761,484391048023,10,True,True,-97.35002359999999,32.6731984,Restaurants and Other Eating Places
146,sg:68bcb707b0db4acc916f0d4578ccf1a0,-97.298743,32.794853,484391048023,5,True,True,-97.35002359999999,32.6731984,
147,sg:704125b6a39f41e59d165e25d1d59009,-97.333558,32.734272999999995,484391048023,4,True,False,-97.35002359999999,32.6731984,Medical and Diagnostic Laboratories
148,sg:9a56c05555b3407fa7e8d3e731cc4cc2,-97.34468000000001,32.668188,484391048023,4,True,False,-97.35002359999999,32.6731984,"Automotive Parts, Accessories, and Tire Stores"
149,sg:2d3fe5553edc47d4a92d4634e568b62b,-97.44733599999999,32.723185,484391023012,4,True,False,-97.44605290000001,32.726884999999996,Restaurants and Other Eating Places
150,sg:591f7b1888f7467db447e3cc6ddee203,-97.445325,32.719446999999995,484391023012,4,True,False,-97.44605290000001,32.726884999999996,Child Day Care Services
151,sg:f83d15e032a744fdba3a4b5ff60cec17,-97.50562099999999,32.724022999999995,484391023012,6,True,True,-97.44605290000001,32.726884999999996,Other Amusement and Recreation Industries
152,sg:a3519796ce9145a39ece8cc2e9997231,-97.445454,32.723632,484391023012,5,True,True,-97.44605290000001,32.726884999999996,Building Material and Supplies Dealers
153,sg:19e621715f6345b08d47a61599a1498f,-97.451365,32.723484,484391023012,4,True,False,-97.44605290000001,32.726884999999996,"Automotive Parts, Accessories, and Tire Stores"
154,sg:04bd92466d93438f9caa8edae54f763c,-97.44143000000001,32.733131,484391023012,8,True,True,-97.44605290000001,32.726884999999996,Gasoline Stations
155,sg:7f68b016ec3348e0b8d0f4b14b007530,-97.221484,32.745753,484391023012,5,True,True,-97.44605290000001,32.726884999999996,Restaurants and Other Eating Places
156,sg:865d2cf5b16d499b924944fbbe5b13cf,-97.45044200000001,32.723416,484391023012,4,True,False,-97.44605290000001,32.726884999999996,Gasoline Stations
157,sg:fba8519f97384483ad18f4467a623dc9,-97.44044699999999,32.72071,484391023012,4,True,False,-97.44605290000001,32.726884999999996,Restaurants and Other Eating Places
158,sg:b4ad7c26f14f4c6a86b75e7a098fb4dc,-97.467752,32.735893,484391023012,5,True,True,-97.44605290000001,32.726884999999996,Offices of Dentists
159,sg:0808674caafb4b10803af95d34ebab11,-97.447311,32.710726,484391023012,4,True,False,-97.44605290000001,32.726884999999996,Restaurants and Other Eating Places
160,sg:3b5ebdef2e9e4a26aa21095a87c66b49,-97.445881,32.721903999999995,484391023012,7,True,True,-97.44605290000001,32.726884999999996,Traveler Accommodation
161,sg:2296f5b30f4543e39d5125977a5155e7,-97.462036,32.723642,484391023012,5,True,True,-97.44605290000001,32.726884999999996,"Sporting Goods, Hobby, and Musical Instrument Stores"
162,sg:b18e7dbbe4b24ec4b345098863226063,-97.44830300000001,32.723093,484391023012,21,True,True,-97.44605290000001,32.726884999999996,"Automotive Parts, Accessories, and Tire Stores"
163,sg:f0262edb86bb47d9a5ff46c60014b27b,-97.428026,32.724129,484391023012,4,True,False,-97.44605290000001,32.726884999999996,Lessors of Real Estate
164,sg:d149f0d126224b3884dfa80405c5aa9f,-97.44097,32.743739,484391023012,4,True,False,-97.44605290000001,32.726884999999996,Specialty Food Stores
165,sg:cc81c71c86e9498992246cdcc357cf09,-97.443175,32.721599,484391023012,4,True,False,-97.44605290000001,32.726884999999996,Personal and Household Goods Repair and Maintenance
166,sg:f7f60443030c4f76978ab98c98e0daf4,-97.45026700000001,32.733336,484391023012,4,True,False,-97.44605290000001,32.726884999999996,Grocery Stores
167,sg:f778c30b85374b0ab4c7b923bbaae8ff,-97.458422,32.722736,484391023012,4,True,False,-97.44605290000001,32.726884999999996,Individual and Family Services
168,sg:583d53f5a01c435092678ec7b62aa49d,-97.480237,32.731077,483671407051,4,False,False,-97.69833709999999,32.767402000000004,Automotive Equipment Rental and Leasing
169,sg:dfed4c464580455694f63d90e440a528,-97.247037,32.694902,483671407051,4,False,False,-97.69833709999999,32.767402000000004,Building Equipment Contractors
170,sg:5dc37216629644ebabb1e9cff2dd3575,-97.354912,32.757715999999995,483671407051,5,False,True,-97.69833709999999,32.767402000000004,Other Amusement and Recreation Industries
171,sg:9c63abb73a0b400ba7acebbacf75b765,-97.35641600000001,32.763269,483671407051,4,False,False,-97.69833709999999,32.767402000000004,"Sporting Goods, Hobby, and Musical Instrument Stores"
172,sg:5dcc814570f846238f753afe0c1c22d0,-97.331414,32.749608,484971504021,4,False,False,-97.81186740000001,33.054983,"Executive, Legislative, and Other General Government Support"
173,sg:3c79911e4f494e659687e850dae2fcb0,-97.381834,32.786141,484971504021,4,False,False,-97.81186740000001,33.054983,General Rental Centers
174,sg:bb95c4986cfd44fe80036a449cf57955,-97.310388,32.911865,484971504021,4,False,False,-97.81186740000001,33.054983,Health and Personal Care Stores
175,sg:77ebc7c42bad4c5ea622137054f41833,-97.324213,32.899139,484391139263,4,True,False,-97.3272117,32.9019158,Other Amusement and Recreation Industries
176,sg:dc6c9493503649fa942906e90624945c,-97.170172,32.75665,484391139263,4,True,False,-97.3272117,32.9019158,"Beer, Wine, and Liquor Stores"
177,sg:28ee465abe7647de918b3502f4539864,-97.31841800000001,32.903934,484391139263,4,True,False,-97.3272117,32.9019158,Restaurants and Other Eating Places
178,sg:22ff88782231448dbb60a15852bacf75,-97.323892,32.906943,484391139263,4,True,False,-97.3272117,32.9019158,Other Schools and Instruction
179,sg:5f40895c7e7847379f1daa1c8469ffcd,-97.32186,32.904578,484391139263,4,True,False,-97.3272117,32.9019158,Restaurants and Other Eating Places
180,sg:e7de4468163945588bafd9f0f2c91b49,-97.3252,32.901759000000006,484391139263,17,True,True,-97.3272117,32.9019158,Lessors of Real Estate
181,sg:0f04d06a7fe64ec2924985391433b6fa,-97.322769,32.901916,484391139263,7,True,True,-97.3272117,32.9019158,Home Furnishings Stores
182,sg:786b5ae3257e4498b9fb798671826b14,-97.323764,32.903064,484391139263,5,True,True,-97.3272117,32.9019158,"Sporting Goods, Hobby, and Musical Instrument Stores"
183,sg:f4d827bf44a64aa1971f44ae8a8511d9,-97.421458,32.967401,484391139263,9,True,True,-97.3272117,32.9019158,Gasoline Stations
184,sg:c6278bd9d7bc4f1ab911c144e15175ab,-97.330849,32.906758,484391139263,12,True,True,-97.3272117,32.9019158,Depository Credit Intermediation
185,sg:c0a1294dbf2e4316a4d7a511cd44c607,-97.326557,32.900413,484391139263,7,True,True,-97.3272117,32.9019158,Other Miscellaneous Store Retailers
186,sg:f1307a374b574b5bb6ceec3e16f26dab,-97.32145,32.903308,484391139263,159,True,True,-97.3272117,32.9019158,Lessors of Real Estate
187,sg:e74998c5516d45ab82045c61b3aba38c,-97.319204,32.901207,484391139263,4,True,False,-97.3272117,32.9019158,Restaurants and Other Eating Places
188,sg:7a7b12bd36b64d128134cb8d8f4f6f13,-97.290403,33.018972999999995,484391139263,4,True,False,-97.3272117,32.9019158,Other Amusement and Recreation Industries
189,sg:80ca73b8b0494ae28f501aff7bd9383a,-97.292182,32.949563,484391139263,6,True,True,-97.3272117,32.9019158,Elementary and Secondary Schools
190,sg:b663a7321ef04b8ebf9ee9d26d16f332,-97.31559,32.909903,484391139263,4,True,False,-97.3272117,32.9019158,Wired and Wireless Telecommunications Carriers
191,sg:bccd402631834ff298a2de457e618996,-97.320724,32.903379,484391139263,63,True,True,-97.3272117,32.9019158,Grocery Stores
192,sg:124a299b6a07479ca0cc144859cdd2b6,-97.327124,32.901847,484391139263,9,True,True,-97.3272117,32.9019158,Home Furnishings Stores
193,sg:91af8d29256244d29ea798b12aca39e2,-97.326572,32.90015,484391139263,8,True,True,-97.3272117,32.9019158,"General Merchandise Stores, including Warehouse Clubs and Supercenters"
194,sg:82743c25755c49788713af3d7cb70120,-97.400472,32.670756,484391112023,6,False,True,-97.27574820000001,32.6274473,Grocery Stores
195,sg:371dafcf8be74d29a8244814c34dbc74,-97.322067,32.684959,484391112023,4,False,False,-97.27574820000001,32.6274473,Traveler Accommodation
196,sg:870d9d2ce406496fa92d28a3d3e65052,-97.318985,32.707031,484391045053,5,True,True,-97.3105666,32.707076199999996,Grocery Stores
197,sg:40bd33bbea8a443b9dca6920ab7d6050,-97.308375,32.710684,484391045053,4,True,False,-97.3105666,32.707076199999996,Religious Organizations
198,sg:bb6e8f7162874cfab248ad10c21d0e33,-97.263521,32.910952,484391045053,4,True,False,-97.3105666,32.707076199999996,Other Amusement and Recreation Industries
199,sg:9cc2c219e6a14cb789b066291ab43f41,-97.32123299999999,32.689646,484391045053,4,True,False,-97.3105666,32.707076199999996,Building Material and Supplies Dealers
200,sg:818c17417c034ea89be1bd1dea296ff9,-97.32041,32.615396000000004,484391045053,4,True,False,-97.3105666,32.707076199999996,Building Material and Supplies Dealers
201,sg:f16a9c38fd634974af9545c78fc3db68,-97.32130699999999,32.688885,484391045053,6,True,True,-97.3105666,32.707076199999996,"Automotive Parts, Accessories, and Tire Stores"
202,sg:bdab375864b8493587a75d73d7742acb,-97.319019,32.707692,484391045053,13,True,True,-97.3105666,32.707076199999996,"General Merchandise Stores, including Warehouse Clubs and Supercenters"
203,sg:5e5257dfe1b24072bc1795667c6cad5b,-97.312438,32.706206,484391045053,8,True,True,-97.3105666,32.707076199999996,Restaurants and Other Eating Places
204,sg:4a7022438d4e4c568aec876d451c221e,-97.3256,32.795018,484391045053,4,True,False,-97.3105666,32.707076199999996,Gasoline Stations
205,sg:61aa7403df1f4ca5883381fa39241712,-97.317713,32.706447999999995,484391045053,10,True,True,-97.3105666,32.707076199999996,Restaurants and Other Eating Places
206,sg:89f6f0bfdb5840d5be6386bead721e09,-97.312149,32.684837,484391045053,4,True,False,-97.3105666,32.707076199999996,Restaurants and Other Eating Places
207,sg:1f750e8b9ad4428e955dc08fe25bdec7,-97.315499,32.705576,484391045053,4,True,False,-97.3105666,32.707076199999996,Restaurants and Other Eating Places
208,sg:053d4da45d2c4c35acb8bd43bcc9013d,-97.300525,32.795579,484391045053,5,True,True,-97.3105666,32.707076199999996,Electronics and Appliance Stores
209,sg:68535be364cf4e8cab2f22e67b8a3233,-97.408613,32.732481,484391045053,7,True,True,-97.3105666,32.707076199999996,Restaurants and Other Eating Places
210,sg:d95d76ee46ba41ee8017d6fccade1411,-97.31421800000001,32.70642,484391045053,12,True,True,-97.3105666,32.707076199999996,"General Merchandise Stores, including Warehouse Clubs and Supercenters"
211,sg:1b9eec6cd3c34607b1f4f5b513e22c79,-97.311212,32.710242,484391045053,5,True,True,-97.3105666,32.707076199999996,Grocery Stores
212,sg:9dfa91ea5a744eec862eea5eecfd16fd,-97.319047,32.708102000000004,484391045053,14,True,True,-97.3105666,32.707076199999996,Lessors of Real Estate
213,sg:5ac0d7f1790049bdb4ecc36eaff9fd3b,-97.318958,32.70713,484391045053,19,True,True,-97.3105666,32.707076199999996,Clothing Stores
214,sg:a1a23e5a88d740e9bc3105a9a6fb585d,-97.322423,32.635756,484391045053,5,True,True,-97.3105666,32.707076199999996,Restaurants and Other Eating Places
215,sg:664313c0cb4045e9bdc93ea08e62f653,-97.319889,32.7054,484391045053,10,True,True,-97.3105666,32.707076199999996,Gasoline Stations
216,sg:c918fc6944c9431e9a4aa1916b662526,-97.446986,32.701502000000005,484391045053,9,True,True,-97.3105666,32.707076199999996,Grocery Stores
217,sg:2a1fca5a5536438c8fd976c127cfa1ea,-97.312828,32.70893,484391045053,7,True,True,-97.3105666,32.707076199999996,Religious Organizations
218,sg:a8a587cbe92c4794975f9b6f4fce3fbe,-97.311764,32.916446,484391139225,4,True,False,-97.29827829999999,32.9058212,"Museums, Historical Sites, and Similar Institutions"
219,sg:80cd6ce1bc9841389c74889a9750d5d7,-97.309725,32.913497,484391139225,23,True,True,-97.29827829999999,32.9058212,Restaurants and Other Eating Places
220,sg:36a1717baa3f4c52b05cb7aa00eba402,-97.333067,32.730467,484391139225,4,True,False,-97.29827829999999,32.9058212,Restaurants and Other Eating Places
221,sg:8748579a5ce243a6885c573a1d9290fe,-97.311745,32.915069,484391139225,4,True,False,-97.29827829999999,32.9058212,Restaurants and Other Eating Places
222,sg:8d247bb54f804977af252a765979e74e,-97.343423,32.737253,484391139225,4,True,False,-97.29827829999999,32.9058212,Offices of Dentists
223,sg:fa26133921c5446ea0500398b98d19b8,-97.316144,32.909273,484391139225,5,True,True,-97.29827829999999,32.9058212,Restaurants and Other Eating Places
224,sg:4926f097fe1f49b6b766275f03262309,-97.300297,32.904779,484391139225,10,True,True,-97.29827829999999,32.9058212,Lumber and Other Construction Materials Merchant Wholesalers
225,sg:86dd85c6052a4a3b8d99378ef8329673,-97.346843,32.735234000000005,484391139225,4,True,False,-97.29827829999999,32.9058212,Offices of Physicians
226,sg:5efed49a4ab5457caaa463e5849816cb,-97.308931,32.91343,484391139225,9,True,True,-97.29827829999999,32.9058212,Restaurants and Other Eating Places
227,sg:88d4d72da3c04a2bafbfc96b20d460f6,-97.318816,32.899297,484391139225,7,True,True,-97.29827829999999,32.9058212,Restaurants and Other Eating Places
228,sg:72ccc278a82d48dc922de241d31ed4b8,-97.314716,32.908264,484391139225,103,True,True,-97.29827829999999,32.9058212,Lessors of Real Estate
229,sg:8d118a8811eb4392b344c35e7464e2da,-97.290213,32.89645,484391139225,4,True,False,-97.29827829999999,32.9058212,Used Merchandise Stores
230,sg:42ede9f9420c4f7c94c75ccdbdf8d763,-97.290376,32.891221,484391139225,6,True,True,-97.29827829999999,32.9058212,Restaurants and Other Eating Places
231,sg:ad85fa92f06f4f76b242484905c254e5,-97.340786,32.767761,484391139225,4,True,False,-97.29827829999999,32.9058212,Automotive Repair and Maintenance
232,sg:2d80a242d9764b7a9eaa2dc58422136f,-97.286913,32.929947,484391139225,6,True,True,-97.29827829999999,32.9058212,Restaurants and Other Eating Places
233,sg:c5574e7632d5497c901a6d5c3da4e09c,-97.262644,32.874571,484391139225,4,True,False,-97.29827829999999,32.9058212,Lessors of Real Estate
234,sg:19cedfe2e6d94bd8aea372c71c8b7c0c,-97.313701,32.915139,484391139225,4,True,False,-97.29827829999999,32.9058212,Restaurants and Other Eating Places
235,sg:c08abab155b6467d8db4d854cb4eed7c,-97.323133,32.650205,484391060011,16,True,True,-97.3260143,32.652666700000005,Traveler Accommodation
236,sg:4e27ee242b2c4204a40f145d949f7ba7,-97.322374,32.653068,484391060011,7,True,True,-97.3260143,32.652666700000005,Restaurants and Other Eating Places
237,sg:b6d2ccccf0d84bcb9bebc7f9c7aa08b8,-97.367204,32.650554,484391060011,6,True,True,-97.3260143,32.652666700000005,Restaurants and Other Eating Places
238,sg:ce3f0552d90f49e98a2e592b97c90485,-97.537527,32.617505,484391060011,4,True,False,-97.3260143,32.652666700000005,Motion Picture and Video Industries
239,sg:6ae82df878644c1491a32b95aee5ac05,-97.32452099999999,32.683605,484391060011,5,True,True,-97.3260143,32.652666700000005,Depository Credit Intermediation
240,sg:6fb895a3d8e440939da546eed5f17652,-97.322496,32.653024,484391060011,6,True,True,-97.3260143,32.652666700000005,Gasoline Stations
241,sg:5cd3a7c629c245909370100d9c49dda7,-97.326072,32.658017,484391060011,5,True,True,-97.3260143,32.652666700000005,Used Merchandise Stores
242,sg:c564cde47cd84691b5c7eccc36fc7bb6,-97.287391,32.740771,484391115462,4,False,False,-97.1701682,32.6843321,Furniture Stores
243,sg:f8baf9a8cfa641629b4aa31dd3dc4624,-97.32356700000001,32.742138,484391115332,7,False,True,-97.155313,32.6543652,"Sporting Goods, Hobby, and Musical Instrument Stores"
244,sg:384bab24ceb748d6912ac92ae2fdc3da,-97.499581,32.785454,483671404051,4,True,False,-97.57966850000001,32.9724391,Personal and Household Goods Repair and Maintenance
245,sg:c57c8ae6059448c081527953f6e09db1,-97.33539300000001,32.839851,483671404051,5,True,True,-97.57966850000001,32.9724391,Automobile Dealers
246,sg:84820a98f6374f69956685c8356a7b14,-97.338619,32.805981,483671404051,5,True,True,-97.57966850000001,32.9724391,Restaurants and Other Eating Places
247,sg:e029c25dc4844d71923a961a30526097,-97.46115,32.863412,483671404051,4,True,False,-97.57966850000001,32.9724391,"Automotive Parts, Accessories, and Tire Stores"
248,sg:7e36f0a105254cdd9992559561c33d3f,-97.385075,32.788071,483671404051,4,True,False,-97.57966850000001,32.9724391,Other Ambulatory Health Care Services
249,sg:abff9c2147b84e229de766d123e80c3c,-97.29176700000001,32.872253,483671404051,4,True,False,-97.57966850000001,32.9724391,Restaurants and Other Eating Places
250,sg:36480dacbebb4dcf8564fc596b292e85,-97.34979,32.759596,483671404051,4,True,False,-97.57966850000001,32.9724391,Building Material and Supplies Dealers
251,sg:e4c8e0f980f24c6d93ff07692cd7baa0,-97.360946,32.698266,483671404051,4,True,False,-97.57966850000001,32.9724391,Restaurants and Other Eating Places
252,sg:37baa42aac214a889f3f51a0031c5a1d,-97.315174,32.761072999999996,483671404051,4,True,False,-97.57966850000001,32.9724391,Grocery Stores
253,sg:e4ce8bf9f8c04c9ea29a0c8f05bc5206,-97.351574,32.750729,483671404051,4,True,False,-97.57966850000001,32.9724391,Shoe Stores
254,sg:da9ddbb9c0e44f7a9000f3a922be1ba7,-97.349992,32.773236,483671404051,4,True,False,-97.57966850000001,32.9724391,Restaurants and Other Eating Places
255,sg:39496a6e43e54af09724525a3d28293c,-97.392726,32.678974,484391110171,7,True,True,-97.4098748,32.6104241,Restaurants and Other Eating Places
256,sg:07fb95a579fd475c80d6bde7c66cfa32,-97.319785,32.697286,484391110171,4,True,False,-97.4098748,32.6104241,Automotive Repair and Maintenance
257,sg:25deed33d0cd4281856777ca262b24eb,-97.216216,32.796318,484391110171,6,True,True,-97.4098748,32.6104241,Grocery Stores
258,sg:037f6f3756814d4cae0ff1dd247c8628,-97.365674,32.648472999999996,484391110171,4,True,False,-97.4098748,32.6104241,"Accounting, Tax Preparation, Bookkeeping, and Payroll Services"
259,sg:637f88b1869e4b1286dae2efd67f5b3a,-97.34735400000001,32.734883,484391110171,4,True,False,-97.4098748,32.6104241,Offices of Physicians
260,sg:3f38c829f2fc42a99bf5aa84f5383bd4,-97.39886700000001,32.686289,484391110171,9,True,True,-97.4098748,32.6104241,Building Material and Supplies Dealers
261,sg:adf235720f1842d2ba6314bb24f60d89,-97.39631700000001,32.67542,484391110171,4,True,False,-97.4098748,32.6104241,Shoe Stores
262,sg:eff71850b34e44ed81f3ba509d128ee0,-97.331011,32.756710999999996,484391110171,4,True,False,-97.4098748,32.6104241,Offices of Physicians
263,sg:291e22ba2d264391a105b7621a87e5d1,-97.247795,32.707148,484391110171,4,True,False,-97.4098748,32.6104241,Home Health Care Services
264,sg:5a64ac3692634a5f92db1c0de9b233e3,-97.36869399999999,32.67175,484391110171,4,True,False,-97.4098748,32.6104241,Child Day Care Services
265,sg:5d28683c866e4a878d500eb0d4f285a1,-97.414224,32.679,484391110171,7,True,True,-97.4098748,32.6104241,Other Miscellaneous Store Retailers
266,sg:089797a4dbfe46b78c617eb4995805fb,-97.321259,32.739133,484391110171,4,True,False,-97.4098748,32.6104241,"Other Professional, Scientific, and Technical Services"
267,sg:ce09a925522b426cb34e1e31a05a306c,-97.408239,32.632042,484391110171,10,True,True,-97.4098748,32.6104241,Grocery Stores
268,sg:3768ac7c7d5142b9bcb3e4016a8a8d12,-97.400849,32.659555,484391110171,4,True,False,-97.4098748,32.6104241,Restaurants and Other Eating Places
269,sg:14e2a6ea0b1745f9aaa8a884d6829962,-97.329634,32.743589,484391110171,4,True,False,-97.4098748,32.6104241,Clothing Stores
270,sg:0ced0056587148bd915d31f918c8d3bf,-97.399936,32.658353000000005,484391110171,4,True,False,-97.4098748,32.6104241,Offices of Dentists
271,sg:708f951af9884b08b683d7b84ec7959b,-97.416979,32.675509000000005,484391110171,7,True,True,-97.4098748,32.6104241,Restaurants and Other Eating Places
272,sg:46bc4f5791104c588676bb023e7acd14,-97.21455999999999,32.747029,484391110171,4,True,False,-97.4098748,32.6104241,Other Miscellaneous Manufacturing
273,sg:e10d8eaddf80462eb1cc9826c64eaac2,-97.38913000000001,32.616603000000005,484391110171,21,True,True,-97.4098748,32.6104241,Health and Personal Care Stores
274,sg:bd1f0eb64e7342a0addbfd4c2e71d679,-97.412837,32.679072999999995,484391110171,24,True,True,-97.4098748,32.6104241,Department Stores
275,sg:8e6a586ae3d340829f8796ee9f24ed79,-97.399454,32.657835,484391110171,4,True,False,-97.4098748,32.6104241,"Automotive Parts, Accessories, and Tire Stores"
276,sg:707a9a7412ad440992803369ac0b5f11,-97.410431,32.676184,484391110171,4,True,False,-97.4098748,32.6104241,Restaurants and Other Eating Places
277,sg:0b5fe7676847439491588d332cd1127c,-97.41044699999999,32.636258000000005,484391110171,4,True,False,-97.4098748,32.6104241,Religious Organizations
278,sg:19923e9229834000aa230f45ee4bdb94,-97.394173,32.614266,484391110171,4,True,False,-97.4098748,32.6104241,Elementary and Secondary Schools
279,sg:9e4ccf2dd6654fabb4227ca0f9c68c17,-97.32480600000001,32.738178000000005,484391110171,4,True,False,-97.4098748,32.6104241,Restaurants and Other Eating Places
280,sg:b72603f66fd444f1bb0e57a5df38224a,-97.339711,32.733418,484391110171,4,True,False,-97.4098748,32.6104241,Offices of Other Health Practitioners
281,sg:e161edd9b68a4b0393061bc56294cb25,-97.32562,32.747107,484391110171,4,True,False,-97.4098748,32.6104241,Building Material and Supplies Dealers
282,sg:229484917e1a4a059de2be795db32d7b,-97.396815,32.684274,484391110171,18,True,True,-97.4098748,32.6104241,Lessors of Real Estate
283,sg:3f2916e6872f4caf920cc54fd5dab9eb,-97.410043,32.603964000000005,484391110171,9,True,True,-97.4098748,32.6104241,Department Stores
284,sg:754c7a5f3ac8469c9c991963142624ef,-97.407718,32.629965999999996,484391110171,98,True,True,-97.4098748,32.6104241,Lessors of Real Estate
285,sg:e40b938637cc4e0cacca9a5c9baef0d5,-97.359796,32.762384000000004,484391110171,4,True,False,-97.4098748,32.6104241,Other Amusement and Recreation Industries
286,sg:54f285b14677421fa43ec1ae56acff14,-97.342811,32.747258,484391110171,4,True,False,-97.4098748,32.6104241,"Museums, Historical Sites, and Similar Institutions"
287,sg:c3a4a2c8b0a740e3b5245380d16abe1b,-97.393136,32.679194,484391110171,11,True,True,-97.4098748,32.6104241,Lessors of Real Estate
288,sg:2710fd470f62474e870fad7589ee0d81,-97.40175500000001,32.685589,484391110171,4,True,False,-97.4098748,32.6104241,Traveler Accommodation
289,sg:cca2548f78d64facac202534993a2db5,-97.38770699999999,32.616188,484391110171,4,True,False,-97.4098748,32.6104241,Restaurants and Other Eating Places
290,sg:743956cc876049a48a3a3f60ceaee29e,-97.348003,32.66256,484391110171,5,True,True,-97.4098748,32.6104241,Restaurants and Other Eating Places
291,sg:c1c9fe3a7908472aa2555a8ff09df88e,-97.411231,32.68745,484391110171,22,True,True,-97.4098748,32.6104241,Building Material and Supplies Dealers
292,sg:05ca2cebaeeb4ac78b69622c1d051016,-97.411889,32.630539,484391110171,7,True,True,-97.4098748,32.6104241,Offices of Other Health Practitioners
293,sg:1f1a2594c7d94409816ee0931e2f7630,-97.389093,32.618565999999994,484391110171,4,True,False,-97.4098748,32.6104241,Restaurants and Other Eating Places
294,sg:5eaaf711627549968ff3f0cec0c4b79d,-97.40968199999999,32.686359,484391110171,24,True,True,-97.4098748,32.6104241,Lessors of Real Estate
295,sg:2139f5f87e244cf7a12ecf9acb9a95a5,-97.413666,32.677746,484391110171,41,True,True,-97.4098748,32.6104241,Lessors of Real Estate
296,sg:1693072338284dbdab481511f3b3b38a,-97.40740500000001,32.632397,484391110171,30,True,True,-97.4098748,32.6104241,Restaurants and Other Eating Places
297,sg:a15e813d11804e958ccc1ef7cfddf37e,-97.400471,32.658131,484391110171,4,True,False,-97.4098748,32.6104241,Offices of Other Health Practitioners
298,sg:09cbc5179fbd40d5a7d1f9a8e39e0282,-97.206579,32.779253000000004,484391110171,4,True,False,-97.4098748,32.6104241,Elementary and Secondary Schools
299,sg:c2cdaecdec6e458db3589c8a2ffe55c6,-97.42537,32.724053000000005,484391110171,4,True,False,-97.4098748,32.6104241,Furniture Stores
300,sg:a7f739012a1743c38adf7e40fd80234a,-97.334991,32.738215000000004,484391110171,4,True,False,-97.4098748,32.6104241,Offices of Physicians
301,sg:3aa8921df5ff4dbebb0aa92c5b9ab400,-97.41296700000001,32.686431,484391110171,9,True,True,-97.4098748,32.6104241,Restaurants and Other Eating Places
302,sg:388d2fa73e854887bb003b1316f23112,-97.40341,32.614573,484391110171,4,True,False,-97.4098748,32.6104241,"Colleges, Universities, and Professional Schools"
303,sg:f652bcb60b024a28a6b3688df0778856,-97.427317,32.646640000000005,484391110171,4,True,False,-97.4098748,32.6104241,Offices of Real Estate Agents and Brokers
304,sg:b098cc0075ee4f92bd5ac96d0e3e7fbc,-97.409873,32.625735999999996,484391110171,5,True,True,-97.4098748,32.6104241,Elementary and Secondary Schools
305,sg:092a15d0f71e462fad8e712222d0c2d3,-97.348912,32.649840000000005,484391110171,4,True,False,-97.4098748,32.6104241,Gasoline Stations
306,sg:7abfea4afad54411a1454ac4995fd2c4,-97.32145899999999,32.726376,484391110171,4,True,False,-97.4098748,32.6104241,Electronics and Appliance Stores
307,sg:184f1ac9fae84e4f9f238f14d88297c4,-97.424882,32.660951000000004,484391110171,4,True,False,-97.4098748,32.6104241,Other Amusement and Recreation Industries
308,sg:43c4ab41519b467d94357fbee0fdf3c3,-97.34437199999999,32.736235,484391110171,6,True,True,-97.4098748,32.6104241,Offices of Physicians
309,sg:38b10d8b37ad481896404442000cd71c,-97.414525,32.678133,484391110171,4,True,False,-97.4098748,32.6104241,Furniture Stores
310,sg:e49b6d5b29314c0b9fbdbc626879efa6,-97.405247,32.607096000000006,484391110171,8,True,True,-97.4098748,32.6104241,Restaurants and Other Eating Places
311,sg:99116112e8154d229023881fe0c87d7e,-97.402337,32.660699,484391110171,12,True,True,-97.4098748,32.6104241,Restaurants and Other Eating Places
312,sg:37d80a1954d848008a1a9e322493432f,-97.40765400000001,32.629775,484391110171,98,True,True,-97.4098748,32.6104241,"General Merchandise Stores, including Warehouse Clubs and Supercenters"
313,sg:4b04ad70526a4e2080298f8a9a5369b3,-97.335941,32.756172,484391065172,4,False,False,-97.11044,32.816178,"Executive, Legislative, and Other General Government Support"
314,sg:4a26d72b2134433ca1dd5fecb3ab7e81,-97.16604699999999,32.823328000000004,484391065172,4,False,False,-97.11044,32.816178,Other Schools and Instruction
315,sg:53897835f6e949f1b711fd4804b9f7bb,-97.331938,32.714265999999995,481390601023,5,False,True,-96.6894363,32.429175300000004,Restaurants and Other Eating Places
316,sg:6b8d48a988574abfb4d0240c46da5a13,-97.309302,32.76988,481210217392,4,False,False,-96.9852529,33.0155772,Restaurants and Other Eating Places
317,sg:6e0ea8a6483d4a6d886eebe2bab9dfa3,-97.377862,32.693876,484391042023,7,True,True,-97.37438459999998,32.6935858,Offices of Dentists
318,sg:97df1e5fc3994f3d943ffb1b567ed2fa,-97.359915,32.726607,484391042023,4,True,False,-97.37438459999998,32.6935858,Depository Credit Intermediation
319,sg:46f608f9aacd4af8819b1ace69c30d39,-97.428706,32.749824,484391042023,4,True,False,-97.37438459999998,32.6935858,Offices of Dentists
320,sg:480053fdb99a4b14a2d7aafa882bd60f,-97.34428,32.711762,484391042023,5,True,True,-97.37438459999998,32.6935858,Restaurants and Other Eating Places
321,sg:140d878c8e8d4478adffeef74ff16e09,-97.36800600000001,32.697488,484391042023,4,True,False,-97.37438459999998,32.6935858,Building Material and Supplies Dealers
322,sg:a208ac24ec314649b17a0c8d5ace92d5,-97.378601,32.691115,484391042023,4,True,False,-97.37438459999998,32.6935858,Offices of Dentists
323,sg:927d0ac715f44dcea0c9e27c3fd7de84,-97.423647,32.735685,484391139271,4,True,False,-97.28178759999999,32.9795021,"Agencies, Brokerages, and Other Insurance Related Activities"
324,sg:66c4fd8ecb314b829d95d5e9c27a20a0,-97.314213,32.911955,484391139271,4,True,False,-97.28178759999999,32.9795021,Restaurants and Other Eating Places
325,sg:68b7ab9c34fa48c481daab26c4b7e48a,-97.28907,32.917021000000005,484391139271,4,True,False,-97.28178759999999,32.9795021,Health and Personal Care Stores
326,sg:d79b07991869431aa10e9af8bcacfb9f,-97.292069,32.929977,484391139271,5,True,True,-97.28178759999999,32.9795021,Home Health Care Services
327,sg:11b39232f79e4009947c2b767ce56909,-97.39921700000001,32.720327000000005,484391139271,4,True,False,-97.28178759999999,32.9795021,Religious Organizations
328,sg:73e583d4732844f3b9c943e5560e2eb6,-97.279937,32.956309999999995,484391139271,80,True,True,-97.28178759999999,32.9795021,Grocery Stores
329,sg:fb472577da4745f3a426147daad81b02,-97.239373,32.762307,484391139271,4,True,False,-97.28178759999999,32.9795021,Restaurants and Other Eating Places
330,sg:1e80dc64779b4b60905ae04e41544bda,-97.307035,32.972904,484391139271,5,True,True,-97.28178759999999,32.9795021,Traveler Accommodation
331,sg:e8e2e316d5044d019d5b84cb5ae2d3ea,-97.34046,32.730809,484391139271,5,True,True,-97.28178759999999,32.9795021,Restaurants and Other Eating Places
332,sg:9468a0c90a644af38067910238a56939,-97.321009,32.770694,484391139271,4,True,False,-97.28178759999999,32.9795021,"Automotive Parts, Accessories, and Tire Stores"
333,sg:8509d8e25507424987253466919f72e9,-97.30419499999999,32.795689,484391139271,4,True,False,-97.28178759999999,32.9795021,Used Merchandise Stores
334,sg:4ebfbffcb5d94f3fa58e847c1812d084,-97.281736,32.957064,484391139271,8,True,True,-97.28178759999999,32.9795021,Grocery Stores
335,sg:b1024612430a455caea6fe7a18ee146a,-97.329396,32.733938,484391233002,8,True,True,-97.3282668,32.7527516,Furniture Stores
336,sg:7b613ecdff7147a2b4005e8c2284f7bb,-97.328129,32.7591,484391233002,5,True,True,-97.3282668,32.7527516,Other Miscellaneous Store Retailers
337,sg:6361307ca0a1419eae228052b57da554,-97.325767,32.758720000000004,484391233002,4,True,False,-97.3282668,32.7527516,Printing and Related Support Activities
338,sg:259dafbb3ee2415193c7c58a36a4cc0c,-97.336253,32.753498,484391233002,6,True,True,-97.3282668,32.7527516,Other Amusement and Recreation Industries
339,sg:4e44b77c0149419c9698687b9897f8f5,-97.360811,32.753793,484391233002,8,True,True,-97.3282668,32.7527516,Restaurants and Other Eating Places
340,sg:26ed93ac8d69426f88aade5cd867ee8a,-97.332746,32.753252,484391233002,4,True,False,-97.3282668,32.7527516,Restaurants and Other Eating Places
341,sg:b36a81636de44c6da03306328b1049b4,-97.334038,32.756855,484391233002,8,True,True,-97.3282668,32.7527516,Restaurants and Other Eating Places
342,sg:6a8af8564e1a4fbc979869cffead622b,-97.33114300000001,32.754876,484391233002,39,True,True,-97.3282668,32.7527516,Lessors of Real Estate
343,sg:e8d204d47cff41728af52c17ed468223,-97.360119,32.707204,484391233002,4,True,False,-97.3282668,32.7527516,Restaurants and Other Eating Places
344,sg:ba73f6eb1a454761a3cff2fb4abca5d7,-97.33104200000001,32.755261,484391233002,16,True,True,-97.3282668,32.7527516,Restaurants and Other Eating Places
345,sg:0d7e3534cfa143a2bce3e6e2e69881c0,-97.388228,32.724587,484391233002,4,True,False,-97.3282668,32.7527516,Offices of Dentists
346,sg:8ae573d131c74ee88bf47410dc691f5d,-97.331977,32.754535,484391233002,4,True,False,-97.3282668,32.7527516,Restaurants and Other Eating Places
347,sg:d6f9c28ba5984aed8ac2fc4495c53efa,-97.328928,32.753538,484391233002,4,True,False,-97.3282668,32.7527516,Other Personal Services
348,sg:e4dc1f75c960461fbe2be5ff4a7610ba,-97.329171,32.747069,484391233002,4,True,False,-97.3282668,32.7527516,Restaurants and Other Eating Places
349,sg:9b86ec0c67cf4cbe9cd2edc814dc3247,-97.33877199999999,32.754894,484391233002,5,True,True,-97.3282668,32.7527516,Grocery Stores
350,sg:49d2fe3acf3f466cb1627dfb8eab1a1d,-97.328562,32.748584,484391233002,4,True,False,-97.3282668,32.7527516,Traveler Accommodation
351,sg:069988e7fef84a52bb4f92105a91cf43,-97.32974300000001,32.757337,484391233002,4,True,False,-97.3282668,32.7527516,Elementary and Secondary Schools
352,sg:3f0e3d564d6b480fa51030994ee47d03,-97.333776,32.753085,484391233002,4,True,False,-97.3282668,32.7527516,Restaurants and Other Eating Places
353,sg:c6996fac34584162b3808a8267832802,-97.325914,32.750249,484391233002,4,True,False,-97.3282668,32.7527516,Grocery Stores
354,sg:34e6df7c33314b9e8ead00687d1eb55f,-97.329257,32.747008,484391233002,7,True,True,-97.3282668,32.7527516,Traveler Accommodation
355,sg:10d62df072fc4d22aad61804dff91e41,-97.334919,32.752978000000006,484391233002,4,True,False,-97.3282668,32.7527516,Child Day Care Services
356,sg:38b6a736973649a38055d4be13860160,-97.32978299999999,32.751378,484391233002,4,True,False,-97.3282668,32.7527516,Restaurants and Other Eating Places
357,sg:ae2610d9795a4a3fa9a274e3fed51b7c,-97.329904,32.750341,484391233002,5,True,True,-97.3282668,32.7527516,Traveler Accommodation
358,sg:54bb909f8d5b4473a464615bcd09e944,-97.328001,32.749909,484391233002,6,True,True,-97.3282668,32.7527516,Travel Arrangement and Reservation Services
359,sg:93ac8156467c432989130dda93849440,-97.463336,32.820803000000005,484391233002,4,True,False,-97.3282668,32.7527516,Waste Treatment and Disposal
360,sg:942a6534f4e84b5e8eb4cfd3d69d8611,-97.327656,32.751661999999996,484391233002,7,True,True,-97.3282668,32.7527516,Traveler Accommodation
361,sg:abd56189eac348c3a8a2358e5fd8af82,-97.329668,32.757527,484391233002,9,True,True,-97.3282668,32.7527516,Child Day Care Services
362,sg:d5f64c3a5e5d4d9d9fdb04621a66f059,-97.331923,32.729471999999994,484391054053,8,True,True,-97.4003903,32.7010494,Restaurants and Other Eating Places
363,sg:548d3c5c709b41c8b27bb23819dc99d5,-97.413495,32.699239,484391054053,8,True,True,-97.4003903,32.7010494,Restaurants and Other Eating Places
364,sg:8ac1e76fc89e43f28e7b238dac64a52d,-97.413318,32.699555,484391054053,4,True,False,-97.4003903,32.7010494,Health and Personal Care Stores
365,sg:8c0521c0e4ce46399ebf154ebc70042d,-97.359124,32.761618,484391054053,4,True,False,-97.4003903,32.7010494,"General Merchandise Stores, including Warehouse Clubs and Supercenters"
366,sg:35a3e80311f34c519049407643bbd351,-97.386478,32.712455,484391054053,5,True,True,-97.4003903,32.7010494,Restaurants and Other Eating Places
367,sg:f1addf3ac709481d962aae3482593266,-97.389655,32.704001,484391054053,4,True,False,-97.4003903,32.7010494,Depository Credit Intermediation
368,sg:7a2d0684b6eb43a1b5b071346df03bc4,-97.362239,32.72898,484391054053,4,True,False,-97.4003903,32.7010494,Clothing Stores
369,sg:4aab4b57804f444f8236d200c8294d7d,-97.478978,32.725766,484391054053,4,True,False,-97.4003903,32.7010494,Restaurants and Other Eating Places
370,sg:66122a500ad9488f81741fbe286066f6,-97.390345,32.70584,484391054053,7,True,True,-97.4003903,32.7010494,Clothing Stores
371,sg:eca5dc4da7ed475d9b10ad8cb668f707,-97.413539,32.699459999999995,484391054053,28,True,True,-97.4003903,32.7010494,Lessors of Real Estate
372,sg:acc4b2fdb69c4c24b076959bbd55f01a,-97.41296899999999,32.700044,484391054053,11,True,True,-97.4003903,32.7010494,Restaurants and Other Eating Places
373,sg:841fed39f37746a7b84c8c8170662afd,-97.412723,32.695134,484391054053,8,True,True,-97.4003903,32.7010494,Lessors of Real Estate
374,sg:f283e5ef0a3845b78e5dd224cf91dd50,-97.36175899999999,32.729597999999996,484391054053,4,True,False,-97.4003903,32.7010494,Grocery Stores
375,sg:528b946ec7aa4397b10e9d32f2dea1ae,-97.389434,32.707217,484391054053,35,True,True,-97.4003903,32.7010494,Lessors of Real Estate
376,sg:50ccf35955d44ccd92977f721f4bbb54,-97.40648399999999,32.692493,484391054053,4,True,False,-97.4003903,32.7010494,Child Day Care Services
377,sg:57000f3d75cc4b23b81333f44b7aa920,-97.397439,32.803709999999995,484391054053,4,True,False,-97.4003903,32.7010494,Grocery Stores
378,sg:11549cb09c874fada3e377591ead6492,-97.413798,32.699082000000004,484391054053,6,True,True,-97.4003903,32.7010494,"Sporting Goods, Hobby, and Musical Instrument Stores"
379,sg:9e5a8b76bf1a4eaa9f54565606192379,-97.40217700000001,32.707370000000004,484391054053,7,True,True,-97.4003903,32.7010494,Offices of Other Health Practitioners
380,sg:ecb1081269a84e229a3f4af1f0a686b6,-97.38985600000001,32.705448,484391054053,5,True,True,-97.4003903,32.7010494,Depository Credit Intermediation
381,sg:5daf75549a654e58819b9b3112d9d3ed,-97.408805,32.693368,484391054053,6,True,True,-97.4003903,32.7010494,Elementary and Secondary Schools
382,sg:0b4b2b3b93ef44f4a98d786eb96c293e,-97.412773,32.695262,484391054053,5,True,True,-97.4003903,32.7010494,Other Amusement and Recreation Industries
383,sg:a4322f7dffaa41e6ad788065e3a756c7,-97.414248,32.700532,484391054053,7,True,True,-97.4003903,32.7010494,Building Material and Supplies Dealers
384,sg:42b8224494f046a296e31491f523f8b9,-97.390034,32.706070000000004,484391054053,22,True,True,-97.4003903,32.7010494,Grocery Stores
385,sg:eb96b65d7ee14c379cb1ef69f2a58dd2,-97.3925,32.880552,484391141023,5,True,True,-97.4690662,32.868711100000006,Restaurants and Other Eating Places
386,sg:2cb3cb6e4371460aa905427fd8ed4611,-97.361053,32.712284000000004,484391141023,4,True,False,-97.4690662,32.868711100000006,Elementary and Secondary Schools
387,sg:8eb9a08f4d914d76b9771d1fe7bb7178,-97.323714,32.90267,484391141023,5,True,True,-97.4690662,32.868711100000006,Restaurants and Other Eating Places
388,sg:2f91d28b4aa64c79878bcbb8b69be870,-97.497118,32.872192,484391141023,8,True,True,-97.4690662,32.868711100000006,Restaurants and Other Eating Places
389,sg:9c99315d5af74fab96a7d0a9b1cf5304,-97.356452,32.709853,484391141023,4,True,False,-97.4690662,32.868711100000006,Religious Organizations
390,sg:acc891d21daf4a8e9dfdf388f680e340,-97.37429200000001,32.870529,484391141023,4,True,False,-97.4690662,32.868711100000006,Offices of Dentists
391,sg:b2995abd0ba6420bb500885bd5370bb3,-97.377898,32.798108,484391141023,8,True,True,-97.4690662,32.868711100000006,Restaurants and Other Eating Places
392,sg:fd36cef40dd24fac9696456b4f749ab4,-97.291691,32.840419,484391141023,4,True,False,-97.4690662,32.868711100000006,Personal Care Services
393,sg:0ea7abab6ef94b47b62ce75fb5d75eae,-97.42652,32.871593,484391141023,4,True,False,-97.4690662,32.868711100000006,Depository Credit Intermediation
394,sg:21bd40712db14ec98daa84203323aef3,-97.322965,32.906397,484391141023,4,True,False,-97.4690662,32.868711100000006,Automotive Repair and Maintenance
395,sg:43824c25f10a4d34bf65c3d44a031d28,-97.2881,32.916189,484391141023,4,True,False,-97.4690662,32.868711100000006,Other Financial Investment Activities
396,sg:55f581e53a6a4b088c089daab0f6896e,-97.419549,32.825734999999995,484391141023,4,True,False,-97.4690662,32.868711100000006,Offices of Real Estate Agents and Brokers
397,sg:9556f16cbb724ba490d5b565f4aef4db,-97.42389399999999,32.811025,484391141023,6,True,True,-97.4690662,32.868711100000006,Restaurants and Other Eating Places
398,sg:173df974c2a4433ab8d74594e539f922,-97.393493,32.881384000000004,484391141023,7,True,True,-97.4690662,32.868711100000006,Restaurants and Other Eating Places
399,sg:9b96fc2d47d948aabe212ba21fbbd819,-97.409233,32.814283,484391141023,4,True,False,-97.4690662,32.868711100000006,Other Miscellaneous Manufacturing
400,sg:3ac91960afb24594b3e5327f1c595ad6,-97.426578,32.870698,484391141023,7,True,True,-97.4690662,32.868711100000006,Depository Credit Intermediation
401,sg:ec014f031b154346ba2e95e3855463e5,-97.28768199999999,32.937917999999996,484391139272,4,True,False,-97.3052568,32.953807899999994,Elementary and Secondary Schools
402,sg:b23908d44164497fa3ec851feb198122,-97.342733,32.817805,484391139272,4,True,False,-97.3052568,32.953807899999994,Automotive Repair and Maintenance
403,sg:d6809f71103c4eba8b1118790623549b,-97.290183,32.897051,484391139272,6,True,True,-97.3052568,32.953807899999994,Restaurants and Other Eating Places
404,sg:b3a74804535447f6b872752299f0b4cd,-97.30780899999999,32.957204,484391139272,16,True,True,-97.3052568,32.953807899999994,Gasoline Stations
405,sg:059a43212a504cc582c12da1f83b54d7,-97.220629,32.788115999999995,484391139272,4,True,False,-97.3052568,32.953807899999994,Depository Credit Intermediation
406,sg:bff5a472f69c420ead1bb2cad5298cb3,-97.40885,32.802563,484391139272,4,True,False,-97.3052568,32.953807899999994,"Agencies, Brokerages, and Other Insurance Related Activities"
407,sg:081a7f4195c84d8ebd6db0983780f23d,-97.29085400000001,32.884838,484391139272,4,True,False,-97.3052568,32.953807899999994,Child Day Care Services
408,sg:07cb99dcf54442ac9938a5e1ebace457,-97.30569799999999,32.915264,484391139272,4,True,False,-97.3052568,32.953807899999994,Other Amusement and Recreation Industries
409,sg:c7c926630ea44f22bbdcf0c51b371b18,-97.29526700000001,32.93933,484391139272,4,True,False,-97.3052568,32.953807899999994,Automotive Repair and Maintenance
410,sg:5fb54a54b53a4d5ab46f06ee8128220d,-97.286799,32.917124,484391139272,4,True,False,-97.3052568,32.953807899999994,Child Day Care Services
411,sg:38bd42ebc2ef490abcebd203f677c665,-97.272039,32.911895,484391139272,4,True,False,-97.3052568,32.953807899999994,Other Amusement and Recreation Industries
412,sg:16dc5bc1e6f04d3594a549795f4238a9,-97.21765,32.73341,484391139272,4,True,False,-97.3052568,32.953807899999994,Offices of Other Health Practitioners
413,sg:12091eb27daf4aa091db7b73d3d3514c,-97.310401,32.911776,484391139272,6,True,True,-97.3052568,32.953807899999994,Other Miscellaneous Store Retailers
414,sg:455e62317e5448f2b3442547171a3a9a,-97.297214,32.914839,484391139272,4,True,False,-97.3052568,32.953807899999994,"Other Professional, Scientific, and Technical Services"
415,sg:fdaccf8189994d0484c02e223ade9e46,-97.28309899999999,32.952844,484391139272,6,True,True,-97.3052568,32.953807899999994,Restaurants and Other Eating Places
416,sg:3e95b008053347b5b293ab7fa91d634f,-97.292294,32.949391999999996,484391139272,4,True,False,-97.3052568,32.953807899999994,Child Day Care Services
417,sg:d119c8c8385644eab0cf5088b68d8963,-97.315742,32.914037,484391139272,8,True,True,-97.3052568,32.953807899999994,Depository Credit Intermediation
418,sg:fddb3bcdade543fe904e3b409f7e762c,-97.455123,32.733056,484391052012,10,True,True,-97.45704649999999,32.7319424,Individual and Family Services
419,sg:0fd19910947b4d31b1abbc2a5c00870c,-97.262844,32.759215000000005,484391052012,6,True,True,-97.45704649999999,32.7319424,Traveler Accommodation
420,sg:16d836222aef47bd910135e96823f6f8,-97.45806800000001,32.734849,484391052012,11,True,True,-97.45704649999999,32.7319424,Grocery Stores
421,sg:d4b6a4c678b748079b8a5ae130ba1aba,-97.453466,32.731003,484391052012,15,True,True,-97.45704649999999,32.7319424,Depository Credit Intermediation
422,sg:65c21798da034a2e8abedf884bc07e7f,-97.483298,32.761522,484391052012,4,True,False,-97.45704649999999,32.7319424,Automotive Repair and Maintenance
423,sg:6a716294a14e4b16ac75c8c54af23fa1,-97.33195500000001,32.723196,484391052012,4,True,False,-97.45704649999999,32.7319424,Restaurants and Other Eating Places
424,sg:df43973e089a4533b129563d271e5b3d,-97.465675,32.723146,484391052012,4,True,False,-97.45704649999999,32.7319424,Clothing Stores
425,sg:9794523434d44497ab68c93016bebf60,-97.329351,32.737721,484391052012,4,True,False,-97.45704649999999,32.7319424,Offices of Real Estate Agents and Brokers
426,sg:bef7b91feecb44aaa5f2cff77218a50f,-97.456949,32.722433,484391052012,4,True,False,-97.45704649999999,32.7319424,"General Merchandise Stores, including Warehouse Clubs and Supercenters"
427,sg:22bb0978f1f245a4842a2ff1a406963e,-97.46718800000001,32.725493,484391052012,7,True,True,-97.45704649999999,32.7319424,"General Merchandise Stores, including Warehouse Clubs and Supercenters"
428,sg:008beeaf3d4e4fb6a820cd005103c4a1,-97.410602,32.729811,484391110053,4,True,False,-97.3451328,32.6286155,Restaurants and Other Eating Places
429,sg:8256ae5ff7204d16b554d3e8f21a4131,-97.344334,32.634681,484391110053,6,True,True,-97.3451328,32.6286155,Restaurants and Other Eating Places
430,sg:ff720a7e7f8d482f879db8da563d76a0,-97.34473299999999,32.6322,484391110053,4,True,False,-97.3451328,32.6286155,Services to Buildings and Dwellings
431,sg:ca46b3184e7b42f58a7c690e7c98a12b,-97.28853199999999,32.776844,484391110053,4,True,False,-97.3451328,32.6286155,Restaurants and Other Eating Places
432,sg:a37c826c63904928881449d6b1c0c062,-97.348049,32.637019,484391110053,4,True,False,-97.3451328,32.6286155,Specialty Food Stores
433,sg:5b99df2d472e4b30bad2862f8561181f,-97.370275,32.639614,484391110053,4,True,False,-97.3451328,32.6286155,"Automotive Parts, Accessories, and Tire Stores"
434,sg:66c59817666f4998b04d71528cee8196,-97.299876,32.667497,484391110053,6,True,True,-97.3451328,32.6286155,"Jewelry, Luggage, and Leather Goods Stores"
435,sg:2ed1e8ece542402a9ba214b6d26a2862,-97.37074399999999,32.633595,484391110053,7,True,True,-97.3451328,32.6286155,Couriers and Express Delivery Services
436,sg:95da1c23c1ae4813993b8b4a3048411e,-97.344139,32.631149,484391110053,4,True,False,-97.3451328,32.6286155,Building Material and Supplies Dealers
437,sg:1871d38c887a4ff6a3ce6e216a16f639,-97.306646,32.768043,484391110053,4,True,False,-97.3451328,32.6286155,Electronics and Appliance Stores
438,sg:076f8dfca0cf4ee3b086cf8e17219566,-97.212962,32.83129,484391136114,5,False,True,-97.1748694,32.8694982,Automobile Dealers
439,sg:089dfdbef2a94a1c9e674c0597652a91,-97.37123299999999,32.729688,240135052031,4,False,False,-76.943026,39.3952789,Grocery Stores
440,sg:283836aaa92f49219f228613509b933f,-97.290116,32.917555,484391139215,4,True,False,-97.2646323,32.904708299999996,Outpatient Care Centers
441,sg:29553c7c56a6474093ffd2f428d4a369,-97.266285,32.894428000000005,484391139215,14,True,True,-97.2646323,32.904708299999996,Restaurants and Other Eating Places
442,sg:0a2ea8fc3d624a64b85552c105106d04,-97.26842099999999,32.900807,484391139215,13,True,True,-97.2646323,32.904708299999996,Elementary and Secondary Schools
443,sg:ba6f04cea74646029705008d28f5ea8e,-97.262119,32.894104,484391139215,9,True,True,-97.2646323,32.904708299999996,Restaurants and Other Eating Places
444,sg:ef233ac9b2284feb8dd86f1cacfd220b,-97.268635,32.896502000000005,484391139215,21,True,True,-97.2646323,32.904708299999996,Depository Credit Intermediation
445,sg:33ad6268e872480db34e489cd703c4dc,-97.470135,32.760073,484391139215,4,True,False,-97.2646323,32.904708299999996,"Agencies, Brokerages, and Other Insurance Related Activities"
446,sg:efd33e3bab0f428f829faa121b4044be,-97.27074,32.893981,484391139215,4,True,False,-97.2646323,32.904708299999996,Restaurants and Other Eating Places
447,sg:410b974b73794ea4a99be7e69d35da4c,-97.399283,32.669168,484391139215,5,True,True,-97.2646323,32.904708299999996,Lessors of Real Estate
448,sg:33b1608f395c4ca08c675b58a61c14ff,-97.270319,32.895996999999994,484391139215,83,True,True,-97.2646323,32.904708299999996,Grocery Stores
449,sg:be3d25faaa9a48ebae6ae71ceedeb878,-97.289103,32.894725,484391139215,9,True,True,-97.2646323,32.904708299999996,Depository Credit Intermediation
450,sg:eb8b5b6332d742278a5a80e8b6801d4d,-97.270607,32.895790000000005,484391139215,86,True,True,-97.2646323,32.904708299999996,Restaurants and Other Eating Places
451,sg:a66a8b0458084e26875961aa53610d3a,-97.26324,32.893409999999996,484391139215,10,True,True,-97.2646323,32.904708299999996,Grocery Stores
452,sg:795a7e6c4904476d95819c4b94e84de2,-97.273026,32.893915,484391139215,41,True,True,-97.2646323,32.904708299999996,Restaurants and Other Eating Places
453,sg:3379f5ed59fc4e32afbc66d362a8242d,-97.271455,32.912155,484391139215,4,True,False,-97.2646323,32.904708299999996,Bakeries and Tortilla Manufacturing
454,sg:61f5efbc37c44b1eae1bbbc0bc92fa38,-97.333166,32.753987,484391139215,4,True,False,-97.2646323,32.904708299999996,Offices of Physicians
455,sg:f858f062fc8c4117b0983ca259151c7f,-97.286636,32.894940000000005,484391139215,12,True,True,-97.2646323,32.904708299999996,Health and Personal Care Stores
456,sg:0e92008c18ed4dd49af4ad733547c6fc,-97.309742,32.822488,484391139215,4,True,False,-97.2646323,32.904708299999996,Book Stores and News Dealers
457,sg:d4e245f10c664c1ca117d165107e8df8,-97.274252,32.893285999999996,484391139215,5,True,True,-97.2646323,32.904708299999996,Restaurants and Other Eating Places
458,sg:fc08c425b08f41cd8f239c57d9a08f14,-97.28654499999999,32.895216999999995,484391139215,82,True,True,-97.2646323,32.904708299999996,"General Merchandise Stores, including Warehouse Clubs and Supercenters"
459,sg:540ebc678b374640bc6f07bbdfe49ccd,-97.261926,32.893461,484391139215,4,True,False,-97.2646323,32.904708299999996,Florists
460,sg:9cf66309cd14463a919185428566c54a,-97.290213,32.896537,484391139215,4,True,False,-97.2646323,32.904708299999996,Restaurants and Other Eating Places
461,sg:1e029c31633847058d7bab3724200c75,-97.306063,32.897676000000004,484391139215,5,True,True,-97.2646323,32.904708299999996,Continuing Care Retirement Communities and Assisted Living Facilities for the Elderly
462,sg:484d514ff63a4483b35df56843decc5f,-97.408201,32.643277000000005,484391139215,5,True,True,-97.2646323,32.904708299999996,Home Health Care Services
463,sg:b0c233ad42d64156a741238bd47510bf,-97.268188,32.873482,484391139215,10,True,True,-97.2646323,32.904708299999996,Restaurants and Other Eating Places
464,sg:0c8f94e960a742a7a505988f46c30d2b,-97.214044,32.75488,484391139215,4,True,False,-97.2646323,32.904708299999996,Depository Credit Intermediation
465,sg:1a167246121445c795904f6d76ef04f5,-97.31611099999999,32.909888,484391139215,4,True,False,-97.2646323,32.904708299999996,Restaurants and Other Eating Places
466,sg:8c24fbb82abd4924ba37aa3e4051bad8,-97.273352,32.895210999999996,484391139215,32,True,True,-97.2646323,32.904708299999996,Gasoline Stations
467,sg:83cbfa4dab8042b19b77312813210161,-97.266944,32.87462,484391139215,6,True,True,-97.2646323,32.904708299999996,Offices of Physicians
468,sg:058551639e724800a843459187b74a8e,-97.298705,32.834902,484391139215,4,True,False,-97.2646323,32.904708299999996,"Executive, Legislative, and Other General Government Support"
469,sg:2f109ac4b8bf43d2b95bfc132d047187,-97.271737,32.894313000000004,484391139215,6,True,True,-97.2646323,32.904708299999996,Grocery Stores
470,sg:c36493d2dc7b4e29bd1bc5427fa7e916,-97.263559,32.895713,484391139215,4,True,False,-97.2646323,32.904708299999996,Restaurants and Other Eating Places
471,sg:85bb03c40b5c40e2bb401d50c050959b,-97.264483,32.894176,484391139215,11,True,True,-97.2646323,32.904708299999996,Restaurants and Other Eating Places
472,sg:f31108e3d136496aa65eb2f3d1196dd5,-97.26818,32.900809,484391139215,6,True,True,-97.2646323,32.904708299999996,Child Day Care Services
473,sg:6f50caf20b164319b4885403bbd852e8,-97.344155,32.731057,484391139215,4,True,False,-97.2646323,32.904708299999996,Offices of Physicians
474,sg:cbc0fd78f4ca4fdca94a52f79b4a03a4,-97.38853399999999,32.881309,484391139215,4,True,False,-97.2646323,32.904708299999996,Offices of Dentists
475,sg:907bb0df7fed499da383a1dafc7241bf,-97.265024,32.895726,484391139215,10,True,True,-97.2646323,32.904708299999996,Restaurants and Other Eating Places
476,sg:557b12573f5a4e7ebddb8820d4390120,-97.290246,32.895165999999996,484391139215,6,True,True,-97.2646323,32.904708299999996,"Sporting Goods, Hobby, and Musical Instrument Stores"
477,sg:a39656d5f3284dd78da1f003e082a974,-97.264235,32.892632,484391139215,5,True,True,-97.2646323,32.904708299999996,Child Day Care Services
478,sg:eb74e51c23a848849c558f10ca915712,-97.271812,32.894227,484391139215,12,True,True,-97.2646323,32.904708299999996,Other Amusement and Recreation Industries
479,sg:286782307d54440bba053176cfabf379,-97.265175,32.89424,484391139215,18,True,True,-97.2646323,32.904708299999996,Gasoline Stations
480,sg:72545e71bd224eaa8ff846444ea9382c,-97.32149799999999,32.902458,484391139215,8,True,True,-97.2646323,32.904708299999996,Restaurants and Other Eating Places
481,sg:e0f5ca2b93d943fd8c50f10e7530c158,-97.275125,32.954707,484391139215,4,True,False,-97.2646323,32.904708299999996,Child Day Care Services
482,sg:333d993c41d9411bbaed165c83a04485,-97.38881500000001,32.708888,484391139215,4,True,False,-97.2646323,32.904708299999996,Restaurants and Other Eating Places
483,sg:63ae23ce6dba4b8c8bdce8ba8bbb255b,-97.03961600000001,32.835053,483671407032,4,True,False,-97.66467340000001,32.7215492,Motion Picture and Video Industries
484,sg:fad47f8cf3754c19bbee08fd9afa4f79,-97.44139399999999,32.729428000000006,483671407032,4,True,False,-97.66467340000001,32.7215492,"Sporting Goods, Hobby, and Musical Instrument Stores"
485,sg:9821e9db75534682a742bcef69f8c05e,-97.38275,32.742012,483671407032,4,True,False,-97.66467340000001,32.7215492,Grocery Stores
486,sg:cb81490cd55042fdb2328c1968375477,-97.36323399999999,32.753603999999996,483671407032,4,True,False,-97.66467340000001,32.7215492,Offices of Other Health Practitioners
487,sg:bf747075ab054e80913af3369c7a551b,-97.450242,32.722206,483671407032,8,True,True,-97.66467340000001,32.7215492,Electronics and Appliance Stores
488,sg:2a36e5f5fc6b4d498c0fd6fcbfca491f,-97.419221,32.727783,483671407032,4,True,False,-97.66467340000001,32.7215492,Restaurants and Other Eating Places
489,sg:d314a99f032d49079985525a74b8d849,-97.36385,32.725714,483671407032,4,True,False,-97.66467340000001,32.7215492,Continuing Care Retirement Communities and Assisted Living Facilities for the Elderly
490,sg:b37c340f6dd642f1bc80735e2c824ba9,-97.227407,32.707157,483671407032,5,True,True,-97.66467340000001,32.7215492,Services to Buildings and Dwellings
491,sg:66dfa8745663456f8c5ac43733eaaee2,-97.34813299999999,32.619803999999995,484391060042,4,True,False,-97.31342020000001,32.6174324,Automotive Repair and Maintenance
492,sg:be7cc497642d40bdbb3d7f29963641f1,-97.308402,32.960922,484391060042,5,True,True,-97.31342020000001,32.6174324,"Sporting Goods, Hobby, and Musical Instrument Stores"
493,sg:c161f437babc4ff78fd192e082eb6fd7,-97.40386600000001,32.662034999999996,484391060042,4,True,False,-97.31342020000001,32.6174324,Restaurants and Other Eating Places
494,sg:daf7f3dc93ad4b35890aebd7fb3f6f80,-97.289075,32.612564,484391060042,7,True,True,-97.31342020000001,32.6174324,Depository Credit Intermediation
495,sg:4d18ba6fb09a40099c38f187db94142a,-97.32036,32.616116999999996,484391060042,4,True,False,-97.31342020000001,32.6174324,Automotive Repair and Maintenance
496,sg:e23b2eb7095f41cbbf4b3057e0eb4649,-97.289652,32.631351,484391060042,4,True,False,-97.31342020000001,32.6174324,Grocery Stores
497,sg:7b855e5101264e979155f0635ddaa53f,-97.328369,32.795474,484391060042,4,True,False,-97.31342020000001,32.6174324,Offices of Physicians
498,sg:0d1dc8231af644af9ee32b266c9116b0,-97.305417,32.621327,484391060042,4,True,False,-97.31342020000001,32.6174324,"Foundation, Structure, and Building Exterior Contractors"
499,sg:90d47471dbe74083af6f183a3dd3a532,-97.34004499999999,32.730334,484391060042,4,True,False,-97.31342020000001,32.6174324,Restaurants and Other Eating Places
500,sg:bd883e80599d435c9bd88c4e82f2bf5f,-97.323279,32.624041,484391060042,6,True,True,-97.31342020000001,32.6174324,Automotive Repair and Maintenance
501,sg:a568321c942c4754a55cb2ea109639f0,-97.309887,32.627154,484391060042,4,True,False,-97.31342020000001,32.6174324,"Justice, Public Order, and Safety Activities"
502,sg:83131c1263a4432e8213e9de9f95f1b2,-97.361209,32.750934,482511306022,4,False,False,-97.5384932,32.2590463,Depository Credit Intermediation
503,sg:40dff5fbca264999831831b41acabc12,-97.3315,32.757346999999996,482511306022,5,False,True,-97.5384932,32.2590463,Clothing Stores
504,sg:8aee4a34d8064ac393a215f3c9058c48,-97.332091,32.754771000000005,484391115472,4,False,False,-97.07636679999999,32.6312483,Restaurants and Other Eating Places
505,sg:40a35c1c5d4448aa9fee652419a9ec11,-97.335739,32.757112,484391115472,4,False,False,-97.07636679999999,32.6312483,"Justice, Public Order, and Safety Activities"
506,sg:c63611d9b43e4ae598f85a0d9be79783,-97.232812,32.736953,484391115472,4,False,False,-97.07636679999999,32.6312483,Restaurants and Other Eating Places
507,sg:d14029ff7eb545e9a9856031c5d1b1b4,-97.222589,32.746944,484391115472,5,False,True,-97.07636679999999,32.6312483,Offices of Other Health Practitioners
508,sg:97fe16c27adf45ca8d215ea6c25a5135,-97.421717,32.661333,484391024022,4,False,False,-97.4342626,32.7131108,Offices of Other Health Practitioners
509,sg:c6af936e99e645a78ac4c0bba55a72bd,-97.43417600000001,32.721178,484391024022,4,False,False,-97.4342626,32.7131108,Building Material and Supplies Dealers
510,sg:706dee972048473e8b976ec317cac139,-97.416979,32.724548999999996,484391024022,4,False,False,-97.4342626,32.7131108,Offices of Other Health Practitioners
511,sg:b649b6be3aa649d29c6a6b0c53b8fe2c,-97.377778,32.788916,484391005022,7,True,True,-97.3790497,32.7880734,"General Merchandise Stores, including Warehouse Clubs and Supercenters"
512,sg:11903639d2fc4bec95ef89f9a9edc774,-97.368925,32.792893,484391005022,6,True,True,-97.3790497,32.7880734,Elementary and Secondary Schools
513,sg:9f70265e9051439d8f0d3625109af9cb,-97.38370400000001,32.788628,484391005022,5,True,True,-97.3790497,32.7880734,Restaurants and Other Eating Places
514,sg:ed5be48e1eb747808850f7019d261fb1,-97.42948299999999,32.752937,484391005022,6,True,True,-97.3790497,32.7880734,Depository Credit Intermediation
515,sg:051d494bc96849ada8f0f8bd75aec6ea,-97.37350699999999,32.79368,484391005022,16,True,True,-97.3790497,32.7880734,Restaurants and Other Eating Places
516,sg:87792b0cfa94455fbd42e77dcf7a9c5b,-97.276314,32.720352,484391005022,4,True,False,-97.3790497,32.7880734,Religious Organizations
517,sg:d03cc0a9dc2e457ab9ce113f8c87a038,-97.43191,32.721457,482511304102,4,False,False,-97.22995290000001,32.4618308,Restaurants and Other Eating Places
518,sg:a3ed4ef6e0cf4e1585c9c42d8733db9f,-97.41,32.709204,482511304102,4,False,False,-97.22995290000001,32.4618308,Offices of Physicians
519,sg:d6a4d41bd40d44079afe2300b8727023,-97.30643,32.915321,484391139224,4,True,False,-97.30279540000001,32.928289899999996,Restaurants and Other Eating Places
520,sg:d58140d2046c4913ab12f5bd7ff0eede,-97.29515,32.914938,484391139224,4,True,False,-97.30279540000001,32.928289899999996,Restaurants and Other Eating Places
521,sg:edc8bf6e0f85447eacb62f8d8649f170,-97.316099,32.917246999999996,484391139224,8,True,True,-97.30279540000001,32.928289899999996,Restaurants and Other Eating Places
522,sg:58077fdd234041e7a76f695d6caefc4e,-97.294411,32.91479,484391139224,4,True,False,-97.30279540000001,32.928289899999996,Offices of Physicians
523,sg:14eb20cd0e674daca765ed2d20955987,-97.297344,32.925101,484391139224,5,True,True,-97.30279540000001,32.928289899999996,"Sporting Goods, Hobby, and Musical Instrument Stores"
524,sg:4b1253973070421187419903726b17af,-97.310992,32.918848,484391139224,4,True,False,-97.30279540000001,32.928289899999996,Other Financial Investment Activities
525,sg:fc1ab620829e43719617896af1c5c5b9,-97.311916,32.94027,484391139224,4,True,False,-97.30279540000001,32.928289899999996,Automobile Dealers
526,sg:68f2cfe08f824cdcb84238f101866831,-97.302728,32.926102,484391139224,8,True,True,-97.30279540000001,32.928289899999996,Elementary and Secondary Schools
527,sg:f6fc106f96ff476ea848772c8da9c576,-97.31240600000001,32.933777,484391139224,9,True,True,-97.30279540000001,32.928289899999996,Restaurants and Other Eating Places
528,sg:acb48a7ab09349c5a3e9f86f5004d3cf,-97.416265,32.735803000000004,484391139224,4,True,False,-97.30279540000001,32.928289899999996,Nondepository Credit Intermediation
529,sg:fc3d5330c85c4eb3afaff53382b28a86,-97.312703,32.932915,484391139224,8,True,True,-97.30279540000001,32.928289899999996,Gasoline Stations
530,sg:7cfe6a9f40514d8fbf0928e08a6f20d1,-97.30800500000001,32.935078000000004,484391139224,4,True,False,-97.30279540000001,32.928289899999996,Waste Treatment and Disposal
531,sg:c4f1dce0c7ea4426b5800db89dd4f582,-97.42169,32.808676,484391139224,6,True,True,-97.30279540000001,32.928289899999996,Restaurants and Other Eating Places
532,sg:1d07b4422e8448a5aa58b4974ce03be9,-97.30931899999999,32.911513,484391139224,22,True,True,-97.30279540000001,32.928289899999996,"Jewelry, Luggage, and Leather Goods Stores"
533,sg:0436183bdfca4288aaf9241194384284,-97.2845,32.923272,484391139224,4,True,False,-97.30279540000001,32.928289899999996,"Automotive Parts, Accessories, and Tire Stores"
534,sg:f312ffedf1874544b38b13359feae938,-97.25496700000001,32.951276,484391139224,4,True,False,-97.30279540000001,32.928289899999996,Automotive Repair and Maintenance
535,sg:6bf5ae5b19904e02a5719cd31c2a358c,-97.377086,32.759696999999996,484391139224,5,True,True,-97.30279540000001,32.928289899999996,Restaurants and Other Eating Places
536,sg:e46bf0082f4b49b3830084458800cadc,-97.30582199999999,32.914724,484391139224,11,True,True,-97.30279540000001,32.928289899999996,Lessors of Real Estate
537,sg:c18e9ec22c7c4d0f8d78a024bc2f318d,-97.297723,32.929349,484391139224,7,True,True,-97.30279540000001,32.928289899999996,Building Material and Supplies Dealers
538,sg:f4196459e846400293931e89a900d3e9,-97.32405200000001,32.786804,484391139224,5,True,True,-97.30279540000001,32.928289899999996,"Colleges, Universities, and Professional Schools"
539,sg:1840127564e24403beb4c3f479d01a77,-97.303803,32.924009999999996,484391139224,4,True,False,-97.30279540000001,32.928289899999996,Offices of Other Health Practitioners
540,sg:0bdb303730824bd2b9998cf7b3783713,-97.32401899999999,32.899064,484391139224,4,True,False,-97.30279540000001,32.928289899999996,Restaurants and Other Eating Places
541,sg:17ab2b4b57f84edc86baddfd75101a11,-97.309273,32.770202000000005,483671404102,4,False,False,-97.7397455,32.918088,"Agencies, Brokerages, and Other Insurance Related Activities"
542,sg:248301c2d9f744eab9a6ec32fd6a62a5,-97.36253599999999,32.732508,483671404102,4,False,False,-97.7397455,32.918088,Depository Credit Intermediation
543,sg:fa37a58d3d704483b894bfb6ca0c28a1,-97.436503,32.810894,483671404102,4,False,False,-97.7397455,32.918088,"Justice, Public Order, and Safety Activities"
544,sg:5e6f361bc3f44b4a8ff943b7f9689b8c,-97.444779,32.766134,483671404102,4,False,False,-97.7397455,32.918088,Restaurants and Other Eating Places
545,sg:27a83ad9c82d4129b10c63d77eb12ed4,-97.287082,32.774383,484391012012,5,True,True,-97.2832738,32.7743401,Gasoline Stations
546,sg:e4895a0df28e4132bd507bae014028fb,-97.28975799999999,32.780357,484391012012,15,True,True,-97.2832738,32.7743401,Grocery Stores
547,sg:7afb44374b944565af7a4fba215bd87e,-97.290662,32.76502,484391012012,4,True,False,-97.2832738,32.7743401,Automotive Repair and Maintenance
548,sg:39260103370b4b5b8cca5914107caced,-97.26118199999999,32.729838,484391012012,4,True,False,-97.2832738,32.7743401,Couriers and Express Delivery Services
549,sg:5ea60460b566477d835d3ef7d44c532c,-97.345414,32.734487,484391012012,4,True,False,-97.2832738,32.7743401,Offices of Physicians
550,sg:36d6c42a056c42519aca46833712ef89,-97.311592,32.821113000000004,484391052014,4,True,False,-97.4590134,32.7359729,Traveler Accommodation
551,sg:6ea60c5b86ec4a169fdcf3af1c254f5f,-97.46387800000001,32.735524,484391052014,4,True,False,-97.4590134,32.7359729,Religious Organizations
552,sg:13293865d5c84b94a32625fe7ec5d4e1,-97.46019,32.734679,484391052014,4,True,False,-97.4590134,32.7359729,Elementary and Secondary Schools
553,sg:a1e8a7e50f4241f5918dc0815a9d716f,-97.453974,32.734469,484391052014,6,True,True,-97.4590134,32.7359729,Continuing Care Retirement Communities and Assisted Living Facilities for the Elderly
554,sg:0f79a91bf7f9481c86d526e4af988e5a,-97.451755,32.735315,484391052014,4,True,False,-97.4590134,32.7359729,Traveler Accommodation
555,sg:a2f3b226108b4dacba6cf7d5bd67b787,-97.46299,32.737171000000004,484391052014,14,True,True,-97.4590134,32.7359729,Traveler Accommodation
556,sg:7d9866ce903e44b5bbb4a71c12b66bee,-97.470138,32.724699,484391052014,5,True,True,-97.4590134,32.7359729,Restaurants and Other Eating Places
557,sg:1ecd6828d0024ce190451160419c69d8,-97.417407,32.736796000000005,484391052014,4,True,False,-97.4590134,32.7359729,Elementary and Secondary Schools
558,sg:9d1ad73526ee432582ef63bcbea807c9,-97.452274,32.738926,484391052014,4,True,False,-97.4590134,32.7359729,Grocery Stores
559,sg:2afdf6f65f564b46b5bc470e0598046b,-97.308452,32.777193,484391052014,4,True,False,-97.4590134,32.7359729,Grocery Stores
560,sg:917797894db442cf9a6720a990133e9f,-97.239098,32.721340000000005,484391052014,4,True,False,-97.4590134,32.7359729,"Beer, Wine, and Liquor Stores"
561,sg:3aff4c6477b54196a4c7d45e035b59db,-97.39035799999999,32.705247,484391055142,5,True,True,-97.4052554,32.6704516,Restaurants and Other Eating Places
562,sg:ecb436202492455eb2da2a50eac80e07,-97.415836,32.676317,484391055142,9,True,True,-97.4052554,32.6704516,Restaurants and Other Eating Places
563,sg:470c0cdecc7c4c63aa93fcfe9022914c,-97.403425,32.643336,484391055142,4,True,False,-97.4052554,32.6704516,Religious Organizations
564,sg:058c4a7fef024cc1aaf22010a742e223,-97.405051,32.675326,484391055142,6,True,True,-97.4052554,32.6704516,Personal Care Services
565,sg:8dd5ce0dfe4249b5b0292dec3ed29bcb,-97.41964499999999,32.665682000000004,484391055142,16,True,True,-97.4052554,32.6704516,Other Amusement and Recreation Industries
566,sg:15ea83eba4094895aec20b0ff77c2ded,-97.39515,32.678911,484391055142,4,True,False,-97.4052554,32.6704516,Furniture Stores
567,sg:5086dd8233dc4ab682b4951f51585caa,-97.370577,32.632293,484391110112,9,True,True,-97.3690505,32.6131512,Lessors of Real Estate
568,sg:1eb6ff6cbe6547f3afd7c0756776871f,-97.358618,32.611746000000004,484391110112,5,True,True,-97.3690505,32.6131512,Services to Buildings and Dwellings
569,sg:ecaeba9b853547928e240279703317e6,-97.349172,32.635628999999994,484391110112,4,True,False,-97.3690505,32.6131512,Restaurants and Other Eating Places
570,sg:8d42f4c0a0ff4bb399ca9be43ffb7531,-97.353756,32.752201,484391110112,4,True,False,-97.3690505,32.6131512,Other Amusement and Recreation Industries
571,sg:46b34e77e5d04b1d9ed1a66e7a3c5be4,-97.401135,32.672401,484391110112,11,True,True,-97.3690505,32.6131512,Lessors of Real Estate
572,sg:7c829f673c9441b39413bc9aa7f65885,-97.360597,32.616887,484391110112,4,True,False,-97.3690505,32.6131512,"Accounting, Tax Preparation, Bookkeeping, and Payroll Services"
573,sg:8975384d05ce4637a070b64cb1139719,-97.39032399999999,32.634927000000005,484391110112,4,True,False,-97.3690505,32.6131512,Restaurants and Other Eating Places
574,sg:61dcaa8ef2b24f32b534bb2416ddbd78,-97.371465,32.633424,484391110112,27,True,True,-97.3690505,32.6131512,Grocery Stores
575,sg:2e46e1314cd240f39a94278e43222301,-97.39660400000001,32.684611,484391110112,4,True,False,-97.3690505,32.6131512,Other Miscellaneous Store Retailers
576,sg:ce7cfa643a094f3ab98482cbd818eed1,-97.386597,32.616735999999996,484391110112,18,True,True,-97.3690505,32.6131512,Restaurants and Other Eating Places
577,sg:9b383fa5c3bf4321a16dff962b5890dd,-97.361082,32.656597999999995,484391110112,9,True,True,-97.3690505,32.6131512,Restaurants and Other Eating Places
578,sg:3c5259e701064669ac47d5020d8d3c6d,-97.36928,32.635622999999995,484391110112,11,True,True,-97.3690505,32.6131512,Restaurants and Other Eating Places
579,sg:59dbb74abbeb497fbbaf0cc20fd41d64,-97.370325,32.622793,484391110112,4,True,False,-97.3690505,32.6131512,Individual and Family Services
580,sg:9c8b39d2d9d74f938d0dd808d9a34e01,-97.370499,32.635488,484391110112,9,True,True,-97.3690505,32.6131512,Gasoline Stations
581,sg:930e93e8754e4d408e4fa62984765a66,-97.38906300000001,32.61838,484391110112,4,True,False,-97.3690505,32.6131512,Restaurants and Other Eating Places
582,sg:277021931acf43788f611981674481ba,-97.36616500000001,32.649051,484391110112,6,True,True,-97.3690505,32.6131512,"Automotive Parts, Accessories, and Tire Stores"
583,sg:6e5bcc58105d4b13af64885656427505,-97.387123,32.616753,484391110112,25,True,True,-97.3690505,32.6131512,Restaurants and Other Eating Places
584,sg:760ce0e204904a53963f9b751869b3da,-97.369979,32.617706,484391110112,28,True,True,-97.3690505,32.6131512,"General Merchandise Stores, including Warehouse Clubs and Supercenters"
585,sg:99cda8d12402478ba940695d03cf8c6b,-97.25724,32.713453,484391110112,4,True,False,-97.3690505,32.6131512,Grocery Stores
586,sg:c817f3fcaf414ee6b63be41914b8487f,-97.3683,32.649347999999996,484391110112,11,True,True,-97.3690505,32.6131512,Restaurants and Other Eating Places
587,sg:a12277c84b194411a72a557cc09cf429,-97.387687,32.616375,484391110112,7,True,True,-97.3690505,32.6131512,"Office Supplies, Stationery, and Gift Stores"
588,sg:190718da5b674506b98b24fac946650c,-97.379745,32.634275,484391110112,8,True,True,-97.3690505,32.6131512,Restaurants and Other Eating Places
589,sg:5c3aa3d144604ec5a0f0f9b9574623f6,-97.387907,32.618313,484391110112,16,True,True,-97.3690505,32.6131512,Restaurants and Other Eating Places
590,sg:70eaa22d7b1146dbb34ed054ee213daf,-97.2613,32.733753,484391110112,4,True,False,-97.3690505,32.6131512,Building Material and Supplies Dealers
591,sg:1681e7d72466407cab93fab7789523bb,-97.349087,32.615027000000005,484391110112,14,True,True,-97.3690505,32.6131512,Grocery Stores
592,sg:13b3cf5431c749f08a5488c06ec91092,-97.39635899999999,32.641576,484391110112,11,True,True,-97.3690505,32.6131512,Restaurants and Other Eating Places
593,sg:a664b11fd2684a43a3f2ccc3f1975169,-97.434062,32.706332,484391110112,4,True,False,-97.3690505,32.6131512,Religious Organizations
594,sg:e997a49212ee46b7b401000d3b3d3c44,-97.368978,32.650481,484391110112,19,True,True,-97.3690505,32.6131512,Restaurants and Other Eating Places
595,sg:fecc7285ee8f472c872a3f75d9d97456,-97.36480999999999,32.607797999999995,484391110112,5,True,True,-97.3690505,32.6131512,Elementary and Secondary Schools
596,sg:134d22a19d1f4927ac38516cf7bfacdb,-97.392836,32.648376,484391110112,4,True,False,-97.3690505,32.6131512,Religious Organizations
597,sg:70f7664030174fdc837d24e05b6a297e,-97.303686,32.746588,484391110112,4,True,False,-97.3690505,32.6131512,Gasoline Stations
598,sg:09838a3107824a9080b3da1ff9cbecc2,-97.386377,32.608446,484391110112,6,True,True,-97.3690505,32.6131512,Home Health Care Services
599,sg:5dee7f1c7a954c1f9b40ac5beab0b9e8,-97.371337,32.633759999999995,484391110112,44,True,True,-97.3690505,32.6131512,Lessors of Real Estate
600,sg:d3fc8b0069b5428a821e0daf6dd6aba9,-97.365507,32.731969,484391110112,4,True,False,-97.3690505,32.6131512,Offices of Other Health Practitioners
601,sg:b4b7fad37e114949a2339c9901601165,-97.371041,32.650556,484391110112,4,True,False,-97.3690505,32.6131512,Restaurants and Other Eating Places
602,sg:b7c9d03c6795418ea18bec1d7c80094c,-97.389309,32.617709000000005,484391110112,11,True,True,-97.3690505,32.6131512,Health and Personal Care Stores
603,sg:9bbf7727154947108423f32faef52fed,-97.332054,32.68187,484391110112,4,True,False,-97.3690505,32.6131512,Clothing Stores
604,sg:a1abca9f6f6b4a0c9fe3a5f09a73c940,-97.33113900000001,32.725707,484391110112,5,True,True,-97.3690505,32.6131512,Religious Organizations
605,sg:ed6dfe58d8784eb49a50b096b073fb45,-97.302334,32.768941999999996,484391110112,4,True,False,-97.3690505,32.6131512,Gasoline Stations
606,sg:44a29dbad53e42c3bfbd735b0f6207b2,-97.370766,32.633516,484391110112,4,True,False,-97.3690505,32.6131512,Personal Care Services
607,sg:7513c58ce9974984bdec9fa512a9df87,-97.32393,32.633368,484391110112,21,True,True,-97.3690505,32.6131512,Building Material and Supplies Dealers
608,sg:421acfa923f041f7b29b64bbafff1ff5,-97.370269,32.633922999999996,484391110112,9,True,True,-97.3690505,32.6131512,Restaurants and Other Eating Places
609,sg:5ad4efce92b148d690914f29ea9d8cfa,-97.226748,32.739956,484391110112,5,True,True,-97.3690505,32.6131512,Elementary and Secondary Schools
610,sg:cee1f82cc9174e249969cf5ca3d683dd,-97.394201,32.614340000000006,484391110112,4,True,False,-97.3690505,32.6131512,Child Day Care Services
611,sg:c8bbc8a4a274488caf3f6fb014d894a8,-97.324904,32.602466,484391110112,8,True,True,-97.3690505,32.6131512,Automotive Repair and Maintenance
612,sg:324b49b309f4476a9edc680418046475,-97.352793,32.751825,484391110112,4,True,False,-97.3690505,32.6131512,"Sporting Goods, Hobby, and Musical Instrument Stores"
613,sg:8b24c935e242400983342f078ad444dc,-97.371649,32.636249,484391110112,15,True,True,-97.3690505,32.6131512,"General Merchandise Stores, including Warehouse Clubs and Supercenters"
614,sg:d501fa7d916342778dd6c195f2b5ef40,-97.412614,32.676711,484391110112,4,True,False,-97.3690505,32.6131512,Building Finishing Contractors
615,sg:bd0fc59cb8d4466fb01b109a5e8f19ef,-97.434205,32.73152,484391110112,4,True,False,-97.3690505,32.6131512,Restaurants and Other Eating Places
616,sg:6d5fd2f7284540488820e520560e97d4,-97.322851,32.619634000000005,484391110112,4,True,False,-97.3690505,32.6131512,Furniture Stores
617,sg:5a905175533549c5bf774d14bff5d961,-97.387836,32.617662,484391110112,21,True,True,-97.3690505,32.6131512,Grocery Stores
618,sg:dcdf9dd9e3a740d8a10b7fff0d2f6e19,-97.275248,32.741046000000004,484391110112,4,True,False,-97.3690505,32.6131512,Medical and Diagnostic Laboratories
619,sg:d0a679fd397a4b85a46799c228137c81,-97.446586,32.722231,484391110112,4,True,False,-97.3690505,32.6131512,Automotive Repair and Maintenance
620,sg:16397f9a223c444fa0374abf49d58f23,-97.367276,32.636629,484391110112,91,True,True,-97.3690505,32.6131512,"General Merchandise Stores, including Warehouse Clubs and Supercenters"
621,sg:c5900679ffa94702aa63a12234a20b30,-97.365911,32.652,484391110112,5,True,True,-97.3690505,32.6131512,Health and Personal Care Stores
622,sg:85f0238f766d441a980d8c609000319c,-97.39432,32.648608,484391110112,4,True,False,-97.3690505,32.6131512,Religious Organizations
623,sg:58ae1503c4bf493581b2ecbbfa4c3411,-97.33280500000001,32.751133,481130079111,4,False,False,-96.7615899,32.8627864,Restaurants and Other Eating Places
624,sg:73e0e72a0c424c8fbecf060f9e4380c8,-97.306384,32.726896,484391055102,4,True,False,-97.3953434,32.6302756,Automotive Repair and Maintenance
625,sg:84305459b86d4da782fde27d5d0d7c3f,-97.387697,32.632173,484391055102,4,True,False,-97.3953434,32.6302756,Child Day Care Services
626,sg:1def797ebee943d09eae3126bae6cb1d,-97.381251,32.634966,484391055102,6,True,True,-97.3953434,32.6302756,Child Day Care Services
627,sg:8e8bffad2f6d48cbafdd4a296cb4d9c9,-97.389499,32.632422999999996,484391055102,4,True,False,-97.3953434,32.6302756,Offices of Dentists
628,sg:60948909c4f648248d0328488d3179f4,-97.367335,32.63538,484391055102,4,True,False,-97.3953434,32.6302756,Clothing Stores
629,sg:1f7d09f1ae2c4f2bba20fbc9d43d8409,-97.390956,32.633871,484391055102,7,True,True,-97.3953434,32.6302756,Restaurants and Other Eating Places
630,sg:827878a91e6846299a9171faaac8b4ab,-97.40264300000001,32.658508000000005,484391055102,4,True,False,-97.3953434,32.6302756,Health and Personal Care Stores
631,sg:22a4495f2a064d4786346b082e8664cc,-97.403981,32.675334,484391055102,4,True,False,-97.3953434,32.6302756,Other Amusement and Recreation Industries
632,sg:d39a0a7727584e30ac9d0dbc6acc3ea9,-97.379667,32.635733,484391055102,4,True,False,-97.3953434,32.6302756,Restaurants and Other Eating Places
633,sg:7745caeed703468dbe1d9da2ebbb763e,-97.391361,32.665712,484391055081,4,True,False,-97.41501269999999,32.6524823,Child Day Care Services
634,sg:e632b65da8a943b19aa61efcdc2f4086,-97.420856,32.660226,484391055081,4,True,False,-97.41501269999999,32.6524823,Home Health Care Services
635,sg:a1df334c1d9e43959bd847201b7584bb,-97.402816,32.661609000000006,484391055081,10,True,True,-97.41501269999999,32.6524823,Health and Personal Care Stores
636,sg:f9bb2e4d0a064fac8ca835a6f96737c9,-97.40378199999999,32.661287,484391055081,36,True,True,-97.41501269999999,32.6524823,Lessors of Real Estate
637,sg:9f13b2ec3789479e90801494649d7cc2,-97.403633,32.662243,484391055081,4,True,False,-97.41501269999999,32.6524823,Restaurants and Other Eating Places
638,sg:78c1132ff96d45ed8fa989a7fab9e675,-97.40567800000001,32.656117,484391055081,10,True,True,-97.41501269999999,32.6524823,Travel Arrangement and Reservation Services
639,sg:5574295cfa604191872a4e501701dd97,-97.406612,32.653093,484391055081,5,True,True,-97.41501269999999,32.6524823,Automotive Repair and Maintenance
640,sg:fd2a591ebf7b4361bdc1930d67c06a78,-97.406538,32.657177000000004,484391055081,10,True,True,-97.41501269999999,32.6524823,Depository Credit Intermediation
641,sg:8f58cff4a63d49bc9c8db73ae37f2919,-97.485857,32.727121000000004,484391055081,6,True,True,-97.41501269999999,32.6524823,Services to Buildings and Dwellings
642,sg:190e1f03a11742df80fe9b4518a1b50a,-97.410639,32.654264000000005,484391055081,7,True,True,-97.41501269999999,32.6524823,Child Day Care Services
643,sg:cc762ff8a00b4ae782b4c530754a6575,-97.402856,32.662368,484391055081,7,True,True,-97.41501269999999,32.6524823,Gasoline Stations
644,sg:8ef850dfb3fa4c52bbc0b67115ad670c,-97.404945,32.664982,484391055081,52,True,True,-97.41501269999999,32.6524823,"General Merchandise Stores, including Warehouse Clubs and Supercenters"
645,sg:332fa7f5aadb48f2b7c26eb597718e09,-97.403464,32.661066,484391055081,9,True,True,-97.41501269999999,32.6524823,"General Merchandise Stores, including Warehouse Clubs and Supercenters"
646,sg:4b46c06916cd4f45b4305906389a3c50,-97.404886,32.660431,484391055081,10,True,True,-97.41501269999999,32.6524823,Motion Picture and Video Industries
647,sg:c152b5d541ba419d84495cebf1f6dc4e,-97.42704300000001,32.647936,484391055081,4,True,False,-97.41501269999999,32.6524823,Offices of Physicians
648,sg:dcf20a988a7a4eb4aa688cb5d21dd283,-97.418573,32.646628,484391055081,4,True,False,-97.41501269999999,32.6524823,General Medical and Surgical Hospitals
649,sg:e36783678b414ffe8892835ae1ef9da2,-97.408275,32.658825,484391055081,7,True,True,-97.41501269999999,32.6524823,Religious Organizations
650,sg:d751277b257249d087651c0dd1b687f2,-97.347989,32.615916999999996,484391055081,4,True,False,-97.41501269999999,32.6524823,
651,sg:6ab6279a3adc44edab3e0d43903459ae,-97.402709,32.660308,484391055081,8,True,True,-97.41501269999999,32.6524823,Restaurants and Other Eating Places
652,sg:8991fb91744c44c3809e77809ffc538f,-97.420906,32.662183,484391055081,4,True,False,-97.41501269999999,32.6524823,Medical and Diagnostic Laboratories
653,sg:8a930f3322874cd89a8f94460e89ea07,-97.36078,32.706775,484391055081,4,True,False,-97.41501269999999,32.6524823,Restaurants and Other Eating Places
654,sg:99ebd4965a5245528abb3a26307543c7,-97.40106999999999,32.657266,484391055081,4,True,False,-97.41501269999999,32.6524823,Used Merchandise Stores
655,sg:cef3912cefc942c4b91130bc58dc51bf,-97.379825,32.675668,484391055081,4,True,False,-97.41501269999999,32.6524823,"Sporting Goods, Hobby, and Musical Instrument Stores"
656,sg:437e5a9456fd4fa085783d502f7b7d56,-97.405781,32.664668,484391055081,9,True,True,-97.41501269999999,32.6524823,Health and Personal Care Stores
657,sg:9ee9ca7e0e744fe588c5bf2b6a063671,-97.323736,32.675912,484391055081,4,True,False,-97.41501269999999,32.6524823,Restaurants and Other Eating Places
658,sg:0127ccd543fb4d01b21445231adedf49,-97.389046,32.616163,484391055081,4,True,False,-97.41501269999999,32.6524823,"Automotive Parts, Accessories, and Tire Stores"
659,sg:e5ff0ee771e74a77a5bedb77fb7a58a8,-97.393592,32.738196,484391055081,4,True,False,-97.41501269999999,32.6524823,"Sporting Goods, Hobby, and Musical Instrument Stores"
660,sg:85941911be1540479168b8302ba1ec3e,-97.40196999999999,32.677231,482511302041,4,True,False,-97.35144749999999,32.5423182,Lessors of Real Estate
661,sg:b80725e791424a4c842a11a8dcc126a5,-97.33447,32.733331,482511302041,4,True,False,-97.35144749999999,32.5423182,Personal Care Services
662,sg:ab5ff06331074498844f3291c6abf328,-97.40179499999999,32.67719,482511302041,4,True,False,-97.35144749999999,32.5423182,Restaurants and Other Eating Places
663,sg:a718c592e2c24891af31327a4d383ac5,-97.350646,32.74074,482511302041,4,True,False,-97.35144749999999,32.5423182,Printing and Related Support Activities
664,sg:b2e12117265541c4a6e9eb044b895fa6,-97.347009,32.797771000000004,482511302041,4,True,False,-97.35144749999999,32.5423182,Automotive Repair and Maintenance
