,safegraph_place_id,longitude,latitude,cbg,visits,hotspot_origin,hotspot_destination,cbg_longitude,cbg_latitude,top_category
0,sg:05e114ea81c04f6aabb93972c2164db1,-118.17593899999999,34.087656,60372014011,11,True,True,-118.1814794,34.083416799999995,Restaurants and Other Eating Places
1,sg:d8778a9994274fa3965251564d11bb3d,-118.175426,34.087005,60372014011,7,True,True,-118.1814794,34.083416799999995,Building Material and Supplies Dealers
2,sg:affedae5683d47c186955fa8521326ac,-118.18011299999999,34.066859,60372014011,4,True,False,-118.1814794,34.083416799999995,Restaurants and Other Eating Places
3,sg:788c9ebf3d024b448bc1a919a87466b1,-118.266269,34.037493,60372014011,5,True,True,-118.1814794,34.083416799999995,Restaurants and Other Eating Places
4,sg:c66ce08c8cb8482e90a005764be7819f,-118.222504,34.052819,60372014011,4,True,False,-118.1814794,34.083416799999995,Automobile Dealers
5,sg:ad5c1ba6e6214bf497bc83dbd4b91110,-118.1831,34.085343,60372014011,7,True,True,-118.1814794,34.083416799999995,Building Material and Supplies Dealers
6,sg:97ad257d7fcb48d28ae0df6d8e915d60,-118.200547,34.069107,60372014011,4,True,False,-118.1814794,34.083416799999995,Restaurants and Other Eating Places
7,sg:53a22a7308ec490bb9299c9363b52930,-118.265805,34.037406,60372014011,6,True,True,-118.1814794,34.083416799999995,Offices of Physicians
8,sg:5ac2fd5813fa475cb3788e450b34bd59,-118.253547,34.038942999999996,60372014011,4,True,False,-118.1814794,34.083416799999995,"Sporting Goods, Hobby, and Musical Instrument Stores"
9,sg:5c5f8efec37e4b4eb7e0e0f500b31867,-118.20802900000001,34.096919,60372014011,7,True,True,-118.1814794,34.083416799999995,Grocery Stores
10,sg:cf9dd9aaa1b6464286d13c65fc228eef,-118.17941100000002,34.086197999999996,60372014011,4,True,False,-118.1814794,34.083416799999995,Health and Personal Care Stores
11,sg:8ab51d5a11ea414a8245c423c48f413a,-118.234874,34.041778,60372014011,4,True,False,-118.1814794,34.083416799999995,Other Amusement and Recreation Industries
12,sg:1127cea6e3994c45ad550bb3abce215f,-118.21776399999999,34.073864,60372014011,4,True,False,-118.1814794,34.083416799999995,Restaurants and Other Eating Places
13,sg:b0f07931f5af4eaa94905c19ffd37526,-118.18635400000001,34.086569,60372014011,5,True,True,-118.1814794,34.083416799999995,"General Merchandise Stores, including Warehouse Clubs and Supercenters"
14,sg:4ff8595b1f3e4f27be780de3a61acf65,-118.206754,34.1213,60372014011,4,True,False,-118.1814794,34.083416799999995,Restaurants and Other Eating Places
15,sg:65834f1c7e1c487eb8458d7660248668,-118.187284,34.086467999999996,60372014011,6,True,True,-118.1814794,34.083416799999995,Restaurants and Other Eating Places
16,sg:705ade9db0e8411ebd2aaa6ecc6e8646,-118.17763899999999,34.081285,60372014011,4,True,False,-118.1814794,34.083416799999995,Restaurants and Other Eating Places
17,sg:3a68646117dd420480acc1b243eb61a5,-118.177676,34.081508,60372014011,4,True,False,-118.1814794,34.083416799999995,Grocery Stores
18,sg:0ee32c6bd1444fb5a7578985e811f1c4,-118.323348,34.0755,60371924103,4,False,False,-118.3187389,34.079844200000004,Restaurants and Other Eating Places
19,sg:00d22ce75e1849c9b5acee47d2f5ca15,-118.38291399999999,34.05969,60371924103,4,False,False,-118.3187389,34.079844200000004,Traveler Accommodation
20,sg:cca5ee1ee0554f798d189545b29563aa,-118.29314,34.057588,60371924103,4,False,False,-118.3187389,34.079844200000004,Electronics and Appliance Stores
21,sg:1565a84dcbc144dcafe0c0dae5e95d72,-118.364296,33.834901,60376507023,8,False,True,-118.3649348,33.828714500000004,"Museums, Historical Sites, and Similar Institutions"
22,sg:2e21870eb6f64465b514687f21a52fa8,-118.319476,33.832225,60376507023,4,False,False,-118.3649348,33.828714500000004,"Museums, Historical Sites, and Similar Institutions"
23,sg:186f5017a7ed4008b3a3e49502a1297f,-118.26560500000001,33.919292,60376011002,4,False,False,-118.3508463,33.9490807,"Executive, Legislative, and Other General Government Support"
24,sg:59503ba9705b4e09b1729ab3ba9da9c0,-118.28378500000001,34.035825,60376011002,4,False,False,-118.3508463,33.9490807,Florists
25,sg:271d34ec62df4e059ff0bfb9ab35ac83,-118.458003,34.164308,60371289101,4,False,False,-118.45633529999999,34.1607708,Miscellaneous Durable Goods Merchant Wholesalers
26,sg:78b309f17a794d83821236a909da4d70,-118.278361,34.05533,60371289101,4,False,False,-118.45633529999999,34.1607708,Restaurants and Other Eating Places
27,sg:4a693b15f8854209987d542dbd091e9b,-118.246371,34.048233,60371289101,4,False,False,-118.45633529999999,34.1607708,Restaurants and Other Eating Places
28,sg:d1d429d6a73148b1b9342a1ec68c1c14,-118.37659599999999,34.058166,60371289101,4,False,False,-118.45633529999999,34.1607708,Religious Organizations
29,sg:32ab764b731f456a8bc392058abdd761,-118.215122,34.123224,60373025063,4,False,False,-118.2448486,34.1328249,Other Miscellaneous Store Retailers
30,sg:33e59f728dfc4686aacdbcfc00a29567,-118.15743400000001,34.018949,480850305221,10,False,True,-96.7591128,33.1927576,Used Merchandise Stores
31,sg:c57bb161aafe40a986a3917d2055731f,-118.31200700000001,33.984542,480850305221,4,False,False,-96.7591128,33.1927576,Furniture Stores
32,sg:3e6ebb6322cf4199ba1c76ef0091b5b5,-118.22613,34.069078999999995,60371999002,4,True,False,-118.2089922,34.065955100000004,Restaurants and Other Eating Places
33,sg:ed1a7d4493934354a3cc10a03009907a,-118.17377900000001,34.043791999999996,60371999002,4,True,False,-118.2089922,34.065955100000004,Automotive Repair and Maintenance
34,sg:638877903f3b4ff7aa7c4ff6f88dc34b,-118.21476399999999,34.078699,60371999002,4,True,False,-118.2089922,34.065955100000004,Restaurants and Other Eating Places
35,sg:cc1f4a775aa240dfa82209ee5493d690,-118.209544,34.066383,60371999002,4,True,False,-118.2089922,34.065955100000004,Restaurants and Other Eating Places
36,sg:5366f0e97f9644d2b3f592b0aa804cb2,-118.208704,34.089532,60371999002,6,True,True,-118.2089922,34.065955100000004,Religious Organizations
37,sg:89154c3fb37343dbb53775cf6674b43d,-118.280245,34.038502,60371999002,4,True,False,-118.2089922,34.065955100000004,"Sporting Goods, Hobby, and Musical Instrument Stores"
38,sg:b89abf9357ae4b02a6584a9455c75554,-118.206027,34.066328999999996,60371999002,9,True,True,-118.2089922,34.065955100000004,Restaurants and Other Eating Places
39,sg:de89a636de314d7990ecfe231e85352f,-118.20716399999999,34.0641,60371999002,4,True,False,-118.2089922,34.065955100000004,Elementary and Secondary Schools
40,sg:d59956338e6841baad57be6b815c0677,-118.203726,34.073629,60371999002,7,True,True,-118.2089922,34.065955100000004,Restaurants and Other Eating Places
41,sg:fc9c91210f294b76935fbdcc33f48022,-118.21281499999999,34.075294,60371999002,4,True,False,-118.2089922,34.065955100000004,Religious Organizations
42,sg:404dfaab178f4c1eb6d56ea8823e300e,-118.204498,34.055771,60371999002,6,True,True,-118.2089922,34.065955100000004,Restaurants and Other Eating Places
43,sg:43551909fb024a7a86aa465689d563ea,-118.211151,34.067012,60371999002,4,True,False,-118.2089922,34.065955100000004,"Office Supplies, Stationery, and Gift Stores"
44,sg:520cf51b05dc4b6784a2cbcd46af9684,-118.25241899999999,34.004236,60371999002,6,True,True,-118.2089922,34.065955100000004,Gasoline Stations
45,sg:fdaf6d1188024355911cccbb5e57a76b,-118.209332,34.073555,60371999002,4,True,False,-118.2089922,34.065955100000004,"General Merchandise Stores, including Warehouse Clubs and Supercenters"
46,sg:355dc230816c468c9e58678f8710a04a,-118.23013799999998,34.105,60371999002,4,True,False,-118.2089922,34.065955100000004,Restaurants and Other Eating Places
47,sg:ab85030b986743c9a797b9e48def98b6,-118.21525,34.070244,60371999002,4,True,False,-118.2089922,34.065955100000004,Restaurants and Other Eating Places
48,sg:b0706c4d11f54e458e3ea9633b0ebebc,-118.20845200000001,34.066256,60371999002,4,True,False,-118.2089922,34.065955100000004,Restaurants and Other Eating Places
49,sg:3e8c4706af73478c9f15482ccca8edee,-118.10309199999999,33.922208000000005,60375503005,5,False,True,-118.10194650000001,33.9202487,"Museums, Historical Sites, and Similar Institutions"
50,sg:4191791d657d494ebf7a775d368aae87,-118.441332,34.00704,60379800131,4,False,False,-118.38714509999998,33.9164971,Consumer Goods Rental
51,sg:9d346671dfbd4d7383227d8637301d42,-118.438432,34.010538000000004,60379800131,4,False,False,-118.38714509999998,33.9164971,Gasoline Stations
52,sg:431dc367d3814ee6ac5932c7667914ea,-118.28773400000001,34.057437,60372397021,6,True,True,-118.2760801,33.9628501,Religious Organizations
53,sg:0ad12ff1d2cb44b68e76702c0f85f0f6,-118.34091399999998,33.988756,60372397021,4,True,False,-118.2760801,33.9628501,"General Merchandise Stores, including Warehouse Clubs and Supercenters"
54,sg:bfd4249be9a64a1fb3f78de06f7e508f,-118.30825800000001,33.988754,60372397021,4,True,False,-118.2760801,33.9628501,Grocery Stores
55,sg:1f80c6a66c1e4d3d846cf063feebddbb,-118.274346,33.963784000000004,60372397021,5,True,True,-118.2760801,33.9628501,Services to Buildings and Dwellings
56,sg:ddf528380c15473391caec12a2a4a621,-118.38015800000001,33.931937,60372397021,8,True,True,-118.2760801,33.9628501,Rail Transportation
57,sg:1d1832de82ba4e3295f1f570486d0d6c,-118.278539,33.964597999999995,60372397021,6,True,True,-118.2760801,33.9628501,Restaurants and Other Eating Places
58,sg:ab7f24ec408d4d45a1f8d03d7bb521b6,-118.26475,33.916815,60372397021,6,True,True,-118.2760801,33.9628501,Restaurants and Other Eating Places
59,sg:f480922f989146269ca223c82590d349,-118.27798999999999,33.963111,60372397021,6,True,True,-118.2760801,33.9628501,Religious Organizations
60,sg:0b2d2886f2464ec39c871431e458941b,-118.290342,33.976069,60372397021,4,True,False,-118.2760801,33.9628501,Elementary and Secondary Schools
61,sg:d6b103ffa7094a89822cc55c1f235305,-118.27850500000001,33.964571,60372397021,4,True,False,-118.2760801,33.9628501,Bakeries and Tortilla Manufacturing
62,sg:cd1eb333a4d84e48812aa04609c2dece,-118.278052,33.974185999999996,60372397021,4,True,False,-118.2760801,33.9628501,Electronics and Appliance Stores
63,sg:94ee4a5591ca45e797024d9e55aebf8f,-118.31688,33.991023999999996,60372397021,4,True,False,-118.2760801,33.9628501,Home Furnishings Stores
64,sg:43714b6d8e2543d991b85c27533596d3,-118.338457,34.011188,60377032001,4,False,False,-118.33755359999998,34.004323600000006,Restaurants and Other Eating Places
65,sg:ca8fa6b45ca94685b90653966921a7fa,-118.3661,33.988059,60377032001,4,False,False,-118.33755359999998,34.004323600000006,Restaurants and Other Eating Places
66,sg:bf7d43236e0c40e985fd72001003fec4,-118.333771,34.005906,60377032001,4,False,False,-118.33755359999998,34.004323600000006,Restaurants and Other Eating Places
67,sg:75c40b727cb14e5cb5f5ee5af88e78e1,-118.323824,34.074058,60372110002,4,False,False,-118.32615859999999,34.064523799999996,Restaurants and Other Eating Places
68,sg:1e80c776be6940109c12dfe83ffcd794,-118.324845,34.061212,60372110002,4,False,False,-118.32615859999999,34.064523799999996,"Museums, Historical Sites, and Similar Institutions"
69,sg:d18b9a96d99e42258e5698d7f521c2be,-118.30953500000001,34.062759,60372110002,4,False,False,-118.32615859999999,34.064523799999996,Restaurants and Other Eating Places
70,sg:f7292cd4458f4a09a89f046928f31694,-118.328259,34.062219,60372110002,4,False,False,-118.32615859999999,34.064523799999996,"Agencies, Brokerages, and Other Insurance Related Activities"
71,sg:9502e7a49b2e437c9dc7af919dcc7ef4,-118.293406,34.076526,60372112021,4,True,False,-118.294113,34.074520899999996,Automotive Repair and Maintenance
72,sg:ab18f2ec83fb49d083520dd64cdfc0c2,-118.308834,34.045242,60372112021,4,True,False,-118.294113,34.074520899999996,Restaurants and Other Eating Places
73,sg:0f60ece73a184b078dc78e68ae5679dc,-118.291394,34.047723,60372112021,5,True,True,-118.294113,34.074520899999996,"Automotive Parts, Accessories, and Tire Stores"
74,sg:96a383243d62448fa22ec49d66610b15,-118.30064499999999,34.061394,60372112021,4,True,False,-118.294113,34.074520899999996,Restaurants and Other Eating Places
75,sg:c2980270868949d8abfdb11700ea898c,-118.442146,34.05883,60372112021,4,True,False,-118.294113,34.074520899999996,"Sporting Goods, Hobby, and Musical Instrument Stores"
76,sg:4f8fdfdf8faa4610b3c24bac059a837c,-118.295165,34.052858,60372112021,4,True,False,-118.294113,34.074520899999996,Restaurants and Other Eating Places
77,sg:6ae36760ec524e8496b01be83740cfb1,-118.307208,34.060513,60372112021,4,True,False,-118.294113,34.074520899999996,Restaurants and Other Eating Places
78,sg:31fba51747024dd1b2f9d1657ca5e500,-118.442573,34.059696,60372112021,4,True,False,-118.294113,34.074520899999996,Other Amusement and Recreation Industries
79,sg:3e4df44ca31c43219be8fb0e39ffaae6,-118.291058,34.047838,60372112021,4,True,False,-118.294113,34.074520899999996,Health and Personal Care Stores
80,sg:8096172c85a741a7971319ac01e955c8,-118.292069,34.074814,60372112021,10,True,True,-118.294113,34.074520899999996,Other Amusement and Recreation Industries
81,sg:6fd9278143c843ddb95b588f8236defb,-118.30945,34.07189,60372112021,4,True,False,-118.294113,34.074520899999996,Building Material and Supplies Dealers
82,sg:d9f28576e87a43479ce05f3b0322cdf5,-118.29545300000001,34.052842999999996,60372112021,4,True,False,-118.294113,34.074520899999996,Restaurants and Other Eating Places
83,sg:dbaaf8342ffa452cbc52f1b6f0c4b36b,-118.278223,34.066379,60372112021,4,True,False,-118.294113,34.074520899999996,Restaurants and Other Eating Places
84,sg:14ad659c25ac4d98b0bd4016cf9097f0,-118.30493100000001,34.090657,60372112021,4,True,False,-118.294113,34.074520899999996,Bakeries and Tortilla Manufacturing
85,sg:83560057f4b04596b214d24869aa1831,-118.294453,34.064021000000004,60372112021,4,True,False,-118.294113,34.074520899999996,
86,sg:802d2245018a4c5080e3503603115ec6,-118.29348600000002,34.068876,60372112021,6,True,True,-118.294113,34.074520899999996,Restaurants and Other Eating Places
87,sg:931d9f3d563f42b399dece33204111f8,-118.290323,34.071911,60372112021,4,True,False,-118.294113,34.074520899999996,"Sporting Goods, Hobby, and Musical Instrument Stores"
88,sg:e457c5a899bb46e98631bc4741bbe1fa,-118.295771,34.069232,60372112021,4,True,False,-118.294113,34.074520899999996,Restaurants and Other Eating Places
89,sg:655445a0cf0e4aefb50c297462eea830,-118.2912,34.070634999999996,60372112021,4,True,False,-118.294113,34.074520899999996,Restaurants and Other Eating Places
90,sg:955fd6609e6d435f9f1aebfa576e96b2,-118.23444199999999,34.044734999999996,60372060311,7,True,True,-118.2338882,34.0465686,Other Amusement and Recreation Industries
91,sg:876b323674a04b839108ca2a3d3a1bf6,-118.234839,34.046693,60372060311,4,True,False,-118.2338882,34.0465686,Health and Personal Care Stores
92,sg:51a3c1c2581545a982317fc7a7819f86,-118.23142800000001,34.026121999999994,60372060311,4,True,False,-118.2338882,34.0465686,Other Miscellaneous Store Retailers
93,sg:d3a4ad27242f4bb3bfe23615a6e4a011,-118.238381,34.048814,60372060311,4,True,False,-118.2338882,34.0465686,Restaurants and Other Eating Places
94,sg:49cca7452c0b4c738196f613de125b4d,-118.264022,34.037872,60372060311,4,True,False,-118.2338882,34.0465686,Furniture Stores
95,sg:1b6acd94e766470c882c7e31d3d57cd5,-118.223293,34.038936,60372060311,4,True,False,-118.2338882,34.0465686,"Sporting Goods, Hobby, and Musical Instrument Stores"
96,sg:07087ed99f604745a49746890dd7a8e7,-118.23249299999999,34.044698,60372060311,4,True,False,-118.2338882,34.0465686,Restaurants and Other Eating Places
97,sg:1317b6a9de724be4be5e5c526c480569,-118.235577,34.048296,60372060311,4,True,False,-118.2338882,34.0465686,Offices of Other Health Practitioners
98,sg:37cb5957d7c64cbb90e3cfe1f84fd4fc,-118.287846,34.103871999999996,60372060311,4,True,False,-118.2338882,34.0465686,Health and Personal Care Stores
99,sg:2cf38df2690940dba99cb100a718de89,-118.25125700000001,34.044323999999996,60372060311,4,True,False,-118.2338882,34.0465686,Other Amusement and Recreation Industries
100,sg:e2e3ae3b79344cde81c675fa140485cb,-118.23241599999999,34.045278,60372060311,6,True,True,-118.2338882,34.0465686,Book Stores and News Dealers
101,sg:18f5782dbe3845c2a8a79005f59c25b4,-118.234719,34.041025,60372060311,4,True,False,-118.2338882,34.0465686,Restaurants and Other Eating Places
102,sg:b9fe2929f1964e90acad30f9e63f4b6f,-118.234301,34.042728000000004,60372060311,4,True,False,-118.2338882,34.0465686,"Museums, Historical Sites, and Similar Institutions"
103,sg:db324c21a64f40da82b755273cab0de2,-118.234209,34.042043,60372060311,4,True,False,-118.2338882,34.0465686,Other Miscellaneous Store Retailers
104,sg:008c0837ce16422cb3860a313d24d7d9,-118.235555,34.048317,60372060311,4,True,False,-118.2338882,34.0465686,Offices of Other Health Practitioners
105,sg:570878b92d914706b79562723e51935e,-118.288028,34.050542,60372060311,4,True,False,-118.2338882,34.0465686,Religious Organizations
106,sg:5d7f23fbd7e249b28cbe34742fa8e4ed,-118.23278,34.044476,60372060311,4,True,False,-118.2338882,34.0465686,Restaurants and Other Eating Places
107,sg:30deb1fb8d8c4fc2b2e4de0977f629a8,-118.303789,34.069209,60372060311,5,True,True,-118.2338882,34.0465686,Health and Personal Care Stores
108,sg:95f93c1c6f934ca6a80f93befa149a48,-118.28482,34.05226,60375529004,4,False,False,-118.0955229,33.893021399999995,Offices of Physicians
109,sg:de6c16d26a1c4078a1fa0a84ae7496a1,-118.257167,34.050209,60375529004,4,False,False,-118.0955229,33.893021399999995,Traveler Accommodation
110,sg:ae50523acf814778a94cabbffdcfc7e2,-118.45823500000002,34.039128000000005,60375505005,4,False,False,-118.10838840000001,33.947087599999996,Building Material and Supplies Dealers
111,sg:b78dd7ec548a4e6497d531dadfe3e0ea,-118.384375,34.051247,60372652024,4,True,False,-118.4394135,34.0616902,Other Amusement and Recreation Industries
112,sg:825a763b17db481999656caefd522f9f,-118.440078,34.060203,60372652024,4,True,False,-118.4394135,34.0616902,Religious Organizations
113,sg:570bb9b461f648c3a01aa95a10a1215d,-118.441224,34.059891,60372652024,12,True,True,-118.4394135,34.0616902,Other Amusement and Recreation Industries
114,sg:242fd51d492f4156b4badd2ca59ee7ba,-118.43738400000001,34.060126000000004,60372652024,6,True,True,-118.4394135,34.0616902,Traveler Accommodation
115,sg:161775d52b094f89bf611f129af22395,-118.46485600000001,34.039559000000004,60372652024,5,True,True,-118.4394135,34.0616902,Restaurants and Other Eating Places
116,sg:e98a14cf4e2f4e46bb3c3846b91d3bcc,-118.44288600000002,34.048489000000004,60372652024,4,True,False,-118.4394135,34.0616902,"Office Supplies, Stationery, and Gift Stores"
117,sg:5daa9a0f15aa40f18710760311294569,-117.89036499999999,33.773701,60372652024,4,True,False,-118.4394135,34.0616902,"Museums, Historical Sites, and Similar Institutions"
118,sg:b895a548b5f14ef48494cb549d88ae23,-118.43736200000001,34.059982,60372652024,4,True,False,-118.4394135,34.0616902,Traveler Accommodation
119,sg:39ba901a0e234f378c5b0d78c10594a7,-118.264953,34.061978,60372652024,4,True,False,-118.4394135,34.0616902,Offices of Physicians
120,sg:be065ca485434ced9e513dc977d6b7a2,-118.291472,34.086079,60372092001,4,True,False,-118.2610818,34.0542091,Restaurants and Other Eating Places
121,sg:5156f0b684054e16b2a3844a8cfae4e7,-118.264902,34.051543,60372092001,5,True,True,-118.2610818,34.0542091,Traveler Accommodation
122,sg:405b5eaf198b47dc9b488a265df5535b,-118.25711499999998,34.053247999999996,60372092001,4,True,False,-118.2610818,34.0542091,Restaurants and Other Eating Places
123,sg:13a416c0ebe0497b95c6a262248ba1cc,-118.26333899999999,34.052797,60372092001,7,True,True,-118.2610818,34.0542091,Restaurants and Other Eating Places
124,sg:09c264b70af14761bb6cfab82d8c6c8b,-118.261404,34.056348,60372092001,11,True,True,-118.2610818,34.0542091,Child Day Care Services
125,sg:a402714de73c48d59eedf80775a5dd5d,-118.26613300000001,34.051233,60372092001,4,True,False,-118.2610818,34.0542091,Restaurants and Other Eating Places
126,sg:92fc7daf00264324b5d27bcec2a10f61,-118.278581,33.994479999999996,60372092001,4,True,False,-118.2610818,34.0542091,"Sporting Goods, Hobby, and Musical Instrument Stores"
127,sg:3ed55b94e56542e094e694ad1b0bda9b,-118.345652,34.087813,60372092001,4,True,False,-118.2610818,34.0542091,"Sporting Goods, Hobby, and Musical Instrument Stores"
128,sg:30bd4102d8a14b5ab9ee55f9648ade76,-118.250022,34.087505,60372092001,6,True,True,-118.2610818,34.0542091,Child Day Care Services
129,sg:73a8ebf63e574d9cb5b13dfb8f30b0e4,-118.265774,34.055955,60372092001,4,True,False,-118.2610818,34.0542091,Gasoline Stations
130,sg:040fcfceb13341ab9de33004853ddbc3,-118.24128600000002,34.054123,60372092001,10,True,True,-118.2610818,34.0542091,Other Information Services
131,sg:8db3b19846ac42e688222085bd07b3ed,-118.25360500000001,34.025055,60372092001,4,True,False,-118.2610818,34.0542091,"Automotive Parts, Accessories, and Tire Stores"
132,sg:633526304c0e4b858d11fb240ed1b20a,-118.32105,34.011696,60372092001,4,True,False,-118.2610818,34.0542091,Elementary and Secondary Schools
133,sg:1b24b7fd9f6249bfbe988a0bc177ba55,-118.269674,34.045336999999996,60372092001,6,True,True,-118.2610818,34.0542091,"Museums, Historical Sites, and Similar Institutions"
134,sg:54fab640fcae4e209a92e788d8f62c77,-118.25718799999999,34.053323999999996,60372092001,4,True,False,-118.2610818,34.0542091,Depository Credit Intermediation
135,sg:ec7b128d034f4686abe66ebb143fa5fa,-118.264269,34.126098,60372092001,4,True,False,-118.2610818,34.0542091,Restaurants and Other Eating Places
136,sg:813e8563ad4a4cceb86027373e6b732d,-118.259404,34.062529999999995,60372092001,4,True,False,-118.2610818,34.0542091,Lumber and Other Construction Materials Merchant Wholesalers
137,sg:03ad87691c3d4fcf863dd68396898589,-118.262026,34.053346000000005,60372092001,5,True,True,-118.2610818,34.0542091,Traveler Accommodation
138,sg:69488069cd4a4a93adebe05f9176096a,-118.243875,34.060961,60372092001,4,True,False,-118.2610818,34.0542091,Restaurants and Other Eating Places
139,sg:3293267a40114063b71a01df86fdf0fe,-118.44398899999999,34.065093,60372092001,4,True,False,-118.2610818,34.0542091,Offices of Physicians
140,sg:59ed05da0827493e929a211e4d71a0e7,-118.26161599999999,34.055364000000004,60372092001,7,True,True,-118.2610818,34.0542091,"Beer, Wine, and Liquor Stores"
141,sg:455bad305a1848158724d1bd2f8d1803,-118.26111399999999,34.048799,60372092001,4,True,False,-118.2610818,34.0542091,Health and Personal Care Stores
142,sg:241b2f6c752248bb8a4c8832d4854f24,-118.34148700000001,33.988775,60372092001,4,True,False,-118.2610818,34.0542091,Restaurants and Other Eating Places
143,sg:0c9f553dcc544d1ca0074a3339bac00e,-118.263337,34.052083,60372092001,4,True,False,-118.2610818,34.0542091,Restaurants and Other Eating Places
144,sg:281a3c85a87f421a93bc92752f68ec74,-118.26213600000001,34.055383,60372092001,4,True,False,-118.2610818,34.0542091,Personal Care Services
145,sg:33be371a50ff4613b92ecc1d3e12e8b8,-118.263547,34.054137,60372092001,4,True,False,-118.2610818,34.0542091,Consumer Goods Rental
146,sg:34db094d08654c9f8393d97edfa07cbe,-118.338516,34.012316,60372092001,4,True,False,-118.2610818,34.0542091,Restaurants and Other Eating Places
147,sg:5b6d9c7137ee42caba80fd22428da564,-118.262813,34.052594,60372092001,4,True,False,-118.2610818,34.0542091,Restaurants and Other Eating Places
148,sg:2b7338f563a2435d907caf227a0e5f3c,-118.256984,34.049313,60372092001,4,True,False,-118.2610818,34.0542091,Depository Credit Intermediation
149,sg:ab6b018b1efe4366949807a39edc8f76,-118.262317,34.051573,60372092001,4,True,False,-118.2610818,34.0542091,Other Amusement and Recreation Industries
150,sg:09c67e5aeaaa44edadc399edde1300eb,-118.266599,34.051590000000004,60372092001,4,True,False,-118.2610818,34.0542091,Restaurants and Other Eating Places
151,sg:43d9942105714ac68bfebb7a88e5c6da,-118.262478,34.053993,60372092001,9,True,True,-118.2610818,34.0542091,Grocery Stores
152,sg:6efcef1248ce496e80089c554f22175a,-118.264505,34.051337,60372092001,6,True,True,-118.2610818,34.0542091,Restaurants and Other Eating Places
153,sg:cd01b8c600cf414594554aec9e742dc6,-118.26413500000001,34.049903,60372092001,7,True,True,-118.2610818,34.0542091,"Jewelry, Luggage, and Leather Goods Stores"
154,sg:5d410dc43bef44f2afc0efc5815e4134,-118.272967,34.071464,60372092001,4,True,False,-118.2610818,34.0542091,Gasoline Stations
155,sg:2bf4ec47d1ad4bd9b5ec8857c6d7ce77,-118.262978,34.053321000000004,60372092001,8,True,True,-118.2610818,34.0542091,Traveler Accommodation
156,sg:d9813bb284d14df6bbb7fa4668139185,-118.273128,34.051148,60372092001,4,True,False,-118.2610818,34.0542091,Restaurants and Other Eating Places
157,sg:d34c7149c13547c9abf718a931fe5de2,-118.23245800000001,34.063106,60372092001,4,True,False,-118.2610818,34.0542091,Grocery Stores
158,sg:2ae06b5c99224495bc2530b1a64ce94d,-118.263423,34.05182,60372092001,6,True,True,-118.2610818,34.0542091,Grocery Stores
159,sg:6d1b8fa379684b0cbda3696619a4756e,-118.263884,34.052188,60372092001,4,True,False,-118.2610818,34.0542091,Personal Care Services
160,sg:1a7c323a1c1b4586bcd7aeecd5ae9735,-118.265844,34.054303000000004,60372092001,4,True,False,-118.2610818,34.0542091,Personal Care Services
161,sg:e28294620d524b0c927290495bbe9849,-118.26299999999999,34.054156,60372092001,13,True,True,-118.2610818,34.0542091,Restaurants and Other Eating Places
162,sg:e48a704733e44a6d97a2f31d25edd115,-118.275898,34.087115000000004,60372092001,4,True,False,-118.2610818,34.0542091,"Museums, Historical Sites, and Similar Institutions"
163,sg:3033a33310a64633a4121602a5c4be21,-118.262809,34.055832,60372092001,4,True,False,-118.2610818,34.0542091,Other Personal Services
164,sg:bef92e52420043ff968dfad282d650e0,-118.41819,33.969085,60372765002,6,False,True,-118.4210696,33.966483000000004,"Colleges, Universities, and Professional Schools"
165,sg:408c24335ed24f8a89d232a9237840c0,-118.415594,33.969304,60372765002,4,False,False,-118.4210696,33.966483000000004,Restaurants and Other Eating Places
166,sg:9a16eac8772e4b68938b621302c65080,-118.394319,33.958452,60372765002,4,False,False,-118.4210696,33.966483000000004,"Sporting Goods, Hobby, and Musical Instrument Stores"
167,sg:c465736a1893498eac8b456dea18db10,-118.291123,33.969194,60372377201,4,False,False,-118.28933909999998,33.9692638,Child Day Care Services
168,sg:dc6150bc31df44bbac24aec504d33f97,-118.297278,33.974374,60372377201,4,False,False,-118.28933909999998,33.9692638,Personal Care Services
169,sg:43e01942b4ed4ced9dce8fba195df432,-118.33488,34.031372,60372377201,4,False,False,-118.28933909999998,33.9692638,Drinking Places (Alcoholic Beverages)
170,sg:62338be8f6d34e16bdcab269b65139c5,-118.29115,33.973828000000005,60372377201,4,False,False,-118.28933909999998,33.9692638,"Automotive Parts, Accessories, and Tire Stores"
171,sg:d50222c0d4624cc3adac3543b6b0e791,-118.287676,34.112155,60371955004,4,False,False,-118.26091480000001,34.0932526,Other Miscellaneous Store Retailers
172,sg:489f510e3c5d485197f85407e0ae2315,-118.25911599999999,34.092597,60371955004,4,False,False,-118.26091480000001,34.0932526,Elementary and Secondary Schools
173,sg:c60acc083a05457fb07d3c1c2228856c,-118.198356,34.132653999999995,60371955004,4,False,False,-118.26091480000001,34.0932526,Child Day Care Services
174,sg:ae73cd8b04e84064a7b6a822cb9e108a,-118.27294599999999,34.107939,60371955004,4,False,False,-118.26091480000001,34.0932526,Other Amusement and Recreation Industries
175,sg:f73ebe0bb7dc41f58e181b754470fe92,-118.240252,33.934909000000005,60372427002,4,False,False,-118.2402683,33.9355217,Child Day Care Services
176,sg:1ac3ef0c0aba4088a42cdfaa75b3251b,-118.25678300000001,34.043732,60372427002,4,False,False,-118.2402683,33.9355217,Restaurants and Other Eating Places
177,sg:c5167e16d20c49f5ac7b1002056e13d0,-118.351323,34.050639000000004,60372427002,4,False,False,-118.2402683,33.9355217,Elementary and Secondary Schools
178,sg:014d1fafdbb940d58b7b16f8b7d7c8b8,-118.44243,34.066325,60372653011,9,True,True,-118.44543429999999,34.071068700000005,"Museums, Historical Sites, and Similar Institutions"
179,sg:e46079ca81a34f9a996b531a79ca2217,-118.450787,34.072905,60372653011,4,True,False,-118.44543429999999,34.071068700000005,"Colleges, Universities, and Professional Schools"
180,sg:747b93d101e04033a08d2427e3b98f9b,-118.451849,34.074658,60372653011,4,True,False,-118.44543429999999,34.071068700000005,"Museums, Historical Sites, and Similar Institutions"
181,sg:762b94e94c0d495d9e4f0c7f74b64ccf,-118.449991,34.072982,60372653011,9,True,True,-118.44543429999999,34.071068700000005,Restaurants and Other Eating Places
182,sg:b8b7a9cc80ea450d9b045f5e733e2fb6,-118.44651699999999,34.066545,60372653011,11,True,True,-118.44543429999999,34.071068700000005,Restaurants and Other Eating Places
183,sg:858c2fa4fbc14355b82ce9e92287582e,-118.452321,34.073308000000004,60372653011,6,True,True,-118.44543429999999,34.071068700000005,Restaurants and Other Eating Places
184,sg:e9f0e70b95af463caf305fba64f484af,-118.450083,34.073661,60372653011,7,True,True,-118.44543429999999,34.071068700000005,Gasoline Stations
185,sg:157113ed7ae0424194994c45a1c0e31a,-118.45015,34.070428,60372653011,10,True,True,-118.44543429999999,34.071068700000005,Restaurants and Other Eating Places
186,sg:b71ea03573e44991a908caf4496d252f,-118.452056,34.072644,60372653011,12,True,True,-118.44543429999999,34.071068700000005,Restaurants and Other Eating Places
187,sg:d4420f8eefe741b3869bc093f6933d07,-118.44631299999999,34.067184999999995,60372653011,24,True,True,-118.44543429999999,34.071068700000005,General Medical and Surgical Hospitals
188,sg:2761c09941884c448dd12e9e2d30a0f2,-118.444594,34.065244,60372653011,4,True,False,-118.44543429999999,34.071068700000005,Offices of Physicians
189,sg:4bfce632534a4ca9b3e259a3a398529b,-118.44656699999999,34.066466999999996,60372653011,8,True,True,-118.44543429999999,34.071068700000005,Offices of Physicians
190,sg:d2841f3799d7482c97d135aad8cf39a8,-118.372876,34.038686,60372653011,5,True,True,-118.44543429999999,34.071068700000005,General Medical and Surgical Hospitals
191,sg:a356af4403104b548f39069147375456,-118.44151399999998,34.039194,60372653011,4,True,False,-118.44543429999999,34.071068700000005,Other Schools and Instruction
192,sg:fb01b05b823a4148b2b9e4ffe79f0f21,-118.450538,34.071894,60372653011,4,True,False,-118.44543429999999,34.071068700000005,Restaurants and Other Eating Places
193,sg:0c9ceaee25404592a5338ea09d9cb33e,-118.27629099999999,34.065152000000005,60371194002,4,False,False,-118.43469099999999,34.243116,"Colleges, Universities, and Professional Schools"
194,sg:0f70cfaf3a1e404cb959e7299d237a6b,-118.326927,34.102468,60590524261,4,False,False,-117.66625959999999,33.68701,"Sporting Goods, Hobby, and Musical Instrument Stores"
195,sg:1dd6e96057c24de19734f3f1bc36abc8,-118.303643,34.060520000000004,60372121021,4,True,False,-118.2984963,34.0626659,Offices of Other Health Practitioners
196,sg:e1757165e7504ca79199ce7afc25782e,-118.23659099999999,34.063325,60372121021,4,True,False,-118.2984963,34.0626659,Restaurants and Other Eating Places
197,sg:3ebe982bb1ed481ba7a140721e08c198,-118.287124,34.075981,60372121021,4,True,False,-118.2984963,34.0626659,Gasoline Stations
198,sg:d3918f9dee9f49edac98114936b216eb,-118.298786,34.063373,60372121021,5,True,True,-118.2984963,34.0626659,Restaurants and Other Eating Places
199,sg:e7bf7b18d99340188bb9034186e76fad,-118.28671499999999,34.064508000000004,60372121021,5,True,True,-118.2984963,34.0626659,Offices of Physicians
200,sg:22ac07d06ecf4f0ca2a801cd3742d7ed,-117.68252,34.079192,60374027063,7,False,True,-117.7227679,34.0733805,"Museums, Historical Sites, and Similar Institutions"
201,sg:23f44d53e6fe4f9d9f4dd8ada2511d57,-118.25844099999999,34.10297,60372085011,6,True,True,-118.27042920000001,34.0689598,Restaurants and Other Eating Places
202,sg:9cdad49a96114dcc9552cdce90057772,-118.27069399999999,34.069052,60372085011,6,True,True,-118.27042920000001,34.0689598,"Museums, Historical Sites, and Similar Institutions"
203,sg:4f1ddb7ba81243d59e7e5616345095d3,-118.249163,34.064749,60372085011,4,True,False,-118.27042920000001,34.0689598,Restaurants and Other Eating Places
204,sg:2ed37171d74945a0b703645357ed5346,-118.363749,34.097778999999996,60372085011,4,True,False,-118.27042920000001,34.0689598,Other Amusement and Recreation Industries
205,sg:05dbda245c7c4adcaa8a381a675bd6fe,-118.275287,34.022355,60372085011,4,True,False,-118.27042920000001,34.0689598,Used Merchandise Stores
206,sg:f9d447f00bf945aca3cfd453e862a860,-118.44024099999999,34.05386,60372085011,5,True,True,-118.27042920000001,34.0689598,Restaurants and Other Eating Places
207,sg:e43d293abb0b4149a3f140a93540dbad,-118.19795800000001,34.026321,60372085011,4,True,False,-118.27042920000001,34.0689598,Restaurants and Other Eating Places
208,sg:932548720dc84d3bb7ee9ca501df442b,-118.272897,34.104828000000005,60372085011,4,True,False,-118.27042920000001,34.0689598,Restaurants and Other Eating Places
209,sg:3accff961afb4fda8b74632f31f399b0,-118.26816799999999,34.070586999999996,60372085011,6,True,True,-118.27042920000001,34.0689598,Restaurants and Other Eating Places
210,sg:2794548220bb40e79f9a85d75531deec,-118.26664699999999,34.092386,60372085011,8,True,True,-118.27042920000001,34.0689598,"Museums, Historical Sites, and Similar Institutions"
211,sg:049c96ae34f64511b94b535b66f97014,-118.265222,34.074138,60372085011,4,True,False,-118.27042920000001,34.0689598,"Automotive Parts, Accessories, and Tire Stores"
212,sg:9b9890fb15dd4a24b282a6b25978a4eb,-118.28488300000001,34.105934000000005,60372085011,4,True,False,-118.27042920000001,34.0689598,Elementary and Secondary Schools
213,sg:882c130235cf45fe8937b6e7eef0728d,-118.26051899999999,34.081906,60372085011,4,True,False,-118.27042920000001,34.0689598,Gasoline Stations
214,sg:7b04a929a17f4bdcbf43593d2f6cd343,-118.270003,34.067795000000004,60372085011,8,True,True,-118.27042920000001,34.0689598,Traveler Accommodation
215,sg:2f15a86416ce4a3586f838eea6ce8dc5,-118.27414399999999,33.93144,60372129002,4,True,False,-118.32358490000001,34.0498218,"Beer, Wine, and Liquor Stores"
216,sg:45f4b02092e0424995951e985056e571,-118.35916200000001,33.988129,60372129002,4,True,False,-118.32358490000001,34.0498218,Restaurants and Other Eating Places
217,sg:4d4da05bb0894fa097468afbbb25fdba,-118.307526,34.057460999999996,60372129002,4,True,False,-118.32358490000001,34.0498218,Restaurants and Other Eating Places
218,sg:48b6737b4c0a431db6541de7b04b06af,-118.32050100000001,34.003403000000006,60372129002,4,True,False,-118.32358490000001,34.0498218,Automotive Repair and Maintenance
219,sg:332768e05a9d44b697e1b5b79f013a6e,-118.308779,34.040864,60372129002,4,True,False,-118.32358490000001,34.0498218,Automotive Repair and Maintenance
220,sg:7abb36eb526143219e8efbc7ace7a22d,-118.322901,34.047302,60372129002,4,True,False,-118.32358490000001,34.0498218,Restaurants and Other Eating Places
221,sg:43f294f0756441dabd4cfc3c1e67028f,-118.305999,34.053042,60372129002,4,True,False,-118.32358490000001,34.0498218,
222,sg:1b8aa7403ac84e41a45b3eb09a759379,-118.29571100000001,34.06393,60372129002,4,True,False,-118.32358490000001,34.0498218,Other Amusement and Recreation Industries
223,sg:dc04cca0ed2f40cbb478b80fea024d22,-118.43589399999999,34.037013,60372129002,4,True,False,-118.32358490000001,34.0498218,Used Merchandise Stores
224,sg:9b587882c930433491316f059d1ec007,-118.309211,34.0404,60372129002,6,True,True,-118.32358490000001,34.0498218,Restaurants and Other Eating Places
225,sg:0765c49368a04087a6c8d1191969a5a9,-118.251782,34.048468,60372129002,4,True,False,-118.32358490000001,34.0498218,Rail Transportation
226,sg:17133bfc90aa48f2831e2fde24fa2f1a,-118.434881,34.037508,60372129002,4,True,False,-118.32358490000001,34.0498218,Restaurants and Other Eating Places
227,sg:1f096c7d388f4942b9b5b0864750a648,-118.32413400000002,34.047841,60372129002,4,True,False,-118.32358490000001,34.0498218,Traveler Accommodation
228,sg:38957f8c4ad4475686f06a9b2e85f608,-118.278675,33.967427,60372129002,6,True,True,-118.32358490000001,34.0498218,Religious Organizations
229,sg:eb1d00cb95ee4d008a74bf8a73ae49c6,-118.309896,34.047003000000004,60372129002,5,True,True,-118.32358490000001,34.0498218,Restaurants and Other Eating Places
230,sg:3dcbb5c76c69458db79f4b9c5b073179,-118.335829,34.047759,60372129002,10,True,True,-118.32358490000001,34.0498218,Lessors of Real Estate
231,sg:5c251af0f08e45af9e5ecff3c769ac0b,-118.30725100000001,34.057284,60372129002,4,True,False,-118.32358490000001,34.0498218,Restaurants and Other Eating Places
232,sg:6aeb9a6711e04a5f86a90ea9cfac6bd1,-118.34366000000001,34.065422,60372129002,4,True,False,-118.32358490000001,34.0498218,Used Merchandise Stores
233,sg:03715d50a6454658a039207940fb1795,-118.26568300000001,34.004232,60372129002,5,True,True,-118.32358490000001,34.0498218,Restaurants and Other Eating Places
234,sg:76faa3823f6b43d3bbabe4d0472b774f,-118.237761,34.0629,60372129002,4,True,False,-118.32358490000001,34.0498218,"Jewelry, Luggage, and Leather Goods Stores"
235,sg:880063dcd5524446aac57273a6e7f4bb,-118.33448,34.019185,60372129002,4,True,False,-118.32358490000001,34.0498218,Health and Personal Care Stores
236,sg:dfe65780ae8c43cc997c971162964320,-118.239401,33.956851,60372129002,4,True,False,-118.32358490000001,34.0498218,Religious Organizations
237,sg:973dfe460a414e0cb6b21dee20b611d4,-118.252275,34.047884,60372129002,4,True,False,-118.32358490000001,34.0498218,"Jewelry, Luggage, and Leather Goods Stores"
238,sg:be7d6f5958f6498f9827a565e5401239,-118.39263999999999,34.055082,60372129002,4,True,False,-118.32358490000001,34.0498218,Restaurants and Other Eating Places
239,sg:96cdafff22ba40d495eb13cc3040f55a,-118.309149,34.020403,60372129002,4,True,False,-118.32358490000001,34.0498218,Restaurants and Other Eating Places
240,sg:f7df8b6b75774c7fb7f33a15b626ce52,-118.23977,34.049356,60372129002,4,True,False,-118.32358490000001,34.0498218,Restaurants and Other Eating Places
241,sg:2eb80ce624cb4597ae137745c5456894,-118.314227,34.090973999999996,60372129002,4,True,False,-118.32358490000001,34.0498218,Restaurants and Other Eating Places
242,sg:b2d98f28ad8b46969a3e6aa1490b1783,-118.30846799999999,34.049378999999995,60372129002,4,True,False,-118.32358490000001,34.0498218,Other Amusement and Recreation Industries
243,sg:fae9bdffb07d45bb872e95003955c90a,-118.2777,34.054127,60372129002,4,True,False,-118.32358490000001,34.0498218,Health and Personal Care Stores
244,sg:1af05dd5f9dc4fd9a46aff34ac60e2ea,-118.29001299999999,34.040216,60372129002,5,True,True,-118.32358490000001,34.0498218,Clothing Stores
245,sg:a792e301d5184d7da57f798b2899eb4c,-118.31640900000001,34.047329,60372129002,4,True,False,-118.32358490000001,34.0498218,Restaurants and Other Eating Places
246,sg:32788558b52242bda9be6b1022e92efd,-118.163201,34.037334,60375311021,4,True,False,-118.1813098,34.038364200000004,Religious Organizations
247,sg:7ce4d42f1fa44d80a842dbe0e4977136,-118.17720700000001,34.037304999999996,60375311021,6,True,True,-118.1813098,34.038364200000004,"Museums, Historical Sites, and Similar Institutions"
248,sg:e29a28ff1ccb4a1bb2ea3ff03e891b4c,-118.24243200000001,34.033094,60375311021,4,True,False,-118.1813098,34.038364200000004,Clothing Stores
249,sg:bfca68c934ad45a28b40fb6160d7285c,-118.155029,34.029281,60375311021,4,True,False,-118.1813098,34.038364200000004,"Automotive Parts, Accessories, and Tire Stores"
250,sg:995f1a74efe84e2886f25d695fc53e8e,-118.15698700000002,34.016189000000004,60375311021,6,True,True,-118.1813098,34.038364200000004,"General Merchandise Stores, including Warehouse Clubs and Supercenters"
251,sg:64736d9df75f4116bd3958946dda6983,-118.17803700000002,34.012338,60375311021,4,True,False,-118.1813098,34.038364200000004,Used Merchandise Stores
252,sg:875bf7899aa74e95a1b9f070c42f6ca7,-118.178904,34.040369,60375311021,4,True,False,-118.1813098,34.038364200000004,Home Health Care Services
253,sg:603fa255450c4a4bb12f3c3ff3c7a05c,-118.15268,34.032807,60375311021,4,True,False,-118.1813098,34.038364200000004,"Automotive Parts, Accessories, and Tire Stores"
254,sg:4bffaba5d2964c828dcf5e15b7b29275,-118.290548,33.960993,60375311021,4,True,False,-118.1813098,34.038364200000004,Child Day Care Services
255,sg:f6a9ca8e44b9472fb5ae3f0fec52e2b0,-118.18365700000001,34.035768,60375311021,4,True,False,-118.1813098,34.038364200000004,Restaurants and Other Eating Places
256,sg:3611394a70994f00bf64506327e2fbf1,-118.20379299999999,34.03687,60372041102,4,False,False,-118.2023521,34.0384049,Bakeries and Tortilla Manufacturing
257,sg:8bcde3c580c8420f9ad133576c217bdf,-118.20444599999999,34.045182000000004,60372041102,7,False,True,-118.2023521,34.0384049,Other Miscellaneous Store Retailers
258,sg:6eeb2c60c0a74e1cba14e6e273111c8d,-118.187671,34.040898,60372041102,4,False,False,-118.2023521,34.0384049,Other Miscellaneous Store Retailers
259,sg:3925330c1bdd4344bd08db1f25f5c4c3,-118.43796,34.039747999999996,60376514012,4,False,False,-118.33713909999999,33.7860683,Restaurants and Other Eating Places
260,sg:17a51145caa645338ea435a71d826b56,-118.438147,34.03965,60376514012,4,False,False,-118.33713909999999,33.7860683,Restaurants and Other Eating Places
261,sg:42c847cf264e4e5b9eccdd79f42842a1,-118.33218600000001,33.784269,60376514012,4,False,False,-118.33713909999999,33.7860683,"Museums, Historical Sites, and Similar Institutions"
262,sg:3e76ebb59c1546149eb52b3aecbb5918,-118.252053,34.041414,60372260021,4,True,False,-118.2490942,34.0323643,"General Merchandise Stores, including Warehouse Clubs and Supercenters"
263,sg:d13afe9364cc497bb5c5ebc08f07c756,-118.249426,34.034681,60372260021,4,True,False,-118.2490942,34.0323643,"Jewelry, Luggage, and Leather Goods Stores"
264,sg:8d86e9146b8940578748672c05fceac8,-118.208874,34.094838,60372260021,7,True,True,-118.2490942,34.0323643,Restaurants and Other Eating Places
265,sg:b179d5ba26df4f798e694b9c823184f8,-118.25056399999998,34.03983,60372260021,4,True,False,-118.2490942,34.0323643,Restaurants and Other Eating Places
266,sg:709585dac5f34b99a48b4d18ec0dd4ef,-118.24253300000001,34.024840000000005,60372260021,4,True,False,-118.2490942,34.0323643,Florists
267,sg:40d625f046094dfd93c26cb51545e347,-118.25996599999999,34.030535,60372260021,4,True,False,-118.2490942,34.0323643,Home Furnishings Stores
268,sg:8f63e2f3fe274eaea8604cbe0ce9999a,-118.250101,34.044815,60372260021,4,True,False,-118.2490942,34.0323643,Other Miscellaneous Store Retailers
269,sg:3aa502fd841c414ca69222e8674b38f2,-118.24971599999999,34.037349,60372260021,5,True,True,-118.2490942,34.0323643,"Sporting Goods, Hobby, and Musical Instrument Stores"
270,sg:997a836e5c90412e9102238d995e578d,-118.24533500000001,34.030525,60372260021,4,True,False,-118.2490942,34.0323643,Electronics and Appliance Stores
271,sg:08c31b149790418fa63c101ef759a321,-118.24356399999999,34.052960999999996,60372260021,4,True,False,-118.2490942,34.0323643,"Museums, Historical Sites, and Similar Institutions"
272,sg:0a7cc8dbc4004f27b6a3b649ce4152ff,-118.26221899999999,34.05151,60372260021,4,True,False,-118.2490942,34.0323643,Automotive Equipment Rental and Leasing
273,sg:5b0b4e28971d4a7984f6b33f363b99e0,-118.252478,34.039079,60372260021,4,True,False,-118.2490942,34.0323643,"Sporting Goods, Hobby, and Musical Instrument Stores"
274,sg:076adb38b15b4d75b386d0fe9c8df210,-118.246602,34.039823999999996,60372260021,4,True,False,-118.2490942,34.0323643,"Sporting Goods, Hobby, and Musical Instrument Stores"
275,sg:50cfe19f5f7443c3b9d1705debec1376,-118.24503500000002,34.028442,60372260021,5,True,True,-118.2490942,34.0323643,"Museums, Historical Sites, and Similar Institutions"
276,sg:fa0a2b48d3ce497c8e7a213c1739db86,-118.21907900000001,34.02663,60372260021,4,True,False,-118.2490942,34.0323643,Health and Personal Care Stores
277,sg:42ab3243f63e4551bae377cb02c8b8ae,-118.47584199999999,34.061209000000005,60376014011,4,False,False,-118.3640638,33.963843,Child Day Care Services
278,sg:8d87683719464e6e95079498afea3790,-118.273269,34.024493,60376014011,4,False,False,-118.3640638,33.963843,Restaurants and Other Eating Places
279,sg:07f47a57956e46b5b4e3fef29a101e4a,-118.305999,33.750632,60376014011,4,False,False,-118.3640638,33.963843,"Museums, Historical Sites, and Similar Institutions"
280,sg:9145f7b0c5b340c58f70461630d4617c,-118.22994399999999,33.942899,60376014011,4,False,False,-118.3640638,33.963843,Religious Organizations
281,sg:4bcd31a973204f6c94265584676fb7b1,-118.29858,34.025348,60710013093,4,False,False,-117.61673540000001,34.0720278,Restaurants and Other Eating Places
282,sg:5d07e356c4ba4dc99a18c8f3a9c6078a,-118.25653500000001,34.048688,60372077101,4,True,False,-118.26168270000001,34.04686629999999,Restaurants and Other Eating Places
283,sg:cb2d13f0663b493a889306b0cd9161fe,-118.24255500000001,33.974533,60372077101,4,True,False,-118.26168270000001,34.04686629999999,Restaurants and Other Eating Places
284,sg:a31d8ebbd3b048b7984dc5f0cd66457a,-118.307231,34.069143,60372077101,4,True,False,-118.26168270000001,34.04686629999999,Restaurants and Other Eating Places
285,sg:e3a5e82ef8a645df9d19d0a27c4f2b80,-118.260558,34.0458,60372077101,12,True,True,-118.26168270000001,34.04686629999999,Gasoline Stations
286,sg:1053d6f3786e41699a32af7de3f7126a,-118.256817,34.044936,60372077101,4,True,False,-118.26168270000001,34.04686629999999,Restaurants and Other Eating Places
287,sg:308bc89f93bb4dea83bde59107fc6b69,-118.35314,34.102776,60372077101,4,True,False,-118.26168270000001,34.04686629999999,Other Amusement and Recreation Industries
288,sg:d2582cff60ce4731af209013f0d5f47b,-118.258573,34.046817,60372077101,4,True,False,-118.26168270000001,34.04686629999999,Other Personal Services
289,sg:57a0b51ba9bc4a9890d9be02872818e2,-118.25656699999999,34.045097999999996,60372077101,4,True,False,-118.26168270000001,34.04686629999999,Restaurants and Other Eating Places
290,sg:94d596a9ced040cf937e048e07641674,-118.259607,34.045438,60372077101,4,True,False,-118.26168270000001,34.04686629999999,Other Miscellaneous Store Retailers
291,sg:13690da97edd4be2b2eca3137822d2b9,-118.25976499999999,34.048974,60372077101,4,True,False,-118.26168270000001,34.04686629999999,Grocery Stores
292,sg:fca09c4f42414c978a3f501405600bd4,-118.25953,34.05044,60372077101,4,True,False,-118.26168270000001,34.04686629999999,Restaurants and Other Eating Places
293,sg:22c63cfcf17144678a83738ce61c4f9d,-118.25154599999999,34.033423,60372077101,4,True,False,-118.26168270000001,34.04686629999999,Clothing Stores
294,sg:7c2a1876003243aaa5689a7618d45299,-118.26719399999999,34.046209000000005,60372077101,4,True,False,-118.26168270000001,34.04686629999999,Restaurants and Other Eating Places
295,sg:5aa22812506642c295c579c9eceaf552,-118.343376,34.032727,60372077101,4,True,False,-118.26168270000001,34.04686629999999,Restaurants and Other Eating Places
296,sg:09795c7600b648279a53f9ea5bf72fff,-118.25729,34.044185999999996,60372077101,4,True,False,-118.26168270000001,34.04686629999999,Beverage Manufacturing
297,sg:a2a3bd52031d4418ad3f9089d829268f,-118.25633300000001,34.045507,60372077101,4,True,False,-118.26168270000001,34.04686629999999,Other Amusement and Recreation Industries
298,sg:b951718b66eb444a84bf159d2eb434fe,-118.25315,34.043865999999994,60372077101,4,True,False,-118.26168270000001,34.04686629999999,Other Amusement and Recreation Industries
299,sg:6f4d4671138e44b3a20bc8abeb9d5562,-118.26078400000002,34.049298,60372077101,4,True,False,-118.26168270000001,34.04686629999999,Restaurants and Other Eating Places
300,sg:bc400538cf5343168e09330bb00a6cfe,-118.26045400000001,34.049269,60372077101,4,True,False,-118.26168270000001,34.04686629999999,Health and Personal Care Stores
301,sg:fb23957db7274a6c86331c88b3eca6dd,-118.261053,34.045817,60372077101,6,True,True,-118.26168270000001,34.04686629999999,"Beer, Wine, and Liquor Stores"
302,sg:7bc0370e7a824b4393bc4636e9bf6ebc,-118.258105,34.048507,60372077101,4,True,False,-118.26168270000001,34.04686629999999,Restaurants and Other Eating Places
303,sg:582457137ec14a39be01ff35fcb03e71,-118.257678,34.047601,60372077101,5,True,True,-118.26168270000001,34.04686629999999,Health and Personal Care Stores
304,sg:56954fd2706d4794913eb82c15412298,-118.25624499999999,34.046709,60372077101,4,True,False,-118.26168270000001,34.04686629999999,Restaurants and Other Eating Places
305,sg:6a6d0dec5862481aab2eace0b0a49d34,-118.26136100000001,34.048942,60372077101,12,True,True,-118.26168270000001,34.04686629999999,Lessors of Real Estate
306,sg:6a23ab804ad647f2a3e6487b3c748238,-118.25804,34.045176,60372077101,5,True,True,-118.26168270000001,34.04686629999999,Restaurants and Other Eating Places
307,sg:5e612df9512f49c4bfbf7d70931c46a5,-118.25723700000002,34.045685,60372077101,11,True,True,-118.26168270000001,34.04686629999999,Restaurants and Other Eating Places
308,sg:3277fa702938484488f32f4d30f1a8bf,-118.26113899999999,34.045867,60372077101,7,True,True,-118.26168270000001,34.04686629999999,Restaurants and Other Eating Places
309,sg:5f98c92b5ad94b8fa754c032fa246a08,-118.258665,34.049085,60372077101,4,True,False,-118.26168270000001,34.04686629999999,Restaurants and Other Eating Places
310,sg:27c2cb4d11aa460f8c7051f9cc802b97,-118.26221299999999,34.051509,60372077101,4,True,False,-118.26168270000001,34.04686629999999,Offices of Physicians
311,sg:05e4ea9ecaad48f69f63b27b6d3b0d3a,-118.350296,34.098501,60372077101,4,True,False,-118.26168270000001,34.04686629999999,
312,sg:8e935089bb704fe0a3089d8d7496eb41,-118.26021100000001,34.045491999999996,60372077101,5,True,True,-118.26168270000001,34.04686629999999,Restaurants and Other Eating Places
313,sg:ca85ffe3c8a64f3782c8b0c11308ebae,-118.25536399999999,34.049324,60372077101,4,True,False,-118.26168270000001,34.04686629999999,Health and Personal Care Stores
314,sg:1ecd597ca43e473fb94d36f2ce558e48,-118.41054,34.011094,60372077101,4,True,False,-118.26168270000001,34.04686629999999,Other Amusement and Recreation Industries
315,sg:fb6a383fa71c4eee8f5ea719465ee0b0,-118.266391,34.045916999999996,60372077101,4,True,False,-118.26168270000001,34.04686629999999,Restaurants and Other Eating Places
316,sg:943633c4fa9746b7bc716adbbe919c24,-118.25632399999999,34.045079,60372077101,4,True,False,-118.26168270000001,34.04686629999999,Restaurants and Other Eating Places
317,sg:7fb41b7f8a4a43ddaa2a3cb50a493ea5,-118.255008,34.053694,60372077101,4,True,False,-118.26168270000001,34.04686629999999,Restaurants and Other Eating Places
318,sg:069bfcafdd7c447887f31cce6bebe3d8,-118.26053799999998,34.050021,60372077101,5,True,True,-118.26168270000001,34.04686629999999,Other Amusement and Recreation Industries
319,sg:9db063db876645bdbc35c55b3f13ee80,-118.26371,34.04823,60372077101,6,True,True,-118.26168270000001,34.04686629999999,"Museums, Historical Sites, and Similar Institutions"
320,sg:56383b2c99654dca9b68c33107ff271c,-118.260325,34.050098,60372077101,6,True,True,-118.26168270000001,34.04686629999999,Traveler Accommodation
321,sg:1a4291d58a8c494a83439451cbe906f9,-118.25689299999999,34.038985,60372077101,4,True,False,-118.26168270000001,34.04686629999999,Used Merchandise Stores
322,sg:2783127d5d7e430c8a3bc2d11932528e,-118.265005,34.041014000000004,60372077101,4,True,False,-118.26168270000001,34.04686629999999,Clothing Stores
323,sg:8ebc2ef58c5f40028879f9fcf1f4d8e3,-118.259631,34.044369,60372077101,4,True,False,-118.26168270000001,34.04686629999999,Clothing Stores
324,sg:f00f44cbadef4262b3d36a2eb244a923,-118.257198,34.046383,60372077101,6,True,True,-118.26168270000001,34.04686629999999,Restaurants and Other Eating Places
325,sg:45ad76de7fc04baf80ee377e7aee5811,-118.351262,34.09772,60372077101,4,True,False,-118.26168270000001,34.04686629999999,Traveler Accommodation
326,sg:5e1d186e541d4ac3bf52b8a8844d9366,-118.40628500000001,33.968790000000006,60372764003,4,False,False,-118.4066515,33.963936600000004,"Sporting Goods, Hobby, and Musical Instrument Stores"
327,sg:619f201d90654dcdb65b83a11f8952ff,-118.176879,34.060046,60376507011,4,False,False,-118.35962759999998,33.835695799999996,Consumer Goods Rental
328,sg:7705edca70034b13b135b5b8ca1e75c0,-118.43101200000001,34.00261,60376507011,4,False,False,-118.35962759999998,33.835695799999996,Building Material and Supplies Dealers
329,sg:670c4d7a1820484fa2c11f6aef6a265c,-118.39083400000001,34.055113,60372182202,4,True,False,-118.33678259999999,34.0446991,Bakeries and Tortilla Manufacturing
330,sg:84d48471c0d64712883ad50cd8532bd7,-118.339105,34.047616999999995,60372182202,9,True,True,-118.33678259999999,34.0446991,Lessors of Real Estate
331,sg:aa55cd1c35f44e1792b8bd9d17110776,-118.338338,34.046645,60372182202,4,True,False,-118.33678259999999,34.0446991,Miscellaneous Durable Goods Merchant Wholesalers
332,sg:175dc53f16a94ae384f6c7ae86921155,-118.422554,33.992055,60372182202,4,True,False,-118.33678259999999,34.0446991,Restaurants and Other Eating Places
333,sg:ccd168e62a4744f09e15b3d3e977d709,-118.355157,34.05382,60372182202,4,True,False,-118.33678259999999,34.0446991,Lessors of Real Estate
334,sg:a94f6b7a9cfb498e95273a53852a3121,-118.42242900000001,33.991952000000005,60372182202,4,True,False,-118.33678259999999,34.0446991,Restaurants and Other Eating Places
335,sg:b96e19a027474a0bb2e3756d054d79ec,-118.339183,34.06177,60372182202,4,True,False,-118.33678259999999,34.0446991,Gasoline Stations
336,sg:310c747059d043e999859b6b1724b648,-118.23166200000001,34.036102,60372182202,4,True,False,-118.33678259999999,34.0446991,Grocery Stores
337,sg:8ed37a7bb905499c92a2823f2bea2b66,-118.247464,33.964844,60372182202,4,True,False,-118.33678259999999,34.0446991,"Automotive Parts, Accessories, and Tire Stores"
338,sg:0f600581dd0d48dabed20f884432f853,-118.230527,34.035696,60372182202,4,True,False,-118.33678259999999,34.0446991,"Colleges, Universities, and Professional Schools"
339,sg:a0a415b3c41143f3a52ed94fee5f07c8,-118.33934199999999,34.043655,60372182202,4,True,False,-118.33678259999999,34.0446991,Automotive Repair and Maintenance
340,sg:76ced470d63a4c31a45f01e7b19182ff,-118.21760900000001,34.048179,60375308021,4,True,False,-118.1825152,34.0506882,Child Day Care Services
341,sg:5f9e8531a40844b389b003df466efbcf,-118.413127,34.058585,60375308021,4,True,False,-118.1825152,34.0506882,Health and Personal Care Stores
342,sg:87629fe5da7e42f8965b27be89ea7eaf,-118.19115,34.040909,60375308021,6,True,True,-118.1825152,34.0506882,"Automotive Parts, Accessories, and Tire Stores"
343,sg:ffb9eafbccd448e4813dea1bf4532f5f,-118.257531,34.038946,60375308021,5,True,True,-118.1825152,34.0506882,"Machinery, Equipment, and Supplies Merchant Wholesalers"
344,sg:1fa3ad2eaa8d46bb9a3c4c0b0cf518d1,-118.171844,34.023696,60375308021,4,True,False,-118.1825152,34.0506882,Offices of Physicians
345,sg:0adee7d4063a4bbf9a7c4f73e9bc343e,-118.18162199999999,34.048406,60375308021,4,True,False,-118.1825152,34.0506882,Home Furnishings Stores
346,sg:d6f7d15f51ae4a98b47ecd1885a160c4,-118.19228000000001,34.04015,60375308021,4,True,False,-118.1825152,34.0506882,Restaurants and Other Eating Places
347,sg:a445743ae7794712a24367ca0d2d9fbe,-118.181849,34.036829,60375308021,4,True,False,-118.1825152,34.0506882,"Office Supplies, Stationery, and Gift Stores"
348,sg:2bdd9164f5834e38ae8ca37cb3187f73,-118.18431299999999,34.037544,60375308021,4,True,False,-118.1825152,34.0506882,Child Day Care Services
349,sg:22b50de65b20474684d26887ce1df2b0,-118.15451999999999,34.032483,60375308021,4,True,False,-118.1825152,34.0506882,Restaurants and Other Eating Places
350,sg:336d2a010fbd465caf4f4fdb6f58fe1b,-118.18425800000001,34.033611,60375308021,5,True,True,-118.1825152,34.0506882,Restaurants and Other Eating Places
351,sg:b03f6d7b5df045aa86fc0a19535f9303,-118.20369199999999,34.076135,60375308021,4,True,False,-118.1825152,34.0506882,Offices of Physicians
352,sg:818b1637b9ac48408c1471c3e2ad48ac,-118.29198000000001,34.100861,60373015021,7,True,True,-118.283245,34.168345,Restaurants and Other Eating Places
353,sg:598c03498e7041e0a78095899a6c1194,-118.252326,34.044214000000004,60373015021,5,True,True,-118.283245,34.168345,Restaurants and Other Eating Places
354,sg:b6165d3c24634e349d2f6e45a336d09b,-118.445728,34.065678999999996,60373015021,4,True,False,-118.283245,34.168345,Offices of Dentists
355,sg:5abd8013d0314457a1ee9d76596fa2f3,-118.318373,34.097833,60373015021,5,True,True,-118.283245,34.168345,Restaurants and Other Eating Places
356,sg:77e71bfeb72b41428148464035de12ec,-118.34436399999998,34.070484,60373015021,4,True,False,-118.283245,34.168345,Other Miscellaneous Store Retailers
357,sg:6b3a925ddfa64cad9d93374da4bc6017,-118.29247,34.164617,60373015021,4,True,False,-118.283245,34.168345,"Museums, Historical Sites, and Similar Institutions"
358,sg:d99be928517f4eb7b6baebd467cbcafd,-118.250773,34.04755,60373015021,4,True,False,-118.283245,34.168345,Restaurants and Other Eating Places
359,sg:8d65f15beffc4bc7a6b50a8dbacdfdcf,-118.39921499999998,34.06807,60371133212,4,False,False,-118.5945712,34.252939500000004,"Museums, Historical Sites, and Similar Institutions"
360,sg:859c979730d64331bcda4921e4f69dba,-118.24830800000001,34.037328,60371133212,4,False,False,-118.5945712,34.252939500000004,"Sporting Goods, Hobby, and Musical Instrument Stores"
361,sg:8f6d3c1ea582429fbcc52a0036fd58d5,-118.292194,34.004621,60372317103,6,True,True,-118.28934850000002,34.0050491,Restaurants and Other Eating Places
362,sg:3d091325d1084107a9b9de5af40ad747,-118.29135900000001,34.005342999999996,60372317103,4,True,False,-118.28934850000002,34.0050491,Restaurants and Other Eating Places
363,sg:85e7d446cbe24dbda62170e1c5b2111a,-118.286854,34.006024,60372317103,4,True,False,-118.28934850000002,34.0050491,"Beer, Wine, and Liquor Stores"
364,sg:06326bd7127d459eb7a1d60765ccc74f,-118.283111,34.003381,60372317103,4,True,False,-118.28934850000002,34.0050491,Gasoline Stations
365,sg:cd47fbb677e148ada8e9450fecfbb07a,-118.23033999999998,34.030831,60372317103,4,True,False,-118.28934850000002,34.0050491,"Beer, Wine, and Liquor Stores"
366,sg:a5813a240b5e4a1598772bc05047d651,-118.210125,34.057472,60372317103,4,True,False,-118.28934850000002,34.0050491,Restaurants and Other Eating Places
367,sg:c816a60f82fe4fabad5d92e0fc990a48,-118.287577,34.004113000000004,60372317103,11,True,True,-118.28934850000002,34.0050491,Restaurants and Other Eating Places
368,sg:f26aae799be14d3cb2cf585a609c3ae8,-118.264498,34.035938,60372317103,4,True,False,-118.28934850000002,34.0050491,"Office Supplies, Stationery, and Gift Stores"
369,sg:36ae993163d2489f93ced3bf5125d113,-118.292244,34.005258000000005,60372317103,4,True,False,-118.28934850000002,34.0050491,Restaurants and Other Eating Places
370,sg:006434e5363e4f888eca4b2f65cd18f5,-118.330272,33.993349,60372317103,4,True,False,-118.28934850000002,34.0050491,Grocery Stores
371,sg:0113993a557d4499a4a7c442d8ae4c97,-118.276072,34.045606,60372317103,4,True,False,-118.28934850000002,34.0050491,Services to Buildings and Dwellings
372,sg:5da1268fbedd4975aee86e4c7c91cddd,-118.29109299999999,34.033018,60372317103,4,True,False,-118.28934850000002,34.0050491,Restaurants and Other Eating Places
373,sg:4c6ee558022549229c8c29c757a82261,-118.290608,34.005681,60372317103,4,True,False,-118.28934850000002,34.0050491,Child Day Care Services
374,sg:d586fffd34134694b5428db54f4d941f,-118.283652,34.039169,60372317103,4,True,False,-118.28934850000002,34.0050491,"Automotive Parts, Accessories, and Tire Stores"
375,sg:979e5fad06f948c7aa796c2dba47d9ba,-118.300643,34.083698999999996,60371916102,4,True,False,-118.30508859999999,34.084826899999996,"Beer, Wine, and Liquor Stores"
376,sg:1638f2cf7217473b80065e9bfe2656e4,-118.27448000000001,34.049749,60371916102,4,True,False,-118.30508859999999,34.084826899999996,Other Information Services
377,sg:5f5ed8fd1ab54217a8b82fc821f58fe6,-118.335498,34.025851,60371916102,4,True,False,-118.30508859999999,34.084826899999996,Gasoline Stations
378,sg:9bf4714d6acb4ad2ad0d862d8996db6a,-118.304308,34.086036,60371916102,4,True,False,-118.30508859999999,34.084826899999996,"Museums, Historical Sites, and Similar Institutions"
379,sg:1a7f2cef9d4246fba14dcbdb25f64509,-118.30938799999998,34.081853,60371916102,4,True,False,-118.30508859999999,34.084826899999996,Furniture Stores
380,sg:c358c8acf028408280578676b405a9bf,-118.32391000000001,34.073301,60371916102,4,True,False,-118.30508859999999,34.084826899999996,Clothing Stores
381,sg:3f1ac2454daa4c2cbe91de89ade2dc61,-118.30871100000002,34.085068,60371916102,4,True,False,-118.30508859999999,34.084826899999996,Restaurants and Other Eating Places
382,sg:87f920df2c1844c2956912c83c63d101,-118.308904,34.089014,60371916102,4,True,False,-118.30508859999999,34.084826899999996,"Sporting Goods, Hobby, and Musical Instrument Stores"
383,sg:c7029ee825e04677ac00d95872cb9047,-118.30256000000001,34.08367,60371916102,4,True,False,-118.30508859999999,34.084826899999996,Restaurants and Other Eating Places
384,sg:05df7936177d43e6915e960df1f4e26e,-118.30971399999999,34.087833,60371916102,8,True,True,-118.30508859999999,34.084826899999996,Grocery Stores
385,sg:775fe1e37e0e434f90e9dc0ef86b3f2b,-118.36499099999999,34.036907,60371916102,4,True,False,-118.30508859999999,34.084826899999996,Other Amusement and Recreation Industries
386,sg:7bc8cd9242784939879efaf81fe72d2d,-118.343203,34.090026,60371916102,4,True,False,-118.30508859999999,34.084826899999996,Wired and Wireless Telecommunications Carriers
387,sg:5c10c96aa11f4b4fa999e9a8303a8c3e,-118.30953899999999,34.087021,60371916102,4,True,False,-118.30508859999999,34.084826899999996,Other Amusement and Recreation Industries
388,sg:893c1c3a362c4c65b0e0db0c696f55b3,-118.302551,34.083853000000005,60371916102,4,True,False,-118.30508859999999,34.084826899999996,Restaurants and Other Eating Places
389,sg:07da4ada84904a3aa6f0d34989faf6bf,-118.30315900000001,34.046329,60371916102,4,True,False,-118.30508859999999,34.084826899999996,Elementary and Secondary Schools
390,sg:2d4929d390d6416196de87cf7c151f5b,-118.291517,34.098865,60371916102,4,True,False,-118.30508859999999,34.084826899999996,Restaurants and Other Eating Places
391,sg:adffb3df1b1b4dfaaafdf5c76829671d,-118.430898,34.009745,60372719023,4,True,False,-118.4288384,34.0090086,Home Health Care Services
392,sg:dfe77abe4fd943f8a58deaf4a04cff99,-118.427098,34.010277,60372719023,4,True,False,-118.4288384,34.0090086,Restaurants and Other Eating Places
393,sg:8418bf081f8d4461a516ac91883455bd,-118.433502,34.005183,60372719023,4,True,False,-118.4288384,34.0090086,Restaurants and Other Eating Places
394,sg:04903593e2dc425eaafbcbaaba2c6e3b,-118.42786399999999,33.996158,60372719023,4,True,False,-118.4288384,34.0090086,Restaurants and Other Eating Places
395,sg:901d34b40b2b40c0a0854ff43dd339c8,-118.416822,34.007446,60372719023,4,True,False,-118.4288384,34.0090086,Restaurants and Other Eating Places
396,sg:66be903e7a344f208c69e9f0f93fa4a9,-118.429627,34.008068,60372719023,4,True,False,-118.4288384,34.0090086,"Sporting Goods, Hobby, and Musical Instrument Stores"
397,sg:85643082cdae43759b06cee857fa9f37,-118.428674,34.006786,60372719023,4,True,False,-118.4288384,34.0090086,Offices of Physicians
398,sg:37dd7e54d9474aaaba2b011838becd39,-118.434104,34.003826000000004,60372719023,5,True,True,-118.4288384,34.0090086,Other Amusement and Recreation Industries
399,sg:10ee90ace2114a94ba17e5e244fdb03d,-118.427599,34.027244,60372719023,4,True,False,-118.4288384,34.0090086,Restaurants and Other Eating Places
400,sg:b1b249d925864c6591e37e92364311dd,-118.266981,34.056703999999996,60375333002,4,False,False,-118.2017527,33.9937715,"Justice, Public Order, and Safety Activities"
401,sg:ce5aa85296b34d0a915884dea18959ff,-118.160903,34.020995,60375333002,4,False,False,-118.2017527,33.9937715,Restaurants and Other Eating Places
402,sg:9055b8a54c3340bc92f8887bb2867f7f,-118.239726,34.027476,60375333002,4,False,False,-118.2017527,33.9937715,"General Merchandise Stores, including Warehouse Clubs and Supercenters"
403,sg:b2f0d4a6d46146b594bb2df7e20bf19e,-118.28236499999998,33.944745000000005,60372404011,9,True,True,-118.28722590000001,33.94811729999999,Other Miscellaneous Store Retailers
404,sg:2d5810dd26124e2ab150f6edb5399d3b,-118.291271,33.948665999999996,60372404011,4,True,False,-118.28722590000001,33.94811729999999,Religious Organizations
405,sg:0be09c1fa8214405bc16710aefa4cca8,-118.28242900000001,33.948923,60372404011,9,True,True,-118.28722590000001,33.94811729999999,Offices of Other Health Practitioners
406,sg:ce9ae4907d90453499b488a78b98951f,-118.321845,33.978421000000004,60372404011,4,True,False,-118.28722590000001,33.94811729999999,Religious Organizations
407,sg:b5789af5b19a43ed9cb4d5e3e06121d2,-118.25968799999998,34.071912,60375313011,7,True,True,-118.177128,34.0213985,Personal Care Services
408,sg:8db29c4698b840f186d2e8eaf11bed1d,-118.23682,33.975062,60375313011,4,True,False,-118.177128,34.0213985,Bakeries and Tortilla Manufacturing
409,sg:14ea35e0db2447dabe018f36140a81c4,-118.213302,34.049627,60375313011,4,True,False,-118.177128,34.0213985,Restaurants and Other Eating Places
410,sg:285430e5817a42258ffab151d6547109,-118.21935900000001,34.047564,60375313011,4,True,False,-118.177128,34.0213985,Book Stores and News Dealers
411,sg:8ef84437482544a8a7e910ebfbafa4ce,-118.17865800000001,34.023551,60375313011,5,True,True,-118.177128,34.0213985,Florists
412,sg:84ce943ff52343ba940b20c09d64198a,-118.182399,34.021617,60375313011,4,True,False,-118.177128,34.0213985,Offices of Other Health Practitioners
413,sg:caa2c76c6ece4441989245767a3e0829,-118.17826200000002,34.023744,60375313011,4,True,False,-118.177128,34.0213985,Florists
414,sg:01238798795f4de49d94afa214251fa6,-118.247033,33.959790000000005,60375313011,4,True,False,-118.177128,34.0213985,Gasoline Stations
415,sg:f30271a11e44475eb34de4ca4e98f10a,-118.15894399999999,34.016159,60375313011,5,True,True,-118.177128,34.0213985,Restaurants and Other Eating Places
416,sg:6ed84fb6596f410ebebcca04836653ae,-118.17616000000001,34.019303,60375313011,4,True,False,-118.177128,34.0213985,Rail Transportation
417,sg:79503fb99749408e911a50f930caede4,-118.17727099999999,34.019304,60375313011,4,True,False,-118.177128,34.0213985,Automotive Repair and Maintenance
418,sg:088dbddd7e7544aba8623f74b94e8620,-118.16773700000002,34.022836,60375313011,6,True,True,-118.177128,34.0213985,Clothing Stores
419,sg:c60db504cc534cc380e6733c37320e53,-118.42811699999999,34.066469,60375313011,7,True,True,-118.177128,34.0213985,Health and Personal Care Stores
420,sg:c48e1eb0d03c4379a688f16541ce4584,-118.199003,34.026336,60375313011,4,True,False,-118.177128,34.0213985,Restaurants and Other Eating Places
421,sg:c53a61daf6c94819bb61167078d62f57,-118.174421,34.017833,60375313011,4,True,False,-118.177128,34.0213985,Health and Personal Care Stores
422,sg:b803df5237364772bc760f38346ac974,-118.303482,34.052851000000004,60372113201,7,True,True,-118.29291440000002,34.070887400000004,Restaurants and Other Eating Places
423,sg:ca703a362341436f9b600ee2d0e7e59e,-118.30626799999999,34.063023,60372113201,4,True,False,-118.29291440000002,34.070887400000004,Restaurants and Other Eating Places
424,sg:f1b2b85a9aec44278badc8125b831e6f,-118.29199299999999,34.071576,60372113201,4,True,False,-118.29291440000002,34.070887400000004,Offices of Physicians
425,sg:7bcd087a3a574208958628cef8cbeb8b,-118.298976,34.002919,60372113201,4,True,False,-118.29291440000002,34.070887400000004,Child Day Care Services
426,sg:d6ebc7e106a342c18b27c1d311adeca6,-118.290567,34.068449,60372113201,8,True,True,-118.29291440000002,34.070887400000004,Grocery Stores
427,sg:4f49e0f14fca480d885df8aaf8268c02,-118.251126,34.036131,60372113201,5,True,True,-118.29291440000002,34.070887400000004,Restaurants and Other Eating Places
428,sg:24ec4a9220464317a7efdfd4f82f491d,-118.31279599999999,34.052439,60372113201,4,True,False,-118.29291440000002,34.070887400000004,"Office Supplies, Stationery, and Gift Stores"
429,sg:328f3c5e6d0c432dab81ad77de772515,-118.28997199999999,34.069206,60372113201,4,True,False,-118.29291440000002,34.070887400000004,Religious Organizations
430,sg:7d17db2375194296a6cc077f8086b334,-118.29454799999999,34.07029,60372113201,5,True,True,-118.29291440000002,34.070887400000004,"Other Professional, Scientific, and Technical Services"
431,sg:41217af25317470b887191d5474826a0,-118.308696,34.057829,60372113201,5,True,True,-118.29291440000002,34.070887400000004,Restaurants and Other Eating Places
432,sg:ac0591b6d86149fca044ab416010802d,-118.29144,34.072364,60372113201,4,True,False,-118.29291440000002,34.070887400000004,Other Amusement and Recreation Industries
433,sg:ec37376916bc4dfc960f17e799dafb17,-118.307245,34.060524,60372113201,4,True,False,-118.29291440000002,34.070887400000004,Offices of Real Estate Agents and Brokers
434,sg:be4c4f0795b6438f84549ff7472206c6,-117.95480400000001,33.867251,60590019022,4,False,False,-117.9545358,33.861498600000004,"Museums, Historical Sites, and Similar Institutions"
435,sg:c01f7282e3fa4ba29a72c1280bfc6fa3,-118.24126100000001,34.048798,60371134224,4,False,False,-118.57659299999999,34.2223577,Restaurants and Other Eating Places
436,sg:d93d6d92640e45b0a8059e38b05fc714,-118.308793,34.084789,60371925201,4,True,False,-118.30251640000002,34.0817283,Gasoline Stations
437,sg:771f3297ed7a434eba10d5185433fcc6,-118.29239799999999,34.083444,60371925201,5,True,True,-118.30251640000002,34.0817283,Restaurants and Other Eating Places
438,sg:b2f9181d4bfb44b1baa93c72ad32031a,-118.30067,34.076646000000004,60371925201,4,True,False,-118.30251640000002,34.0817283,Restaurants and Other Eating Places
439,sg:ceab768b1575485e8d276416c8ff7e42,-118.304849,34.080202,60371925201,6,True,True,-118.30251640000002,34.0817283,Restaurants and Other Eating Places
440,sg:6c582c4fd6d44deb9848ae74d2b114dd,-118.29234299999999,34.069209,60371925201,5,True,True,-118.30251640000002,34.0817283,Restaurants and Other Eating Places
441,sg:84f91d01a0af484492f4ccb812f4cd96,-118.29554499999999,34.083431,60371925201,5,True,True,-118.30251640000002,34.0817283,Restaurants and Other Eating Places
442,sg:14eb3e112bf0415b9e29f639ecb38bae,-118.308779,34.084368,60371925201,9,True,True,-118.30251640000002,34.0817283,Restaurants and Other Eating Places
443,sg:dae87a17d87641c1afe930c1bf61d919,-118.344504,34.077998,60371925201,4,True,False,-118.30251640000002,34.0817283,Automotive Equipment Rental and Leasing
444,sg:802e957bfb9a41ec98a29d66a2d53643,-118.30493100000001,34.097762,60371925201,8,True,True,-118.30251640000002,34.0817283,"General Merchandise Stores, including Warehouse Clubs and Supercenters"
445,sg:b420920d2f1c41e49eb33b09afe276e3,-118.19763700000001,34.050121999999995,60371925201,4,True,False,-118.30251640000002,34.0817283,Furniture Stores
446,sg:ca0d91b9347c42308228af31ed6c6221,-118.343708,34.080847999999996,60371925201,4,True,False,-118.30251640000002,34.0817283,Specialty Food Stores
447,sg:09fad761605a4d51ba1c67a669c702d0,-118.255781,34.036577,60371925201,4,True,False,-118.30251640000002,34.0817283,"Sporting Goods, Hobby, and Musical Instrument Stores"
448,sg:db9297242a3b4d8c91ac989a3aa0b5d9,-118.26693999999999,34.023634,60372246002,8,True,True,-118.27296880000002,34.0230864,Home Health Care Services
449,sg:4f4384ca2a7745cabc124967745136f0,-118.26433700000001,33.990868,60372246002,4,True,False,-118.27296880000002,34.0230864,Elementary and Secondary Schools
450,sg:1bf8e030535a48c99cbc7220d8ca5a23,-118.27270700000001,34.022386,60372246002,4,True,False,-118.27296880000002,34.0230864,Other Amusement and Recreation Industries
451,sg:6fc50f1d405c4e4db09e8fea52ab3450,-118.292455,34.010388,60372246002,4,True,False,-118.27296880000002,34.0230864,Restaurants and Other Eating Places
452,sg:db4c512821644ed7a2d275122b0af66c,-118.262024,33.989495,60372246002,4,True,False,-118.27296880000002,34.0230864,Restaurants and Other Eating Places
453,sg:47bff34be0c9492096f52cccdca1bdc7,-118.27091200000001,34.024158,60372246002,4,True,False,-118.27296880000002,34.0230864,Clothing Stores
454,sg:e480a238ecad4c108d7a0e1be605421d,-118.28916799999999,34.003510999999996,60372246002,4,True,False,-118.27296880000002,34.0230864,"Automotive Parts, Accessories, and Tire Stores"
455,sg:82f0ccff49c1457fa2d964cc238ee5b1,-118.26823600000002,34.024929,60372246002,6,True,True,-118.27296880000002,34.0230864,"Automotive Parts, Accessories, and Tire Stores"
456,sg:f9c9da9709224df4b79e9f1925bab7be,-118.268303,34.018676,60372246002,5,True,True,-118.27296880000002,34.0230864,Restaurants and Other Eating Places
457,sg:254260050f2a42029e66ef9a91ad0514,-118.267367,34.020136,60372246002,4,True,False,-118.27296880000002,34.0230864,Grocery Stores
458,sg:bfdfa2482602433f8456bd4ea7e7f034,-118.153925,34.029893,60372246002,4,True,False,-118.27296880000002,34.0230864,Automotive Repair and Maintenance
459,sg:a3f99195504a4236b39946a1b643a0d7,-118.291899,34.011171999999995,60372246002,4,True,False,-118.27296880000002,34.0230864,Restaurants and Other Eating Places
460,sg:7bf8e2fca3964ab6aa32e943f2acae25,-118.273182,34.018228,60372246002,4,True,False,-118.27296880000002,34.0230864,"Sporting Goods, Hobby, and Musical Instrument Stores"
461,sg:7c9fa8fbf30d464183e8f2c8891a8551,-118.2751,34.024162,60372246002,4,True,False,-118.27296880000002,34.0230864,Child Day Care Services
462,sg:4e2f0d6643a946aba46fa48ee1f0041a,-118.27101599999999,34.024246000000005,60372246002,7,True,True,-118.27296880000002,34.0230864,Clothing Stores
463,sg:6be47b8772c04916aaab643ca215e573,-118.26939899999999,34.009203,60372246002,4,True,False,-118.27296880000002,34.0230864,Grocery Stores
464,sg:e41ac54865d24a3ba493d95f30702875,-118.25455600000001,33.945221999999994,60372407003,4,True,False,-118.25861880000001,33.948848,Restaurants and Other Eating Places
465,sg:bc00d5b35fab46b8b0119ea0085be661,-118.23625,33.979434000000005,60372407003,4,True,False,-118.25861880000001,33.948848,Traveler Accommodation
466,sg:f520c565610549b2be0f85e6ad35dd9a,-118.238846,33.933244,60372407003,4,True,False,-118.25861880000001,33.948848,"Sporting Goods, Hobby, and Musical Instrument Stores"
467,sg:10aaafe1f30c465ea676d6c5b5e4a95f,-118.256717,33.973172999999996,60372407003,4,True,False,-118.25861880000001,33.948848,"Office Supplies, Stationery, and Gift Stores"
468,sg:0b691a3bc13b4b98b8807bb0c24f58eb,-118.258022,33.946293,60372407003,4,True,False,-118.25861880000001,33.948848,Child Day Care Services
469,sg:8722fb6743094691876a168d7722bf86,-118.26393600000002,33.949042999999996,60372407003,4,True,False,-118.25861880000001,33.948848,Drinking Places (Alcoholic Beverages)
470,sg:426895bc02b84a3bad923451de2ee131,-118.24073600000001,34.035661,60372407003,4,True,False,-118.25861880000001,33.948848,Clothing Stores
471,sg:85c3c958f0b546c59e1bcc1a0fa4cb80,-118.21963799999999,34.022290000000005,60372407003,6,True,True,-118.25861880000001,33.948848,Used Merchandise Stores
472,sg:e7758648bceb4d0bbe41951e464afc0d,-118.259332,34.049252,60375433051,4,False,False,-118.22386920000001,33.8611473,Restaurants and Other Eating Places
473,sg:b3a51d3fd6944f11a4161d8c105983c9,-118.253897,34.039515,60375433051,4,False,False,-118.22386920000001,33.8611473,"Jewelry, Luggage, and Leather Goods Stores"
474,sg:451d8152348a490ea3d5f365dca9baad,-118.388857,34.035937,60375433051,4,False,False,-118.22386920000001,33.8611473,Other Amusement and Recreation Industries
475,sg:d0d38e5a220d4aa3aff2f6cc9cf6257a,-118.295266,34.075978000000006,60375433051,4,False,False,-118.22386920000001,33.8611473,Restaurants and Other Eating Places
476,sg:f062219c18244caaa916b47e22067fe2,-118.266974,34.053653999999995,60372091022,6,True,True,-118.26743540000001,34.054261499999996,Restaurants and Other Eating Places
477,sg:ff0f57725c7d47f7b021ad7852b477d5,-118.26490700000001,34.054474,60372091022,5,True,True,-118.26743540000001,34.054261499999996,Offices of Other Health Practitioners
478,sg:8b684ef7c5784f18aa09b28df22fbeb9,-118.25510200000001,34.04466,60372091022,4,True,False,-118.26743540000001,34.054261499999996,Clothing Stores
479,sg:d344ecce5e7548d3aa038625e64101bf,-118.268599,34.053028000000005,60372091022,4,True,False,-118.26743540000001,34.054261499999996,Depository Credit Intermediation
480,sg:d133360fa7eb41febe42ad5f068b4f82,-118.32231499999999,34.056272,60372091022,4,True,False,-118.26743540000001,34.054261499999996,Offices of Physicians
481,sg:5a103672583f4ecca4babd9c40dd05e5,-118.271146,34.061788,60372091022,4,True,False,-118.26743540000001,34.054261499999996,Personal Care Services
482,sg:fcc3f3d2fed6484c9fef979e0a266e55,-118.269498,34.055398,60372091022,5,True,True,-118.26743540000001,34.054261499999996,Home Furnishings Stores
483,sg:b64c1ddd62e84ec9bf3daba534e5925c,-118.263892,34.05226,60372091022,4,True,False,-118.26743540000001,34.054261499999996,Offices of Dentists
484,sg:2206d6e41bc7409bb609a56c70c0ca24,-118.263898,34.045274,60372091022,4,True,False,-118.26743540000001,34.054261499999996,Restaurants and Other Eating Places
485,sg:4a07218253dd4e65b43c542f3947c0a2,-118.266419,34.053477,60372091022,5,True,True,-118.26743540000001,34.054261499999996,Restaurants and Other Eating Places
486,sg:f3e207accde84efe8f9cffa51f23650f,-118.282423,34.016739,60372294102,4,True,False,-118.26765479999999,33.992247799999994,Restaurants and Other Eating Places
487,sg:55e9c6ff55c7469fb68f6a0152270b1f,-118.24656999999999,33.936627,60372294102,5,True,True,-118.26765479999999,33.992247799999994,Religious Organizations
488,sg:ac7fa9cc0e544c7fbdad8b3d460faaa6,-118.253433,34.044897999999996,60372294102,4,True,False,-118.26765479999999,33.992247799999994,"Jewelry, Luggage, and Leather Goods Stores"
489,sg:a0d58e552bd74281a25815c61960d1ff,-118.27016100000002,33.988855,60372294102,4,True,False,-118.26765479999999,33.992247799999994,Building Material and Supplies Dealers
490,sg:6c10df5c226442f697b657c347d88956,-118.17836399999999,34.082079,60372294102,4,True,False,-118.26765479999999,33.992247799999994,"Automotive Parts, Accessories, and Tire Stores"
491,sg:11851e781ec14bfd8515914dba39df62,-118.284604,34.043479999999995,60372294102,6,True,True,-118.26765479999999,33.992247799999994,Restaurants and Other Eating Places
492,sg:678fc4d0f96d4d79ac21b8804372cb8b,-118.30108899999999,34.043366999999996,60372294102,4,True,False,-118.26765479999999,33.992247799999994,Automotive Repair and Maintenance
493,sg:58cddeaa0a1246c1a703a76c8d653c22,-118.267683,33.992909999999995,60372294102,12,True,True,-118.26765479999999,33.992247799999994,"Museums, Historical Sites, and Similar Institutions"
494,sg:b702a160a22040da8223fcd658be6ea3,-118.248282,34.043894,60372294102,4,True,False,-118.26765479999999,33.992247799999994,Restaurants and Other Eating Places
495,sg:ff6799efe063484dad85f9a4f7b7c83d,-118.272861,34.102774,60371972001,4,True,False,-118.2350122,34.0890208,Personal Care Services
496,sg:14e0277c7d024dd9950d3eb0c19410e9,-118.271598,34.108219,60371972001,4,True,False,-118.2350122,34.0890208,Restaurants and Other Eating Places
497,sg:253b0fd8277f416abfbf9c8b5dd277be,-118.20498500000001,34.137485,60371972001,5,True,True,-118.2350122,34.0890208,"Greenhouse, Nursery, and Floriculture Production"
498,sg:090b54b86f804d4cbb9e698bea226e30,-118.258972,34.077212,60371972001,4,True,False,-118.2350122,34.0890208,Restaurants and Other Eating Places
499,sg:0b480407fa7a4c56b4db938265c7e56b,-118.28760600000001,34.103408,60371972001,4,True,False,-118.2350122,34.0890208,Restaurants and Other Eating Places
500,sg:cccf4a48174847af8b207b1151380161,-118.243404,34.117241,60371972001,4,True,False,-118.2350122,34.0890208,Building Material and Supplies Dealers
501,sg:8ae7cc20a09e44e5b516d622b1761166,-118.27154399999999,34.108288,60371972001,4,True,False,-118.2350122,34.0890208,Drinking Places (Alcoholic Beverages)
502,sg:142c2546d3464e1dbc56229f8270447d,-118.322717,34.055716,60371972001,4,True,False,-118.2350122,34.0890208,Offices of Dentists
503,sg:241d5b5b24154bc5bc5edb647cea83a8,-118.30466399999999,34.101959,60371972001,4,True,False,-118.2350122,34.0890208,Restaurants and Other Eating Places
504,sg:bbe569fa11c3486d92c945390a3fa0e1,-118.221497,34.084905,60371972001,4,True,False,-118.2350122,34.0890208,Other Amusement and Recreation Industries
505,sg:5339d0eaa3774539b09117a0b77b644c,-118.199579,34.027377,60371972001,4,True,False,-118.2350122,34.0890208,Restaurants and Other Eating Places
506,sg:956bce82b75048278c424ad406dffde2,-118.28726999999999,34.104709,60371972001,4,True,False,-118.2350122,34.0890208,Restaurants and Other Eating Places
507,sg:876e7ef096884c01b13fda17f38a0801,-118.237527,34.062876,60371972001,4,True,False,-118.2350122,34.0890208,Restaurants and Other Eating Places
508,sg:9cb819613ccb40ea8ec92f3607ce9078,-118.22801399999999,34.091772999999996,60371972001,4,True,False,-118.2350122,34.0890208,Building Material and Supplies Dealers
509,sg:0b65a94369e945ca83cebbce33c594a1,-118.395843,34.055038,60371415001,4,True,False,-118.4786426,34.140507799999995,Restaurants and Other Eating Places
510,sg:2a6cc13f44a749ca852be2757fed0a4e,-118.50198600000002,34.159875,60371415001,4,True,False,-118.4786426,34.140507799999995,Other Amusement and Recreation Industries
511,sg:a173ec3f94434b5d8d972326b70a56c9,-118.381096,34.075732,60371415001,6,True,True,-118.4786426,34.140507799999995,Medical and Diagnostic Laboratories
512,sg:f7c1fc72ebfa460582ee9d6e95e6fdd9,-118.375942,34.057293,60371415001,4,True,False,-118.4786426,34.140507799999995,Other Miscellaneous Store Retailers
513,sg:c929419864304e39b06d2228e679e4d2,-118.438521,34.073429,60371415001,5,True,True,-118.4786426,34.140507799999995,Restaurants and Other Eating Places
514,sg:2d6610edaeb34522a2d1554d6f2e810c,-118.395283,34.055611999999996,60371415001,4,True,False,-118.4786426,34.140507799999995,Offices of Other Health Practitioners
515,sg:5f3809526b984d2d97559bd2793a8367,-118.450432,34.036633,60371415001,4,True,False,-118.4786426,34.140507799999995,Offices of Other Health Practitioners
516,sg:cf7ab27956b245efb5a26b932d0d4967,-118.39773999999998,34.054821000000004,60371415001,4,True,False,-118.4786426,34.140507799999995,Grocery Stores
517,sg:0f9d0214ae11440bafa3970ae4c6e80e,-118.19363200000001,34.015217,60372164012,4,True,False,-118.3814723,34.056876200000005,"General Merchandise Stores, including Warehouse Clubs and Supercenters"
518,sg:503de2350a6c4905a34319a65e97a00b,-118.383407,34.054902,60372164012,4,True,False,-118.3814723,34.056876200000005,Restaurants and Other Eating Places
519,sg:51f14746185e484a9fc050246f0200d4,-118.392852,34.027132,60372164012,4,True,False,-118.3814723,34.056876200000005,Other Amusement and Recreation Industries
520,sg:01356331eb644c05ab8e36086385a31b,-118.343736,34.049774,60372164012,4,True,False,-118.3814723,34.056876200000005,"Automotive Parts, Accessories, and Tire Stores"
521,sg:d056154f6492414aa108b3cab2a69e2e,-118.38331699999999,34.058398,60372164012,4,True,False,-118.3814723,34.056876200000005,Specialty Food Stores
522,sg:7f7dae01821647ea846753bb9bbd9c57,-118.38041100000001,34.054390000000005,60372164012,4,True,False,-118.3814723,34.056876200000005,Restaurants and Other Eating Places
523,sg:727efd1fa722470389c063eaa16cedbc,-118.37826100000001,34.043201,60372164012,7,True,True,-118.3814723,34.056876200000005,"General Merchandise Stores, including Warehouse Clubs and Supercenters"
524,sg:961e4b42c36444d2ad678d4ea56dfb41,-118.38335,34.057801,60372164012,5,True,True,-118.3814723,34.056876200000005,Child Day Care Services
525,sg:1d738170a1e84576ae64debbe33f90fd,-118.4217,33.99135,60376025041,4,True,False,-118.3373236,33.9073685,Furniture Stores
526,sg:e576cdffb663415c9b64818806fb3b36,-118.264762,34.03777,60376025041,4,True,False,-118.3373236,33.9073685,"Office Supplies, Stationery, and Gift Stores"
527,sg:07a120920c314b0198c1cc2be1fdf5b0,-118.28304299999999,33.991105,60376025041,4,True,False,-118.3373236,33.9073685,Child Day Care Services
528,sg:0566aa9f3964447a9905b4fdb0f82127,-118.25396200000002,34.009042,60376025041,5,True,True,-118.3373236,33.9073685,Religious Organizations
529,sg:37ab1942d88946e3aaff7a2bc2a8adf8,-118.26916499999999,33.969821,60376025041,7,True,True,-118.3373236,33.9073685,Other Amusement and Recreation Industries
530,sg:64456643329c41babb4043e8d075cd95,-118.272326,34.078761,60376025041,4,True,False,-118.3373236,33.9073685,Waste Treatment and Disposal
531,sg:22471972d9234a4c949ecbc08f36e9d4,-118.293999,34.032903999999995,60372964021,6,False,True,-118.30559450000001,33.74356289999999,Traveler Accommodation
532,sg:23ea506bd90e44a2998c2f77f0c257a8,-118.18333799999999,34.062989,60372014023,4,True,False,-118.1882491,34.064189,Restaurants and Other Eating Places
533,sg:2ad7c332145c4dbb993f14317ce48c35,-118.18283600000001,34.063352,60372014023,4,True,False,-118.1882491,34.064189,"Automotive Parts, Accessories, and Tire Stores"
534,sg:071dba8b47344359a141f4d711de7d6d,-118.168834,34.032977,60372014023,5,True,True,-118.1882491,34.064189,Restaurants and Other Eating Places
535,sg:90c1c545bb084da3b9e51a4c5d7361b5,-118.18009599999999,34.060165000000005,60372014023,4,True,False,-118.1882491,34.064189,"Automotive Parts, Accessories, and Tire Stores"
536,sg:61307a7e86bf48df9540427c0ba89e3e,-118.18012399999999,34.060159999999996,60372014023,4,True,False,-118.1882491,34.064189,"Automotive Parts, Accessories, and Tire Stores"
537,sg:51dea7a28bb04a02833d3453be9f4326,-118.159232,34.020579999999995,60372014023,4,True,False,-118.1882491,34.064189,Restaurants and Other Eating Places
538,sg:67d6667cc83d4edd911294ffb0f2849a,-118.238323,34.062763000000004,60372014023,4,True,False,-118.1882491,34.064189,"Office Supplies, Stationery, and Gift Stores"
539,sg:ed6e9e404b4c48aaaeb13cbea9a1b6c7,-118.27583999999999,34.027677000000004,60372014023,4,True,False,-118.1882491,34.064189,Grocery Stores
540,sg:68cf9b640403475cbfa8933b3745fbb0,-118.158593,34.019806,60372014023,4,True,False,-118.1882491,34.064189,Elementary and Secondary Schools
541,sg:89a445ce87c24a968e276e7400da5900,-118.37061200000001,33.945038000000004,60372014023,4,True,False,-118.1882491,34.064189,"Colleges, Universities, and Professional Schools"
542,sg:f51d513fab8d44fbb159117844a6ad68,-118.196575,34.026913,60372014023,4,True,False,-118.1882491,34.064189,Religious Organizations
543,sg:27c0774a8bb446839b4f612330165624,-118.215274,34.077127000000004,60371991201,4,True,False,-118.20321470000002,34.0702395,Restaurants and Other Eating Places
544,sg:71fc41881d29459691cea8ff4cf0a4c0,-118.202895,34.068828,60371991201,7,True,True,-118.20321470000002,34.0702395,Child Day Care Services
545,sg:5793c656e7de46719f3d66a26651f424,-118.20358799999998,34.071057,60371991201,7,True,True,-118.20321470000002,34.0702395,Home Health Care Services
546,sg:03f7a9a91ce645a7bf9c7f811f8fc279,-118.21216899999999,34.074,60371991201,6,True,True,-118.20321470000002,34.0702395,Grocery Stores
547,sg:18bdf08cb99245ac8efb6ab278d20712,-118.284103,34.148346999999994,60371991201,4,True,False,-118.20321470000002,34.0702395,"Museums, Historical Sites, and Similar Institutions"
548,sg:6916b0e01d9d459c8b73069d1f0398d6,-118.200252,34.068822999999995,60371991201,7,True,True,-118.20321470000002,34.0702395,Grocery Stores
549,sg:40cb159d0e804c6dae525013ceb7a8af,-118.216595,34.075559999999996,60371991201,8,True,True,-118.20321470000002,34.0702395,Grocery Stores
550,sg:2a1f7bcd44a141fbbfe821e673379cb2,-118.28097199999999,34.081036,60371959032,6,False,True,-118.2811761,34.0812156,"Sporting Goods, Hobby, and Musical Instrument Stores"
551,sg:98ab8195aead474e9afa069b6953884b,-118.291698,33.982973,60371959032,4,False,False,-118.2811761,34.0812156,"Accounting, Tax Preparation, Bookkeeping, and Payroll Services"
552,sg:001426dc3b254792b17f30f6fee493b2,-118.28461399999999,34.081035,60371959032,4,False,False,-118.2811761,34.0812156,Restaurants and Other Eating Places
553,sg:8bafe18f06084ad8a042948183e60829,-118.291206,33.983344,60371959032,5,False,True,-118.2811761,34.0812156,Restaurants and Other Eating Places
554,sg:2a6627ae0dfa4aea9d45e88e84ae9212,-118.251852,34.040478,60372398011,4,False,False,-118.25857979999999,33.966078700000004,"Sporting Goods, Hobby, and Musical Instrument Stores"
555,sg:18f5c25dec9048e79194d4f631acfcb2,-118.27875900000001,33.970488,60372398011,4,False,False,-118.25857979999999,33.966078700000004,Automotive Repair and Maintenance
556,sg:2bb1203a29e7489b80d396edf9817bd1,-117.915791,34.039203,60374067011,5,False,True,-117.9483845,34.0565814,"Museums, Historical Sites, and Similar Institutions"
557,sg:7950a5d0eca14d379406dcd5b76009e2,-118.25265700000001,34.047540999999995,60374067011,4,False,False,-117.9483845,34.0565814,"Jewelry, Luggage, and Leather Goods Stores"
558,sg:378d65cdbf8f463988a356a68345e1f1,-118.25841100000001,34.103438,60371974201,4,True,False,-118.2578412,34.084751000000004,Health and Personal Care Stores
559,sg:188f2d9e3aee4f3485d4c897393c821d,-118.304002,34.097435,60371974201,4,True,False,-118.2578412,34.084751000000004,Bakeries and Tortilla Manufacturing
560,sg:8fee4ba20ab940228463e3c8d5173bdb,-118.249481,34.088892,60371974201,4,True,False,-118.2578412,34.084751000000004,Elementary and Secondary Schools
561,sg:393a9cfdf8974e84b7b41ee765a14d5f,-118.26132700000001,34.02864,60371974201,8,True,True,-118.2578412,34.084751000000004,"General Merchandise Stores, including Warehouse Clubs and Supercenters"
562,sg:9f5af85b6ee547c099770471af82d73a,-118.25653700000001,34.085182,60371974201,4,True,False,-118.2578412,34.084751000000004,Psychiatric and Substance Abuse Hospitals
563,sg:b7e6fd0a15a64eeaa66d3621660f7c26,-118.259877,34.080056,60371974201,4,True,False,-118.2578412,34.084751000000004,Restaurants and Other Eating Places
564,sg:9d6265aaf972497c9ec80a7ab8ddd389,-118.259295,34.086494,60371974201,4,True,False,-118.2578412,34.084751000000004,Restaurants and Other Eating Places
565,sg:54a2b790068a40a4b266a3d5386d6152,-118.25960800000001,34.082978999999995,60371974201,4,True,False,-118.2578412,34.084751000000004,Florists
566,sg:13c62b4aee9e4dfca4fec2b9d784d8c7,-118.253856,34.084668,60371974201,4,True,False,-118.2578412,34.084751000000004,"Beer, Wine, and Liquor Stores"
567,sg:cd1e8125f7984c1c954f51fba3de6d62,-118.32701100000001,34.098831,60371974201,4,True,False,-118.2578412,34.084751000000004,Restaurants and Other Eating Places
568,sg:3a4d47642f8040b1ad7af05a90e5717b,-118.232376,34.046458,60372036003,4,True,False,-118.21145220000001,34.0508472,Electronics and Appliance Stores
569,sg:5853222b120141cca4d6ac21599caff1,-118.267499,34.070396,60372036003,4,True,False,-118.21145220000001,34.0508472,Gasoline Stations
570,sg:bbec8bce86864175b11d5c02fbd0be39,-118.21271100000001,34.04945,60372036003,4,True,False,-118.21145220000001,34.0508472,"Automotive Parts, Accessories, and Tire Stores"
571,sg:b7f1c4bce0a14e4cac2158c03c120ea8,-118.37775500000001,34.039975,60372036003,4,True,False,-118.21145220000001,34.0508472,Clothing Stores
572,sg:fc3fe26111ac4fb99b8e11eb41e88076,-118.37743600000002,34.041932,60372036003,4,True,False,-118.21145220000001,34.0508472,Motion Picture and Video Industries
573,sg:673c41f720234205afb83cf76f7a7fde,-118.14494199999999,34.027169,60372036003,4,True,False,-118.21145220000001,34.0508472,Other Amusement and Recreation Industries
574,sg:dd388746ced643d09fb52004fae7e7f9,-118.377252,34.040681,60372036003,4,True,False,-118.21145220000001,34.0508472,"Automotive Parts, Accessories, and Tire Stores"
575,sg:c6ce8e1cbb3d4987abf64661e555f828,-118.22524399999999,34.054328000000005,60372036003,4,True,False,-118.21145220000001,34.0508472,Building Material and Supplies Dealers
576,sg:ba8ac4844adf45e58d65db61e2b43259,-118.211547,34.04866,60372036003,6,True,True,-118.21145220000001,34.0508472,Restaurants and Other Eating Places
577,sg:d9134e2f190046038d3ef61b6ae0ff75,-118.23993700000001,34.046673,60372036003,4,True,False,-118.21145220000001,34.0508472,Child Day Care Services
578,sg:3dcfe0470ce2474ab6b8859973384b4d,-118.246986,33.954951,60372404012,4,True,False,-118.28241499999999,33.951417299999996,Grocery Stores
579,sg:caff284809924ccea8e6c31bf13c1aba,-118.291292,33.951679999999996,60372404012,4,True,False,-118.28241499999999,33.951417299999996,Religious Organizations
580,sg:d45470e99c314cbbba6f8651a7ae4f5c,-118.250367,34.045808,60372404012,4,True,False,-118.28241499999999,33.951417299999996,Furniture Stores
581,sg:67dc881b31004c109385892783da4aef,-118.28241499999999,33.949911,60372404012,4,True,False,-118.28241499999999,33.951417299999996,Religious Organizations
582,sg:4171a3afe3974a6f9459496361906141,-118.282149,33.944896,60372404012,4,True,False,-118.28241499999999,33.951417299999996,Restaurants and Other Eating Places
583,sg:d7c5497158964e35945443695b78eed4,-118.291183,33.954899,60372404012,4,True,False,-118.28241499999999,33.951417299999996,Restaurants and Other Eating Places
584,sg:996cc0ce2c8048e8a777f4be96893f5d,-118.307005,34.068795,60372404012,4,True,False,-118.28241499999999,33.951417299999996,Restaurants and Other Eating Places
585,sg:576154ee919645d2b0c53c92414bbd3c,-118.286801,33.952647999999996,60372404012,6,True,True,-118.28241499999999,33.951417299999996,Restaurants and Other Eating Places
586,sg:805f3e528d4746b59501163eff7f7491,-118.28220900000001,33.94992,60372404012,7,True,True,-118.28241499999999,33.951417299999996,Child Day Care Services
587,sg:a243078a42e344808a17205bf038e1ad,-118.30868999999998,33.947081,60372404012,4,True,False,-118.28241499999999,33.951417299999996,Other Personal Services
588,sg:1244ae20570f4f4b8d62be41e1c691b4,-118.318118,34.043244,60372404012,5,True,True,-118.28241499999999,33.951417299999996,Furniture Stores
589,sg:92666859da244fd6a54515ee730caf64,-118.287282,33.951677000000004,60372404012,4,True,False,-118.28241499999999,33.951417299999996,Elementary and Secondary Schools
590,sg:9c0a65f04dea47dea08561b9cb856651,-118.246922,34.046946999999996,60372404012,4,True,False,-118.28241499999999,33.951417299999996,Other Miscellaneous Store Retailers
591,sg:b177bd5357324eff829c5afd7a9aa797,-118.283726,33.953001,60372404012,6,True,True,-118.28241499999999,33.951417299999996,Building Material and Supplies Dealers
592,sg:9da95b5e16274d4ea00a7ea893f5bee4,-118.057852,33.913045000000004,60372404012,6,True,True,-118.28241499999999,33.951417299999996,"Museums, Historical Sites, and Similar Institutions"
593,sg:28972a16cbf644d89533d5f17730b341,-118.468567,34.05327,60372404012,4,True,False,-118.28241499999999,33.951417299999996,Clothing Stores
594,sg:176604ec583944458965dd5897aa047c,-118.415221,34.002252,60372404012,4,True,False,-118.28241499999999,33.951417299999996,Administration of Economic Programs
595,sg:45fdb4d5fe0548dd83dca13a3b18a8ae,-118.15676599999999,34.02341,60375317011,4,True,False,-118.15175390000002,34.0227966,Automotive Equipment Rental and Leasing
596,sg:694b69c130564470b088223934fa66b4,-118.15652,34.024651,60375317011,32,True,True,-118.15175390000002,34.0227966,Specialty Food Stores
597,sg:578cbdcf47784e42b97dccf87c4405d1,-118.16051100000001,34.021315,60375317011,7,True,True,-118.15175390000002,34.0227966,Restaurants and Other Eating Places
598,sg:5bba39c828544fcebf04897429fa0182,-118.155955,34.023983,60375317011,17,True,True,-118.15175390000002,34.0227966,Restaurants and Other Eating Places
599,sg:84552b9865c146cfb7581a134c630c96,-118.240742,34.048818,60375317011,4,True,False,-118.15175390000002,34.0227966,Restaurants and Other Eating Places
600,sg:bb936fa11f8142049e69946afd4d0535,-118.174497,34.040362,60375317011,5,True,True,-118.15175390000002,34.0227966,"Sporting Goods, Hobby, and Musical Instrument Stores"
601,sg:a4caa7f9c26a4c468c970b616177267d,-118.156244,34.025188,60375317011,6,True,True,-118.15175390000002,34.0227966,Automobile Dealers
602,sg:4ed26a4a87a44df28112b1417d6e959e,-118.180664,34.065704,60375317011,6,True,True,-118.15175390000002,34.0227966,Gasoline Stations
603,sg:baff6d85233f4ca8a03b5c38789b7174,-118.15638500000001,34.024465,60375317011,5,True,True,-118.15175390000002,34.0227966,Offices of Dentists
604,sg:c4c17760bb9e47fea8ec83eb488d86de,-118.159921,34.021204,60375317011,5,True,True,-118.15175390000002,34.0227966,Restaurants and Other Eating Places
605,sg:63c278e1d6134edea26abe3ac5b36a72,-118.15388899999999,34.032629,60375317011,5,True,True,-118.15175390000002,34.0227966,Restaurants and Other Eating Places
606,sg:3780975f56614e81901b213609f91f26,-118.156438,34.024353999999995,60375317011,11,True,True,-118.15175390000002,34.0227966,Grocery Stores
607,sg:172db94af2de46d6aaf33007444615c2,-118.162058,34.031259999999996,60375317011,4,True,False,-118.15175390000002,34.0227966,Elementary and Secondary Schools
608,sg:f029b137ef664cbe8508eae918604973,-118.29311299999999,34.090683,60375317011,6,True,True,-118.15175390000002,34.0227966,"Office Supplies, Stationery, and Gift Stores"
609,sg:4ab9ee797cce4e358e5fead13fc6fd82,-118.24793500000001,33.991344,60372392021,4,True,False,-118.26286499999999,33.985634999999995,Building Material and Supplies Dealers
610,sg:e04723ba55f24395bfba53fe6fa0f321,-118.25015400000001,33.974539,60372392021,4,True,False,-118.26286499999999,33.985634999999995,Grocery Stores
611,sg:9444189474d44b5dad4ddd2df6a7c242,-118.249834,34.04874,60372392021,4,True,False,-118.26286499999999,33.985634999999995,Clothing Stores
612,sg:dbde5048d59d4fd5b87470bf84ce06aa,-118.284945,34.039818,60372392021,4,True,False,-118.26286499999999,33.985634999999995,Restaurants and Other Eating Places
613,sg:f05fd805d94546a79e9cee469282debd,-118.25798700000001,34.048351000000004,60372392021,4,True,False,-118.26286499999999,33.985634999999995,Restaurants and Other Eating Places
614,sg:f9412e9745a54a4aa8d0fcb4ac8b7cbb,-118.26823200000001,33.98802,60372392021,4,True,False,-118.26286499999999,33.985634999999995,Automotive Repair and Maintenance
615,sg:92d09734a3694486ac415198375a9b2b,-118.253653,34.042225,60372392021,4,True,False,-118.26286499999999,33.985634999999995,"Sporting Goods, Hobby, and Musical Instrument Stores"
616,sg:afa8a2689643434d9eaccf527ec1b4bf,-118.26555400000001,34.009971,60372392021,4,True,False,-118.26286499999999,33.985634999999995,Restaurants and Other Eating Places
617,sg:f5a1819d8e1b4cea9868272d2bc357c9,-118.25813500000001,34.047979,60372392021,4,True,False,-118.26286499999999,33.985634999999995,Restaurants and Other Eating Places
618,sg:cde9cebf18394527957c6e1f31617f51,-118.258518,34.049398,60372392021,4,True,False,-118.26286499999999,33.985634999999995,"Sporting Goods, Hobby, and Musical Instrument Stores"
619,sg:7b77ef95cd054a12aeede23491d7e747,-118.26973600000001,33.985799,60372392021,4,True,False,-118.26286499999999,33.985634999999995,Other Motor Vehicle Dealers
620,sg:b6bddbf7cccf401bbd63179d4a7226a4,-118.41901000000001,33.97071,60372392021,4,True,False,-118.26286499999999,33.985634999999995,Restaurants and Other Eating Places
621,sg:189e65ff0c244ce7b6722ac48b3a1c00,-118.256203,34.052277000000004,60372392021,5,True,True,-118.26286499999999,33.985634999999995,Restaurants and Other Eating Places
622,sg:1af17de01d474e968cf0460e47d1e990,-118.24861899999999,34.047934000000005,60372392021,4,True,False,-118.26286499999999,33.985634999999995,Wired and Wireless Telecommunications Carriers
623,sg:3d08cb3d2880401c9d2eda4cc9fc5f41,-118.25622299999999,33.991412,60372392021,4,True,False,-118.26286499999999,33.985634999999995,Restaurants and Other Eating Places
624,sg:2c4f57ca30ea40bb9bcd4753701e8faf,-118.24824,34.050268,60372392021,4,True,False,-118.26286499999999,33.985634999999995,Health and Personal Care Stores
625,sg:47dbe9be3d4047fe9120d601e4b829a1,-118.265569,34.036588,60372392021,4,True,False,-118.26286499999999,33.985634999999995,Offices of Physicians
626,sg:58af4751f71b485689396557d9d35ba6,-118.24939099999999,34.049785,60372392021,4,True,False,-118.26286499999999,33.985634999999995,Restaurants and Other Eating Places
627,sg:fd89d99b7db84e848a19101eb305cd6f,-118.250926,34.070966999999996,60372392021,4,True,False,-118.26286499999999,33.985634999999995,Restaurants and Other Eating Places
628,sg:818cc0bf5d0e4a0d8e9ba4f9a35dccbd,-118.27014799999999,34.008074,60372392021,4,True,False,-118.26286499999999,33.985634999999995,Grocery Stores
629,sg:2104f8395dd94047a0d711066d39ef7f,-118.237953,33.980946,60372392021,4,True,False,-118.26286499999999,33.985634999999995,Clothing Stores
630,sg:07f64b625f654efcb8091a44a7577f76,-118.248535,34.048353000000006,60372392021,4,True,False,-118.26286499999999,33.985634999999995,Restaurants and Other Eating Places
631,sg:5f4a7949542245ea98ba8df8f2bfe5fa,-118.278021,34.008027,60372392021,5,True,True,-118.26286499999999,33.985634999999995,Restaurants and Other Eating Places
632,sg:088220a454b94cb08e9e8b100876ddf3,-118.41238600000001,34.050695000000005,60372392021,4,True,False,-118.26286499999999,33.985634999999995,Child Day Care Services
633,sg:54fb27bc60da447bba9c395492e0ebb2,-118.34774099999998,33.988645,60372351003,4,False,False,-118.3485247,33.9865331,Child Day Care Services
634,sg:28136d68a4234ece8102a9881670ac1d,-118.35105300000001,33.988669,60372351003,4,False,False,-118.3485247,33.9865331,Offices of Physicians
