,safegraph_place_id,longitude,latitude,cbg,visits,hotspot_origin,hotspot_destination,cbg_longitude,cbg_latitude,top_category
0,sg:0d93a821d669457bae4deda743d668a1,-112.055264,33.552696000000005,40131032093,4,True,False,-111.957682,33.587699,"Office Supplies, Stationery, and Gift Stores"
1,sg:1e592ffcb1584e56b28226d7fb67d97d,-112.047904,33.641918,40131032093,6,True,True,-111.957682,33.587699,Restaurants and Other Eating Places
2,sg:634f0d0e6d4b4a83a9f985e952e12ddf,-111.97635700000001,33.585073,40131032093,38,True,True,-111.957682,33.587699,Lessors of Real Estate
3,sg:c7a2c130324243d5ad9a40e3f1578fc1,-111.97863100000001,33.600208,40131032093,7,True,True,-111.957682,33.587699,Other Miscellaneous Store Retailers
4,sg:182ea288c1634d39810c2dcb8b01fa7e,-111.978619,33.596297,40131032093,16,True,True,-111.957682,33.587699,"General Merchandise Stores, including Warehouse Clubs and Supercenters"
5,sg:06217bed2d984f6886342ff09d4e4db5,-111.993169,33.619383,40131032093,5,True,True,-111.957682,33.587699,Child Day Care Services
6,sg:123417a182db47ce995b4772951d6ace,-112.022632,33.674824,40131032093,4,True,False,-111.957682,33.587699,Other Amusement and Recreation Industries
7,sg:e231728a4eb8455393e7807abdf26a46,-111.979017,33.580931,40131032093,19,True,True,-111.957682,33.587699,Grocery Stores
8,sg:e2d803b94b614a65b7b15d01fcf09a77,-111.978632,33.583832,40131032093,4,True,False,-111.957682,33.587699,Restaurants and Other Eating Places
9,sg:4e8b85422009491b9cb23d1bd1b1aad8,-111.976427,33.588004,40131032093,4,True,False,-111.957682,33.587699,Offices of Physicians
10,sg:309b3aa53b014cbdadfe18d76213077c,-111.977529,33.610849,40131032093,4,True,False,-111.957682,33.587699,Restaurants and Other Eating Places
11,sg:5d7eed69b11748999ae3ea79d7ea0109,-111.97676899999999,33.585962,40131032093,9,True,True,-111.957682,33.587699,Restaurants and Other Eating Places
12,sg:331521ad8c8e454f8e5bb85d088e9591,-112.088094,33.525064,40131032093,4,True,False,-111.957682,33.587699,Home Health Care Services
13,sg:7133b7673be2483e9d07aa1a0dbf9c1f,-112.051699,33.582846999999994,40131032093,4,True,False,-111.957682,33.587699,Grocery Stores
14,sg:655dd9db75ca49c498f1585c05d7e0f6,-111.977029,33.610122,40131032093,4,True,False,-111.957682,33.587699,Other Amusement and Recreation Industries
15,sg:1df7d883bda34352a49928c686ccd30b,-111.991629,33.687409,40136150002,8,True,True,-111.9999156,33.6918454,Offices of Other Health Practitioners
16,sg:c5f58ec07eff49b7b17e8540c73a9a61,-112.069528,33.695645,40136150002,7,True,True,-111.9999156,33.6918454,Other Amusement and Recreation Industries
17,sg:55f92c602d58443b95fb00b730909186,-112.090528,33.666777,40136150002,10,True,True,-111.9999156,33.6918454,Elementary and Secondary Schools
18,sg:9642a22e80fc4a879d91c431a8624feb,-111.975338,33.67709,40136150002,8,True,True,-111.9999156,33.6918454,Restaurants and Other Eating Places
19,sg:0a6d6085c3544422b91e00ae0ef81620,-111.971969,33.675781,40136150002,15,True,True,-111.9999156,33.6918454,Restaurants and Other Eating Places
20,sg:7fd374cd4d904c3b9d017043f775b30f,-112.031351,33.640889,40136150002,6,True,True,-111.9999156,33.6918454,Restaurants and Other Eating Places
21,sg:10acc55222014ced907bfb3241b7c873,-111.978753,33.677358,40136150002,17,True,True,-111.9999156,33.6918454,Health and Personal Care Stores
22,sg:93704aebf2694502aef92031ea8cce84,-111.99246200000002,33.69214,40136150002,8,True,True,-111.9999156,33.6918454,Other Personal Services
23,sg:3577c615ac94424bb8d360d2f8b75c17,-111.988956,33.692370000000004,40136150002,12,True,True,-111.9999156,33.6918454,Child Day Care Services
24,sg:edefafd15b3d4739ad826fa0f69a9eca,-111.978401,33.638494,40136150002,4,True,False,-111.9999156,33.6918454,Electronics and Appliance Stores
25,sg:1bdcfde84ff64523a0c92a8d7414ff98,-111.978397,33.676272999999995,40136150002,4,True,False,-111.9999156,33.6918454,Offices of Dentists
26,sg:589368b034964467b1eb860e296519ba,-112.02553999999999,33.640184999999995,40136150002,5,True,True,-111.9999156,33.6918454,Gasoline Stations
27,sg:23c744d0b090489292d917b30e4062bf,-111.97988899999999,33.675271,40136150002,9,True,True,-111.9999156,33.6918454,Other Amusement and Recreation Industries
28,sg:6a7d0bb2bd4444759b11163b4552d8e1,-111.97447700000001,33.674308,40136150002,34,True,True,-111.9999156,33.6918454,Department Stores
29,sg:661111d571f84003955fb846f596c97c,-111.971185,33.676219,40136150002,14,True,True,-111.9999156,33.6918454,Restaurants and Other Eating Places
30,sg:81119b4567664527a47bf929735b88a3,-111.973948,33.676415000000006,40136150002,10,True,True,-111.9999156,33.6918454,Drinking Places (Alcoholic Beverages)
31,sg:367c824db9444e5facec4136b9823cb7,-111.9747,33.678647999999995,40136150002,12,True,True,-111.9999156,33.6918454,Grocery Stores
32,sg:d72d0608972d4ff4bc7723cb93487413,-111.93121000000001,33.652173,40136150002,4,True,False,-111.9999156,33.6918454,Offices of Other Health Practitioners
33,sg:30d158c4788b448291e941212a8adca9,-111.97588300000001,33.679521,40136150002,20,True,True,-111.9999156,33.6918454,Health and Personal Care Stores
34,sg:0fe6ede0cc0c4da9b2905ffd096c9797,-111.988805,33.692256,40136150002,8,True,True,-111.9999156,33.6918454,Individual and Family Services
35,sg:247e0aab16ba4df397987ebccdea1db4,-111.98546100000002,33.68786,40136150002,33,True,True,-111.9999156,33.6918454,Elementary and Secondary Schools
36,sg:66326facde8d456ab748d544cd9e16c3,-112.06608899999999,33.640889,40136150002,4,True,False,-111.9999156,33.6918454,Shoe Stores
37,sg:a37910b84690463fb7a03637fc0f458f,-111.97076899999999,33.677991,40136150002,9,True,True,-111.9999156,33.6918454,Other Miscellaneous Store Retailers
38,sg:39a1ed1fce1b473ab3daa1f02d3c6ab5,-112.001044,33.640195,40136150002,9,True,True,-111.9999156,33.6918454,Gasoline Stations
39,sg:76fc72d73ddb475fb6dff8daf2abe568,-112.031695,33.671141,40136150002,7,True,True,-111.9999156,33.6918454,Restaurants and Other Eating Places
40,sg:7bc0aea6f58c42448c84e7532d1db762,-111.998673,33.695528,40136150002,12,True,True,-111.9999156,33.6918454,Other Amusement and Recreation Industries
41,sg:4a0758ab304b4c43aaf993659e362eb0,-111.972175,33.675961,40136150002,4,True,False,-111.9999156,33.6918454,Health and Personal Care Stores
42,sg:42a5b01602b54eb1be537ad3cc04e81b,-111.927773,33.655988,40136150002,21,True,True,-111.9999156,33.6918454,Restaurants and Other Eating Places
43,sg:ad2629d9e71b40e88d2fab2520377d1a,-112.06656399999999,33.447111,40136150002,6,True,True,-111.9999156,33.6918454,Restaurants and Other Eating Places
44,sg:bd94765e0de947cea8ede36ee95416bc,-111.99230800000001,33.582006,40136150002,4,True,False,-111.9999156,33.6918454,Elementary and Secondary Schools
45,sg:d577bd65e2bb4b27b0aeb9d612c1b6b1,-111.978306,33.674525,40136150002,4,True,False,-111.9999156,33.6918454,Offices of Other Health Practitioners
46,sg:71e4b78bf97b440ca07c9c272b99046b,-111.97723799999999,33.678833000000004,40136150002,27,True,True,-111.9999156,33.6918454,Clothing Stores
47,sg:94b8302a6eda4e3a9937d0af5c6abcb2,-111.99898300000001,33.696093,40136150002,4,True,False,-111.9999156,33.6918454,"Sporting Goods, Hobby, and Musical Instrument Stores"
48,sg:b4a8650070c44a818828bc1233f5112c,-111.974703,33.678670000000004,40136150002,38,True,True,-111.9999156,33.6918454,Health and Personal Care Stores
49,sg:da88cf972ddc4e95adc65719dab437cd,-111.988006,33.693334,40136150002,29,True,True,-111.9999156,33.6918454,Child Day Care Services
50,sg:3873903583934820bf0c41642495bac7,-111.971309,33.67821,40136150002,21,True,True,-111.9999156,33.6918454,Home Furnishings Stores
51,sg:b92e3f51465c4ac4861a4657bc2003c2,-111.997483,33.63779,40136150002,4,True,False,-111.9999156,33.6918454,Offices of Physicians
52,sg:e7d81a33e78644cc8903aad3801a5ae0,-111.975793,33.674069,40136150002,18,True,True,-111.9999156,33.6918454,Other Amusement and Recreation Industries
53,sg:f7d93c7bab0843679afcf9fae037c576,-111.97446000000001,33.679173999999996,40136150002,11,True,True,-111.9999156,33.6918454,Restaurants and Other Eating Places
54,sg:aea0aaaaa86243a9a9c65927c2254458,-111.96409299999999,33.675801,40136150002,16,True,True,-111.9999156,33.6918454,Restaurants and Other Eating Places
55,sg:c58b61f108524e8b8d794e82569d11cd,-112.090551,33.666759000000006,40136150002,4,True,False,-111.9999156,33.6918454,Religious Organizations
56,sg:74f04e6731f44a9d96dd8a581a5f6912,-112.01185100000001,33.648302,40136150002,5,True,True,-111.9999156,33.6918454,Offices of Other Health Practitioners
57,sg:0079334f65474cc4baa3d7c3d1ae40db,-111.97339199999999,33.675932,40136150002,223,True,True,-111.9999156,33.6918454,Lessors of Real Estate
58,sg:01d6a2893b904e0dbc18c2361377ce4a,-111.987866,33.693166999999995,40136150002,44,True,True,-111.9999156,33.6918454,Elementary and Secondary Schools
59,sg:fb8e3f4004954fe7b380a08563c5f5d7,-111.97663200000001,33.679659,40136150002,35,True,True,-111.9999156,33.6918454,Gasoline Stations
60,sg:6fad8d77549941f2b6d2de9694db2f52,-111.979854,33.675379,40136150002,9,True,True,-111.9999156,33.6918454,Restaurants and Other Eating Places
61,sg:79f1c78b15d54f09be3c1f3d98d146d3,-111.972105,33.676303000000004,40136150002,14,True,True,-111.9999156,33.6918454,"Sporting Goods, Hobby, and Musical Instrument Stores"
62,sg:9b65c687f0dc43028531fdfcccec8f1e,-111.98350900000001,33.602691,40136150002,14,True,True,-111.9999156,33.6918454,Lessors of Real Estate
63,sg:ea81f6da4fc840839506630f494d615a,-111.96546599999999,33.676258000000004,40136150002,4,True,False,-111.9999156,33.6918454,Building Material and Supplies Dealers
64,sg:c12bd3c6afb84f5c928c370d39effc90,-112.02748500000001,33.677634000000005,40136150002,6,True,True,-111.9999156,33.6918454,Building Material and Supplies Dealers
65,sg:1750725ba2b04445867020164a80aba7,-111.96476799999999,33.675827000000005,40136150002,36,True,True,-111.9999156,33.6918454,Lessors of Real Estate
66,sg:2f131f3109f34bb5bf17c334cd2367b8,-111.97538700000001,33.674704999999996,40136150002,15,True,True,-111.9999156,33.6918454,Restaurants and Other Eating Places
67,sg:eafe4d1c8bf2482dbcfd5e5e0423ba14,-111.97185,33.675937,40136150002,11,True,True,-111.9999156,33.6918454,Restaurants and Other Eating Places
68,sg:13ef488e451d4faea4ef18f00ba79c32,-111.97493200000001,33.678183000000004,40136150002,43,True,True,-111.9999156,33.6918454,"Office Supplies, Stationery, and Gift Stores"
69,sg:98d6e4b1a3484a16b2e64379d0ee3516,-111.974713,33.675903999999996,40136150002,7,True,True,-111.9999156,33.6918454,Restaurants and Other Eating Places
70,sg:eb790e242dd0482285d732932f70fb6d,-112.030381,33.675663,40136150002,4,True,False,-111.9999156,33.6918454,Building Material and Supplies Dealers
71,sg:53475221b3a64aada851f7c13c2a72fe,-112.03819299999999,33.597164,40136150002,4,True,False,-111.9999156,33.6918454,Restaurants and Other Eating Places
72,sg:1efb1b2be866446e9218d6fe9e9f2a40,-112.03043000000001,33.676346,40136150002,10,True,True,-111.9999156,33.6918454,Restaurants and Other Eating Places
73,sg:6f89793805e6492d9fac8ba50e8fa913,-111.97623300000001,33.674102000000005,40136150002,5,True,True,-111.9999156,33.6918454,Personal Care Services
74,sg:f9c5700b17c0403da00c9749706ba764,-111.974112,33.676967,40136150002,8,True,True,-111.9999156,33.6918454,Book Stores and News Dealers
75,sg:51a537196144423384a39c3cc18296b3,-112.084648,33.682423,40136150002,4,True,False,-111.9999156,33.6918454,Drugs and Druggists' Sundries Merchant Wholesalers
76,sg:c8da54cb852b44dc9462e89cdf139ad8,-111.974985,33.676259,40136150002,10,True,True,-111.9999156,33.6918454,Restaurants and Other Eating Places
77,sg:29a940567bfe40bab4c115e9ac2ebaaf,-112.266304,33.507603,40130820021,5,True,True,-112.28114129999999,33.503228299999996,Other Miscellaneous Store Retailers
78,sg:7a69e28c9e614b948cc20267d05b2b3b,-112.27371699999999,33.506038000000004,40130820021,8,True,True,-112.28114129999999,33.503228299999996,Other Miscellaneous Store Retailers
79,sg:27ce4205f436453da398beb210e7a3dd,-112.12060600000001,33.465509000000004,40130820021,4,True,False,-112.28114129999999,33.503228299999996,"Office Supplies, Stationery, and Gift Stores"
80,sg:66e91737f9c84e8c80788e45dd28ea55,-112.285149,33.506056,40130820021,5,True,True,-112.28114129999999,33.503228299999996,Building Equipment Contractors
81,sg:4a80ada8c91940a0b7465706ce676839,-112.23012800000001,33.487687,40130820021,4,True,False,-112.28114129999999,33.503228299999996,Elementary and Secondary Schools
82,sg:a3f284999e3e4dbda38e91bdeab4ce3e,-112.284577,33.507203000000004,40130820021,5,True,True,-112.28114129999999,33.503228299999996,Elementary and Secondary Schools
83,sg:9b432ead38294a9eb61aaf7169cd9d82,-112.217794,33.494240999999995,40130820021,5,True,True,-112.28114129999999,33.503228299999996,Restaurants and Other Eating Places
84,sg:9f111569894245bc8a603c68b6c666ce,-112.27705700000001,33.507484000000005,40130820021,5,True,True,-112.28114129999999,33.503228299999996,"Sporting Goods, Hobby, and Musical Instrument Stores"
85,sg:87384c1438c043d4a325c8ecef2954d0,-112.083272,33.509797,40130820021,5,True,True,-112.28114129999999,33.503228299999996,Restaurants and Other Eating Places
86,sg:3ac8666c48ff42f2b9e1c66459e49cf5,-112.12761,33.527257,40131069003,4,False,False,-112.12991550000001,33.527604100000005,Services to Buildings and Dwellings
87,sg:37d9bf61b9034b87a417a5c01c8d8f3c,-112.15941200000002,33.464935,40131069003,4,False,False,-112.12991550000001,33.527604100000005,Services to Buildings and Dwellings
88,sg:efe08e5e969d4923b655a363e7d35c98,-112.09968700000002,33.49575,40131069003,4,False,False,-112.12991550000001,33.527604100000005,"Sporting Goods, Hobby, and Musical Instrument Stores"
89,sg:3c5a487db87148fab18daccf20cccf5c,-112.017804,33.57495,40131033022,4,True,False,-111.9996635,33.616859600000005,"Accounting, Tax Preparation, Bookkeeping, and Payroll Services"
90,sg:9fa156999e8e4dcdad583a84903859d9,-111.99743500000001,33.610788,40131033022,9,True,True,-111.9996635,33.616859600000005,Other Amusement and Recreation Industries
91,sg:770ccb961ef845ffa09367bd4f048b6e,-112.03778999999999,33.601578,40131033022,5,True,True,-111.9996635,33.616859600000005,"General Merchandise Stores, including Warehouse Clubs and Supercenters"
92,sg:5e8e4e62d4724db79bc0766a038eaea3,-112.072107,33.455971999999996,40131033022,4,True,False,-111.9996635,33.616859600000005,Restaurants and Other Eating Places
93,sg:7b39ffa23faa45eb826eaa6900f2f712,-111.994881,33.641189000000004,40131033022,7,True,True,-111.9996635,33.616859600000005,Restaurants and Other Eating Places
94,sg:8386cd242c4649c7809f2ed77caae0e7,-111.994151,33.611084000000005,40131033022,43,True,True,-111.9996635,33.616859600000005,Grocery Stores
95,sg:e49647d50028498ebcf1d3866a69b515,-112.08374099999999,33.496225,40131033022,4,True,False,-111.9996635,33.616859600000005,Restaurants and Other Eating Places
96,sg:f3f75b0b147f4cbc85736b9f9e9fac04,-111.997474,33.621097,40131033022,4,True,False,-111.9996635,33.616859600000005,Furniture Stores
97,sg:586f575acd7945fd85c860398f7b3c1c,-111.98311299999999,33.641,40131033022,6,True,True,-111.9996635,33.616859600000005,Restaurants and Other Eating Places
98,sg:be499822733a4f41921f93a76989ecda,-111.98238500000001,33.640233,40131033022,5,True,True,-111.9996635,33.616859600000005,Miscellaneous Durable Goods Merchant Wholesalers
99,sg:85e20f2f3c8b4a539a2f7b4d70feb397,-111.995419,33.61225,40131033022,8,True,True,-111.9996635,33.616859600000005,Restaurants and Other Eating Places
100,sg:a21b95410c6541b29dfe03e753d7dafc,-111.99459499999999,33.607873,40131033022,4,True,False,-111.9996635,33.616859600000005,Automotive Repair and Maintenance
101,sg:69ccf510dfe1418e922df787b6c83b57,-112.011205,33.495430999999996,40131033022,4,True,False,-111.9996635,33.616859600000005,Building Material and Supplies Dealers
102,sg:ba931c790bfa4bb286726b5456e2f67b,-111.978629,33.583915000000005,40131033022,5,True,True,-111.9996635,33.616859600000005,Other Miscellaneous Store Retailers
103,sg:93774c21d481475c8231be908f999568,-111.996201,33.614432,40131033022,4,True,False,-111.9996635,33.616859600000005,Home Health Care Services
104,sg:9fa08874f867448d8000c61ab60d3127,-112.01392299999999,33.652496,40131033022,4,True,False,-111.9996635,33.616859600000005,Home Furnishings Stores
105,sg:111d451c97344816899e0ba8238a4efa,-112.031011,33.576409999999996,40131033022,4,True,False,-111.9996635,33.616859600000005,Wired and Wireless Telecommunications Carriers
106,sg:e68a74e0e13e4abea03f4bea1342fbb2,-112.01251599999999,33.612021,40131033022,4,True,False,-111.9996635,33.616859600000005,Restaurants and Other Eating Places
107,sg:f4b64e41f0734408bc8ec4aec4348299,-112.135524,33.611751,40131033022,7,True,True,-111.9996635,33.616859600000005,Offices of Dentists
108,sg:3a6d3eea9a9a41d4a344131f0f835fad,-112.104773,33.585328999999994,40131033022,5,True,True,-111.9996635,33.616859600000005,Other Amusement and Recreation Industries
109,sg:405ef69a12a34747bb38c6a323ac35d3,-112.09856299999998,33.639583,40136190001,5,False,True,-112.06338629999999,33.6512098,"Automotive Parts, Accessories, and Tire Stores"
110,sg:d0c3764a235043a1959466323b293fe6,-111.995474,33.629717,40136190001,4,False,False,-112.06338629999999,33.6512098,Elementary and Secondary Schools
111,sg:4325e2eb82f0425c9a5e7405518a00b5,-111.973295,33.312882,40138109001,4,False,False,-111.93842409999999,33.2996103,Other Amusement and Recreation Industries
112,sg:053a6c05034f47529a716995a9db542d,-111.990268,33.293681,40138109001,4,False,False,-111.93842409999999,33.2996103,Home Health Care Services
113,sg:3f256f52bee343a998e0fd556d939c64,-112.105915,33.403519,40138109001,4,False,False,-111.93842409999999,33.2996103,Automobile Dealers
114,sg:70d556e4929f4864ab27678e163b9acd,-111.962972,33.448612,40138109001,4,False,False,-111.93842409999999,33.2996103,"Automotive Parts, Accessories, and Tire Stores"
115,sg:47670c74803d423ebf6b601802186d2c,-112.05031899999999,33.465996999999994,40190040113,4,False,False,-110.84030049999998,32.2050836,Restaurants and Other Eating Places
116,sg:6124021ada814c04a2583e28507598f9,-111.98904499999999,33.495740999999995,40131082003,4,False,False,-111.9911398,33.498675399999996,Restaurants and Other Eating Places
117,sg:2e7aa90c470e40ad82abb36ad49b5d4e,-112.125704,33.573861,40131082003,5,False,True,-111.9911398,33.498675399999996,Restaurants and Other Eating Places
118,sg:a089ed8f9ce44c2ba09161e5461618d1,-112.000998,33.495732000000004,40131082003,4,False,False,-111.9911398,33.498675399999996,Restaurants and Other Eating Places
119,sg:6273b921572e45ad80a5ab8a1bf40369,-112.134073,33.674533000000004,40136182001,5,True,True,-112.13888899999999,33.6510282,Religious Organizations
120,sg:d7e702d0d62c47179a86b8c48c56d25a,-112.099258,33.655547,40136182001,6,True,True,-112.13888899999999,33.6510282,Gasoline Stations
121,sg:ceae0689ea184ae7bec0d33ecaa38ad8,-112.10250800000001,33.523716,40136182001,6,True,True,-112.13888899999999,33.6510282,Florists
122,sg:d052a364bc294dd594e73ad9cd185b68,-112.106848,33.588060999999996,40136182001,4,True,False,-112.13888899999999,33.6510282,Miscellaneous Durable Goods Merchant Wholesalers
123,sg:cc1c53154b1b4f62964e49ba0fcad132,-112.10260600000001,33.509143,40136182001,6,True,True,-112.13888899999999,33.6510282,"Accounting, Tax Preparation, Bookkeeping, and Payroll Services"
124,sg:acaf13c621a84bc7b098d8d98d110a66,-112.128024,33.526737,40136182001,4,True,False,-112.13888899999999,33.6510282,Services to Buildings and Dwellings
125,sg:29226f0e54ae46419ce835f37a10e9cf,-112.13188500000001,33.581315000000004,40136182001,7,True,True,-112.13888899999999,33.6510282,Restaurants and Other Eating Places
126,sg:68ca99cf7262461e9eccd5d1e46b6d22,-112.13273500000001,33.568062,40131055032,4,True,False,-112.1059173,33.555310600000006,"Museums, Historical Sites, and Similar Institutions"
127,sg:af8335a28b28428782a98400a36f36dd,-112.097952,33.566575,40131055032,7,True,True,-112.1059173,33.555310600000006,"General Merchandise Stores, including Warehouse Clubs and Supercenters"
128,sg:85edba8699b84c6a9dbe193525799ab8,-112.06821000000001,33.567996,40131055032,4,True,False,-112.1059173,33.555310600000006,Used Merchandise Stores
129,sg:3da94752349140ae862b86d39fa0d6a1,-112.084558,33.487215,40131055032,5,True,True,-112.1059173,33.555310600000006,Other Amusement and Recreation Industries
130,sg:ad4c1d7f309246269387e1990cf5c4ff,-112.124651,33.581338,40131055032,4,True,False,-112.1059173,33.555310600000006,Health and Personal Care Stores
131,sg:ea79aabc6f5d42a5ad99fd4e7fbb6a0c,-112.103002,33.553706,40131055032,10,True,True,-112.1059173,33.555310600000006,"Automotive Parts, Accessories, and Tire Stores"
132,sg:7c02f2902f9c4b9ab18757340f6888dd,-112.134804,33.478722999999995,40131055032,4,True,False,-112.1059173,33.555310600000006,Motion Picture and Video Industries
133,sg:a17853c7be4145de9cf6f506efd2ec19,-112.03100500000001,33.424445,40131055032,4,True,False,-112.1059173,33.555310600000006,Printing and Related Support Activities
134,sg:c52759057d224a0ca75d2cbf74024dfb,-112.09888899999999,33.524399,40131055032,4,True,False,-112.1059173,33.555310600000006,Restaurants and Other Eating Places
135,sg:e0c18f1321324c119abf0d0ffaabe5f8,-112.111746,33.541069,40131055032,4,True,False,-112.1059173,33.555310600000006,Elementary and Secondary Schools
136,sg:1070985925924cba98d888b06b7e5742,-111.999569,33.673609,40131055032,4,True,False,-112.1059173,33.555310600000006,Other Amusement and Recreation Industries
137,sg:f0849026bfe4484a9ef925a448589431,-112.106302,33.554421999999995,40131055032,11,True,True,-112.1059173,33.555310600000006,Other Amusement and Recreation Industries
138,sg:7265b836ba1141b4a14e885e37d6a727,-112.068304,33.475281,40131062001,4,True,False,-112.07816940000001,33.5455962,Elementary and Secondary Schools
139,sg:57464a22489e4db685900ef779ccea02,-112.030735,33.480693,40131062001,5,True,True,-112.07816940000001,33.5455962,Restaurants and Other Eating Places
140,sg:eeb4e80f542047958e6a515097e2310f,-112.07986299999999,33.465478000000004,40131062001,4,True,False,-112.07816940000001,33.5455962,Other Miscellaneous Store Retailers
141,sg:35c3f37bde374ceaa3bb9418bcd4653e,-112.12106000000001,33.490582,40131062001,4,True,False,-112.07816940000001,33.5455962,Automotive Repair and Maintenance
142,sg:9a46b0e725484ee2a4c752ecf2daf683,-111.98616899999999,33.510709000000006,40131062001,5,True,True,-112.07816940000001,33.5455962,Restaurants and Other Eating Places
143,sg:2f37e40534ed4017be1266ac86d6f390,-111.98749299999999,33.624369,40131062001,4,True,False,-112.07816940000001,33.5455962,Other Amusement and Recreation Industries
144,sg:95dffdb44eb740cfaedc1eb52060426b,-112.071505,33.504779,40131062001,18,True,True,-112.07816940000001,33.5455962,Elementary and Secondary Schools
145,sg:4eba54145afc4281b73855262b02ce63,-112.06736299999999,33.467940999999996,40131062001,5,True,True,-112.07816940000001,33.5455962,Child Day Care Services
146,sg:54d5c49925bd4efcbffa98bb6edc30d8,-112.071545,33.506003,40131062001,20,True,True,-112.07816940000001,33.5455962,Elementary and Secondary Schools
147,sg:c51a533f44fa4144ac3047307388c424,-112.07758600000001,33.544063,40131062001,4,True,False,-112.07816940000001,33.5455962,"Sporting Goods, Hobby, and Musical Instrument Stores"
148,sg:70a1a2c6305f4629bac5f323dcb7d447,-111.983443,33.641464,40131062001,4,True,False,-112.07816940000001,33.5455962,Offices of Physicians
149,sg:aa26981f5f95403987c67c3eef58649a,-112.06902099999999,33.522323,40131062001,9,True,True,-112.07816940000001,33.5455962,Offices of Dentists
150,sg:f6d78f003117458e8c059e1fbab44519,-112.074556,33.506427,40131062001,6,True,True,-112.07816940000001,33.5455962,Clothing Stores
151,sg:7a7a4a2fc7644c3084cca921b50913c3,-112.113197,33.572517,40131062001,4,True,False,-112.07816940000001,33.5455962,Offices of Physicians
152,sg:22171905f90443db8cb3c37ef02da299,-112.03773999999999,33.507073,40131062001,4,True,False,-112.07816940000001,33.5455962,Grocery Stores
153,sg:ea2e4a8d1a3446259c16ae6543a3de46,-112.02851000000001,33.395021,40131062001,5,True,True,-112.07816940000001,33.5455962,Child Day Care Services
154,sg:c5bafe32830f4f92b616b81ffbb4faa7,-112.008955,33.509621,40131062001,4,True,False,-112.07816940000001,33.5455962,Offices of Real Estate Agents and Brokers
155,sg:ae5f365095b04dea987311c3358f4bb0,-112.07333600000001,33.505897999999995,40131062001,15,True,True,-112.07816940000001,33.5455962,Book Stores and News Dealers
156,sg:975bfa9323a5401bbe0cdd674f5f9e42,-112.064454,33.495118,40131062001,4,True,False,-112.07816940000001,33.5455962,Gasoline Stations
157,sg:735972da6e5840798317d5922e2fd5b3,-111.97334099999999,33.480344,40131111002,11,True,True,-111.9737889,33.481888399999995,Florists
158,sg:8fdb03c12ce542a5a06cf81418c7a5e0,-111.92983400000001,33.651934000000004,40131111002,4,True,False,-111.9737889,33.481888399999995,Religious Organizations
159,sg:558f860bef404456bd8c5b85d87bcfce,-111.973224,33.480289,40131111002,11,True,True,-111.9737889,33.481888399999995,Florists
160,sg:db70f75ca60848deb5d9685f55c12fd9,-112.00764199999999,33.420058000000004,40131111002,4,True,False,-111.9737889,33.481888399999995,Building Material and Supplies Dealers
161,sg:801f09392e4d4b448927045b8f1c8144,-111.982929,33.479686,40131111002,4,True,False,-111.9737889,33.481888399999995,Restaurants and Other Eating Places
162,sg:e467b63c37dd4136a01e5fb19e7cc203,-111.971051,33.480654,40131111002,7,True,True,-111.9737889,33.481888399999995,Offices of Other Health Practitioners
163,sg:97e2a121709e4abaa73f43b314e50195,-112.12216399999998,33.493869000000004,40131111002,4,True,False,-111.9737889,33.481888399999995,Clothing Stores
164,sg:7a9f0ba4844a44ac9708d41e3d610ec9,-111.989507,33.599928999999996,40131032163,6,False,True,-111.97460890000002,33.631721,Book Stores and News Dealers
165,sg:bcc90c4649a444879abc07df659d313e,-111.97849199999999,33.626687,40131032163,7,False,True,-111.97460890000002,33.631721,Health and Personal Care Stores
166,sg:879ba419bc2e492f9f3073a73a6ad5e5,-112.025396,33.654344,40130719132,4,False,False,-112.2435262,33.58367570000001,Medical and Diagnostic Laboratories
167,sg:eea61b1e2b9e405fafff3209c30f6959,-112.150899,33.564707,40130719132,4,False,False,-112.2435262,33.58367570000001,Child Day Care Services
168,sg:144d766ba2f042e8afbb172badf17be5,-111.975544,33.312922,40130719132,7,False,True,-112.2435262,33.58367570000001,Other Amusement and Recreation Industries
169,sg:d890b27f2dfb4832b095baa980c39a33,-112.07415900000001,33.511041,40130719132,4,False,False,-112.2435262,33.58367570000001,Health and Personal Care Stores
170,sg:a30ea92582fd4bc99bcfe25996bb4d42,-112.11003899999999,33.52482,40131042041,10,False,True,-112.15337659999999,33.588685600000005,Lessors of Real Estate
171,sg:7f3174136d724930a28d28e614ed2265,-112.134576,33.562002,40131042041,4,False,False,-112.15337659999999,33.588685600000005,Offices of Other Health Practitioners
172,sg:04c34a3c261941be8dcbfdbcf384dc2f,-112.135218,33.609286,40131042041,4,False,False,-112.15337659999999,33.588685600000005,Restaurants and Other Eating Places
173,sg:3137ba1cc1fd45c082c5fee4256291b9,-111.98746299999999,33.495825,40131042041,8,False,True,-112.15337659999999,33.588685600000005,Health and Personal Care Stores
174,sg:a9e6a03f2a1e428d81f5e0f7aadfc64b,-112.16494499999999,33.804728000000004,40136107004,6,False,True,-112.02204950000001,33.864218900000004,"Sporting Goods, Hobby, and Musical Instrument Stores"
175,sg:a0d7da70767b436d82181a547c7f9bb2,-112.12143999999999,33.579932,40136107004,5,False,True,-112.02204950000001,33.864218900000004,Restaurants and Other Eating Places
176,sg:a8514ed70e0a41e9b37b79e0b0ab7327,-112.080906,33.683087,40136107004,4,False,False,-112.02204950000001,33.864218900000004,"Agencies, Brokerages, and Other Insurance Related Activities"
177,sg:425d247dd33e4e3e83e6444e8493d603,-112.06759699999999,33.798697,40136107004,4,False,False,-112.02204950000001,33.864218900000004,Grocery Stores
178,sg:9bd6fefc4f40497db00a6f23009e0b1e,-112.11130800000001,33.719795,40136107004,6,False,True,-112.02204950000001,33.864218900000004,Restaurants and Other Eating Places
179,sg:ae2bfbee16dc44e4ac452baa89b0f31c,-112.11883700000001,33.581346999999994,40131072011,10,True,True,-112.1284038,33.5128249,Restaurants and Other Eating Places
180,sg:90239ed6f0e84ceab743ec30fce77bca,-112.12986299999999,33.513171,40131072011,15,True,True,-112.1284038,33.5128249,Restaurants and Other Eating Places
181,sg:22e0f1d844ad49b186934197c23f8661,-112.071773,33.510601,40131072011,5,True,True,-112.1284038,33.5128249,Restaurants and Other Eating Places
182,sg:5165c9e2eb1f42c78d400ea23c0268ce,-112.091631,33.452873,40131072011,6,True,True,-112.1284038,33.5128249,Bakeries and Tortilla Manufacturing
183,sg:9186af9c30424c638f8a1bd0759d6778,-112.03708700000001,33.508137,40131072011,6,True,True,-112.1284038,33.5128249,Restaurants and Other Eating Places
184,sg:097ce48d513941ce8e7a400c29e1fe39,-112.130243,33.513175,40131072011,46,True,True,-112.1284038,33.5128249,Restaurants and Other Eating Places
185,sg:34b0c0df18044fa48b69d147122fa283,-112.187793,33.495779,40131072011,8,True,True,-112.1284038,33.5128249,Restaurants and Other Eating Places
186,sg:12c6cf49252d41fd8a45c3e580f61cb7,-112.02426000000001,33.511164,40131072011,5,True,True,-112.1284038,33.5128249,Traveler Accommodation
187,sg:e1f8c140b53f4b068ba0e7241f5327ef,-112.113652,33.512384000000004,40131072011,32,True,True,-112.1284038,33.5128249,Other Amusement and Recreation Industries
188,sg:069e083b300e4308ac14ef303bbd9346,-112.093744,33.521618,40131072011,115,True,True,-112.1284038,33.5128249,
189,sg:1facff99155e4d0d95ce27d62e3f1046,-112.07146100000001,33.521926,40131072011,21,True,True,-112.1284038,33.5128249,Other Amusement and Recreation Industries
190,sg:8ad77198586148d28dd20fa6961cc02e,-112.130108,33.510404,40131072011,95,True,True,-112.1284038,33.5128249,Restaurants and Other Eating Places
191,sg:16673fb6003c468b88545d7efbee3dfa,-112.07156100000002,33.527871000000005,40131072011,4,True,False,-112.1284038,33.5128249,Religious Organizations
192,sg:6b01e3bb313b4fbda68e0298575b1b1e,-112.12993600000001,33.514045,40131072011,1060,True,True,-112.1284038,33.5128249,"Colleges, Universities, and Professional Schools"
193,sg:bf894256f74247f4a2a638b8f1394c04,-112.134607,33.523571000000004,40131072011,20,True,True,-112.1284038,33.5128249,Restaurants and Other Eating Places
194,sg:debcf1ec84c34d93a27a0be5560fa2b3,-112.039468,33.506059,40131072011,7,True,True,-112.1284038,33.5128249,Gasoline Stations
195,sg:507800254dd84460927b671740981d01,-112.13110800000001,33.524456,40131072011,21,True,True,-112.1284038,33.5128249,Restaurants and Other Eating Places
196,sg:af3b6d037d8b420d9be8581f778bfd62,-112.12993,33.513439,40131072011,321,True,True,-112.1284038,33.5128249,Restaurants and Other Eating Places
197,sg:ee3879b465814121b8e37b65ab7ce1bd,-112.071289,33.522028999999996,40131072011,21,True,True,-112.1284038,33.5128249,Elementary and Secondary Schools
198,sg:1211b8a1348743478e483b3f58dbe1c4,-112.117302,33.511616,40131072011,4,True,False,-112.1284038,33.5128249,Automobile Dealers
199,sg:7934fcf99d46459f97c3e917cf9a9672,-112.06551699999999,33.52336,40131072011,12,True,True,-112.1284038,33.5128249,Restaurants and Other Eating Places
200,sg:091d1dda42b645aeb06e65bcc9941343,-112.13248,33.510721999999994,40131072011,14,True,True,-112.1284038,33.5128249,Grocery Stores
201,sg:9761da8b8a6b43d59d50471311257284,-112.039425,33.507201,40131072011,26,True,True,-112.1284038,33.5128249,Restaurants and Other Eating Places
202,sg:42c5284822654b5c98a92a0e20cc908e,-112.093998,33.5227,40131072011,18,True,True,-112.1284038,33.5128249,Personal Care Services
203,sg:29a79eb78c714168bc86468f9096860d,-112.132148,33.524512,40131072011,4,True,False,-112.1284038,33.5128249,Restaurants and Other Eating Places
204,sg:3909e804c8d645ae9c61c84d240d3690,-112.072548,33.510509000000006,40131072011,46,True,True,-112.1284038,33.5128249,Lessors of Real Estate
205,sg:48b9b47355d840bc8a355920656dca6f,-112.056655,33.540652,40131072011,7,True,True,-112.1284038,33.5128249,Restaurants and Other Eating Places
206,sg:64071c1068bf48e683def2b60d3fcb04,-112.109525,33.843475,40131072011,4,True,False,-112.1284038,33.5128249,"Other Professional, Scientific, and Technical Services"
207,sg:de62fef19b6f49b087a91fde21352366,-112.128925,33.510144,40131072011,625,True,True,-112.1284038,33.5128249,Spectator Sports
208,sg:762f825c213d4e739963fd449f83810b,-112.094227,33.523559000000006,40131072011,16,True,True,-112.1284038,33.5128249,Restaurants and Other Eating Places
209,sg:057165544f71435b96570e0b6fb10c1d,-112.13071399999998,33.513533,40131072011,228,True,True,-112.1284038,33.5128249,Restaurants and Other Eating Places
210,sg:0511460dbc114a9c84c97600b5bc23e2,-112.094489,33.521164,40131072011,24,True,True,-112.1284038,33.5128249,Motion Picture and Video Industries
211,sg:8f937ee8c4f54ab5aae72c307705159e,-112.13041399999999,33.524488,40131072011,7,True,True,-112.1284038,33.5128249,Restaurants and Other Eating Places
212,sg:59d3ae4047cc4da3b43b0994d82de48f,-112.095409,33.522166999999996,40131072011,212,True,True,-112.1284038,33.5128249,Lessors of Real Estate
213,sg:29d6364e2fc4476b9b5b0c2c8af95bf0,-112.10984099999999,33.523728999999996,40131072011,6,True,True,-112.1284038,33.5128249,Gasoline Stations
214,sg:47c29765744e4727a5427a0ed991e3fd,-112.122524,33.513482,40131072011,9,True,True,-112.1284038,33.5128249,Continuing Care Retirement Communities and Assisted Living Facilities for the Elderly
215,sg:63a2823d49e648f49a144caf6521944d,-112.057025,33.537879,40131072011,6,True,True,-112.1284038,33.5128249,Restaurants and Other Eating Places
216,sg:d8873ece3c1e46c39212a0c3393091a1,-112.119859,33.582383,40131072011,26,True,True,-112.1284038,33.5128249,Restaurants and Other Eating Places
217,sg:558bfaa452324295b1bc42f8efab5513,-112.13113200000001,33.524619,40131072011,4,True,False,-112.1284038,33.5128249,Restaurants and Other Eating Places
218,sg:9d4158bb1c6c4fb7bbf102f37485b5fd,-112.071868,33.509609000000005,40131072011,11,True,True,-112.1284038,33.5128249,Restaurants and Other Eating Places
219,sg:4491e4df742042c196eb3126214e85b0,-112.027929,33.510832,40131072011,16,True,True,-112.1284038,33.5128249,Lessors of Real Estate
220,sg:dd8861a44fd4427582ba429d3e575f38,-112.072204,33.510566,40131072011,10,True,True,-112.1284038,33.5128249,Restaurants and Other Eating Places
221,sg:fd5716e13d25474ba4fbe906ddfd1b10,-112.13245900000001,33.511051,40131072011,167,True,True,-112.1284038,33.5128249,Restaurants and Other Eating Places
222,sg:3d9a88f06c1d47cabd813ac9ff79dcde,-112.07419099999998,33.506921999999996,40131072011,5,True,True,-112.1284038,33.5128249,Restaurants and Other Eating Places
223,sg:fd3e0bf68dc94defb233d39a3adb9a9b,-112.07399699999999,33.506213,40131072011,4,True,False,-112.1284038,33.5128249,"Beer, Wine, and Liquor Stores"
224,sg:40454f7627ab45c9828133393bfebb61,-112.129976,33.513279,40131072011,758,True,True,-112.1284038,33.5128249,"Museums, Historical Sites, and Similar Institutions"
225,sg:3c63d6e457f4460081d75ff5c2171ed6,-112.015302,33.626007,40131072011,4,True,False,-112.1284038,33.5128249,Restaurants and Other Eating Places
226,sg:53a50a5d514a48f18ac5fe46d6dc372b,-112.11162900000001,33.585944,40131072011,7,True,True,-112.1284038,33.5128249,Other Amusement and Recreation Industries
227,sg:04dc73228b664a87a3961018c14055b6,-112.065701,33.488095,40131072011,6,True,True,-112.1284038,33.5128249,Used Merchandise Stores
228,sg:3233fabd8c9b42a4a84dee738bdc4631,-112.136402,33.509214,40131072011,6,True,True,-112.1284038,33.5128249,Restaurants and Other Eating Places
229,sg:df9dda7154ee4a549b7459fc9e30bbdc,-112.11554199999999,33.510681,40131072011,22,True,True,-112.1284038,33.5128249,Offices of Other Health Practitioners
230,sg:756d802ed9f640dea8dbcbfd184ca8fd,-112.07011899999999,33.477292999999996,40131072011,7,True,True,-112.1284038,33.5128249,Medical and Diagnostic Laboratories
231,sg:12e514d7274b434cb58a8dd35d10b8ca,-112.037742,33.506966,40131072011,12,True,True,-112.1284038,33.5128249,Other Miscellaneous Store Retailers
232,sg:154b4be654e54049ac205e2142637c18,-112.132147,33.52577,40131072011,10,True,True,-112.1284038,33.5128249,Restaurants and Other Eating Places
233,sg:e20c89e7e5b44621931fd33622b152ca,-112.130697,33.513338,40131072011,347,True,True,-112.1284038,33.5128249,Restaurants and Other Eating Places
234,sg:78874e24b2374aaa823c6db9a675be85,-112.073227,33.510571,40131072011,5,True,True,-112.1284038,33.5128249,Clothing Stores
235,sg:be7c848a7eb946f2a6560decdc00bb48,-112.03664599999999,33.532773,40131072011,7,True,True,-112.1284038,33.5128249,"Museums, Historical Sites, and Similar Institutions"
236,sg:030256ff9f7d40f485d35e735d36553e,-112.108112,33.506947,40131072011,5,True,True,-112.1284038,33.5128249,Elementary and Secondary Schools
237,sg:e9f88a881e744c7ea778badecc5cf45f,-112.097928,33.52232,40131072011,27,True,True,-112.1284038,33.5128249,"General Merchandise Stores, including Warehouse Clubs and Supercenters"
238,sg:a611c13307384e798554a15e0a094e5e,-112.130252,33.513265999999994,40131072011,111,True,True,-112.1284038,33.5128249,Restaurants and Other Eating Places
239,sg:ff7c2289d35f47aea7e60698bf493a83,-112.13384599999999,33.509726,40131072011,10,True,True,-112.1284038,33.5128249,"Museums, Historical Sites, and Similar Institutions"
240,sg:623c70d605bf42898b5c7aef4b6e1b83,-112.124982,33.509786,40131072011,43,True,True,-112.1284038,33.5128249,Automotive Equipment Rental and Leasing
241,sg:e306ab7910bb459ba763afbc54bd3574,-112.13039199999999,33.525449,40131072011,8,True,True,-112.1284038,33.5128249,Restaurants and Other Eating Places
242,sg:c7871b2eee1c425fba0223fd0eb2b64d,-111.99916699999999,33.478581,40131072011,9,True,True,-112.1284038,33.5128249,Other Amusement and Recreation Industries
243,sg:c23dd94a826e48d592606a52aa5b5418,-112.056005,33.538032,40131072011,39,True,True,-112.1284038,33.5128249,Restaurants and Other Eating Places
244,sg:4c41c3258ede43669af87f4dea48fcd7,-112.131114,33.524675,40131072011,8,True,True,-112.1284038,33.5128249,Restaurants and Other Eating Places
245,sg:65df0c114c2443d49249301018203687,-112.11423500000001,33.509087,40131072011,19,True,True,-112.1284038,33.5128249,Gasoline Stations
246,sg:dbf846bd033148acba6588b23403b0f5,-112.11636899999999,33.509834000000005,40131072011,24,True,True,-112.1284038,33.5128249,Grocery Stores
247,sg:695e515509384909837c0a0a990f07fc,-112.122322,33.580513,40131072011,6,True,True,-112.1284038,33.5128249,Restaurants and Other Eating Places
248,sg:7757d2df49714ff6958755cb763b9d95,-112.038427,33.509004,40131072011,9,True,True,-112.1284038,33.5128249,"Sporting Goods, Hobby, and Musical Instrument Stores"
249,sg:3a72a37edf2d4378bdd2a75cbe659bd7,-112.12638500000001,33.510558,40131072011,131,True,True,-112.1284038,33.5128249,Religious Organizations
250,sg:642dfba9d2dd43859b5b027efa6a5585,-112.089875,33.570303,40131072011,6,True,True,-112.1284038,33.5128249,"Other Professional, Scientific, and Technical Services"
251,sg:3498184296b34368afab29ff15bcccc7,-112.120281,33.666378,40131072011,10,True,True,-112.1284038,33.5128249,Health and Personal Care Stores
252,sg:11f03bd685ab4553ac21b3dcb268bed1,-112.007962,33.435601,40131072011,33,True,True,-112.1284038,33.5128249,Support Activities for Air Transportation
253,sg:4aea11df122f4df8b128ee6edff8d3ea,-112.118098,33.58064,40131072011,13,True,True,-112.1284038,33.5128249,Restaurants and Other Eating Places
254,sg:59c030ec64d34776a5d9ab29e1d65de5,-112.08435,33.510678000000006,40131072011,19,True,True,-112.1284038,33.5128249,Lessors of Real Estate
255,sg:67eab0c2a77a402f8c8c6edcace93a77,-112.074583,33.538856,40131072011,9,True,True,-112.1284038,33.5128249,Elementary and Secondary Schools
256,sg:1f24f8cc13e646968145cccd083cb41e,-112.07406100000001,33.500453,40131072011,9,True,True,-112.1284038,33.5128249,Restaurants and Other Eating Places
257,sg:b1a4b973c8794c099cfebaa7d00e2b40,-112.067004,33.508998,40131072011,18,True,True,-112.1284038,33.5128249,Restaurants and Other Eating Places
258,sg:185a7220341b47e5b4435e15bb2cdf0f,-112.05548999999999,33.451933000000004,40131072011,4,True,False,-112.1284038,33.5128249,"Office Supplies, Stationery, and Gift Stores"
259,sg:bab647ae24c344df850286c616709e32,-112.101823,33.553443,40131072011,6,True,True,-112.1284038,33.5128249,Restaurants and Other Eating Places
260,sg:88961383c0264744b7b5fbf5ef517088,-112.07418899999999,33.513092,40131072011,7,True,True,-112.1284038,33.5128249,Restaurants and Other Eating Places
261,sg:4ad668810484473b900389adc6153f2f,-112.128956,33.508363,40131072011,4,True,False,-112.1284038,33.5128249,Building Equipment Contractors
262,sg:1bf1420a662d46f8b3f0f8a23499f4e0,-112.09531899999999,33.714267,40131072011,5,True,True,-112.1284038,33.5128249,"Sporting Goods, Hobby, and Musical Instrument Stores"
263,sg:1bdceb6dcdd64d928382b67a9bfab2d0,-112.013975,33.435681,40131072011,50,True,True,-112.1284038,33.5128249,Gasoline Stations
264,sg:490561c40e0040209314ef39e4ed8fc1,-112.083727,33.493922999999995,40131072011,5,True,True,-112.1284038,33.5128249,Restaurants and Other Eating Places
265,sg:849f1097ba44488985a22eb4c5f5f404,-112.06536299999999,33.518428,40131072011,5,True,True,-112.1284038,33.5128249,Other Amusement and Recreation Industries
266,sg:83a807c5b5b943f4903a80e14b516194,-112.114107,33.511868,40131072011,115,True,True,-112.1284038,33.5128249,Traveler Accommodation
267,sg:4653d0a53384433daf2383dd6f37a92d,-112.12172,33.509703,40131072011,21,True,True,-112.1284038,33.5128249,Offices of Physicians
268,sg:1b591a565c724125a794b68605169b9f,-112.134552,33.509146,40131072011,7,True,True,-112.1284038,33.5128249,Gasoline Stations
269,sg:d09bacdc0f664141b9fa0cc8010e7ba1,-112.06538700000002,33.470346,40131072011,4,True,False,-112.1284038,33.5128249,Bakeries and Tortilla Manufacturing
270,sg:b5ed907a19a84c4bb8ea8cedf8e40cb4,-112.12396000000001,33.579848,40131072011,5,True,True,-112.1284038,33.5128249,Restaurants and Other Eating Places
271,sg:2c15d3ab938c4cec8bb367c40ab1b648,-112.04158600000001,33.508112,40131072011,57,True,True,-112.1284038,33.5128249,Lessors of Real Estate
272,sg:a4765b2c73bf442cb6e1bce05667e9bc,-112.09191399999999,33.509127,40131072011,5,True,True,-112.1284038,33.5128249,Automotive Repair and Maintenance
273,sg:466b2539176a407dabcb122e14c2f1bd,-112.12778700000001,33.494631,40131072011,8,True,True,-112.1284038,33.5128249,Restaurants and Other Eating Places
274,sg:ca71a0f55def416ebcaf6b45ede45658,-112.13009199999999,33.510426,40131072011,423,True,True,-112.1284038,33.5128249,Restaurants and Other Eating Places
275,sg:5de13c59706e4705aa86cc836e88a3c8,-112.037319,33.506729,40131072011,40,True,True,-112.1284038,33.5128249,Lessors of Real Estate
276,sg:4aae156bd488460ab7f2d28b1c81cdac,-112.095276,33.508347,40131072011,9,True,True,-112.1284038,33.5128249,Other Amusement and Recreation Industries
277,sg:065f9755d2b54243aa3812d23336f051,-112.133978,33.523736,40131072011,9,True,True,-112.1284038,33.5128249,Grocery Stores
278,sg:b81e191613234269a7fff79b4e1fb1d5,-112.084275,33.509902000000004,40131072011,5,True,True,-112.1284038,33.5128249,Restaurants and Other Eating Places
279,sg:23a21f3cd306425f98e992ab5f2a5b76,-112.129979,33.513276,40131072011,27,True,True,-112.1284038,33.5128249,Restaurants and Other Eating Places
280,sg:7758a968a03e49cdb3e56c1dee2e4ce3,-112.074647,33.448969,40131072011,4,True,False,-112.1284038,33.5128249,Building Material and Supplies Dealers
281,sg:cc51e0f71052459498738fb7f1bc172c,-112.098607,33.520193,40131072011,40,True,True,-112.1284038,33.5128249,Restaurants and Other Eating Places
282,sg:09bddda6aecb42f7bc950d72b258b857,-112.12148,33.580652,40131072011,6,True,True,-112.1284038,33.5128249,Book Stores and News Dealers
283,sg:216898004c9841789665c040211c6470,-112.074373,33.462305,40131072011,45,True,True,-112.1284038,33.5128249,"Museums, Historical Sites, and Similar Institutions"
284,sg:5b1777a0237b453c9f779ed7ca95215f,-112.127775,33.512423999999996,40131072011,511,True,True,-112.1284038,33.5128249,Restaurants and Other Eating Places
285,sg:5ea78133dc2d42f0b8c4965b051da2ac,-112.133403,33.511047999999995,40131072011,6,True,True,-112.1284038,33.5128249,Restaurants and Other Eating Places
286,sg:0175f365f5184a5bb6a81295647a2a69,-112.132631,33.526831,40131072011,113,True,True,-112.1284038,33.5128249,"General Merchandise Stores, including Warehouse Clubs and Supercenters"
287,sg:7b57ca7c5490475198352c404a3df319,-112.134841,33.510007,40131072011,12,True,True,-112.1284038,33.5128249,Health and Personal Care Stores
288,sg:78d3ec7bd7a848349b28c368b2c9985c,-112.073394,33.513505,40131072011,7,True,True,-112.1284038,33.5128249,Restaurants and Other Eating Places
289,sg:02d69962fd38401f97a6b3b9208f439a,-112.038343,33.523419,40131072011,4,True,False,-112.1284038,33.5128249,Religious Organizations
290,sg:c00cbef39e774d2fa4ac825197e10838,-112.115876,33.560939000000005,40131072011,5,True,True,-112.1284038,33.5128249,Restaurants and Other Eating Places
291,sg:6e34b6cf46c74913b876ec2f5072945f,-112.121054,33.509873999999996,40131072011,38,True,True,-112.1284038,33.5128249,"Sporting Goods, Hobby, and Musical Instrument Stores"
292,sg:e27f73a90c784cdc86043f26076992a4,-112.12879099999999,33.512423,40131072011,545,True,True,-112.1284038,33.5128249,Restaurants and Other Eating Places
293,sg:f65a985808f54bbc9eba47a8be798f89,-112.10267900000001,33.509128999999994,40131072011,5,True,True,-112.1284038,33.5128249,Offices of Other Health Practitioners
294,sg:4bcd1e3d56b74badbec8776b8fd8b8af,-112.046465,33.507511,40131072011,16,True,True,-112.1284038,33.5128249,Department Stores
295,sg:72ce45437d394778aab0218a747723ad,-112.06021799999999,33.509493,40131072011,7,True,True,-112.1284038,33.5128249,Restaurants and Other Eating Places
296,sg:645312e8f4844aaebe4ca578f85fa270,-112.06531899999999,33.519381,40131072011,7,True,True,-112.1284038,33.5128249,Restaurants and Other Eating Places
297,sg:0df94622ca5d4b33be6733ad34b550f3,-112.13014299999999,33.513355,40131072011,69,True,True,-112.1284038,33.5128249,Restaurants and Other Eating Places
298,sg:aa49d0d9505249f7b0069d3bcd4613ba,-112.02653799999999,33.510934000000006,40131072011,6,True,True,-112.1284038,33.5128249,Shoe Stores
299,sg:65fc9f65be024e3d9d69fcea57997235,-112.11981599999999,33.583003000000005,40131072011,32,True,True,-112.1284038,33.5128249,Lessors of Real Estate
300,sg:8396df359b0c401b9124ef294b85f23f,-112.131153,33.526389,40131072011,4,True,False,-112.1284038,33.5128249,Health and Personal Care Stores
301,sg:5171ae19726d4d24bebffa84852a7652,-112.048048,33.513471,40131072011,5,True,True,-112.1284038,33.5128249,Restaurants and Other Eating Places
302,sg:88cbc1cde9f342c78f11f13814a92494,-112.12244799999999,33.512778000000004,40131072011,347,True,True,-112.1284038,33.5128249,Restaurants and Other Eating Places
303,sg:b9100ab1662b43e2b7cd1715ae09b09d,-112.134832,33.639187,40130715112,4,False,False,-112.20670279999999,33.6287304,Depository Credit Intermediation
304,sg:0c34ed37861944d58b7919054987cbeb,-112.05416100000001,33.44034,40130715112,4,False,False,-112.20670279999999,33.6287304,Building Material and Supplies Dealers
305,sg:bd127f87e53a496e9a162b505eb355ec,-112.20322,33.423564,40131125133,8,True,True,-112.1996521,33.415531699999995,Health and Personal Care Stores
306,sg:d168176aea334bc28cba3af886c7df81,-112.03635700000001,33.505038,40131125133,6,True,True,-112.1996521,33.415531699999995,Offices of Dentists
307,sg:1313cf62c3474302a8bc072ee8d7b3d7,-112.17433100000001,33.461057000000004,40131125133,4,True,False,-112.1996521,33.415531699999995,Furniture Stores
308,sg:e3b32643fbdb455bb53ed884ea4a79e2,-112.22130600000001,33.467943,40131125133,10,True,True,-112.1996521,33.415531699999995,Restaurants and Other Eating Places
309,sg:975e39145a13447aa74295eb4b0df96f,-112.15425800000001,33.495345,40131125133,4,True,False,-112.1996521,33.415531699999995,Automotive Repair and Maintenance
310,sg:e78265a932084be292f409ad7f220178,-112.13360700000001,33.448054,40131125133,4,True,False,-112.1996521,33.415531699999995,Automotive Repair and Maintenance
311,sg:98d5c1e0d45540b0b244c38065e3c1b0,-112.16996,33.433706,40131125133,4,True,False,-112.1996521,33.415531699999995,Elementary and Secondary Schools
312,sg:189ae2f37be74cbfac4d085bc3a48b10,-112.224198,33.423497,40131125133,7,True,True,-112.1996521,33.415531699999995,Restaurants and Other Eating Places
313,sg:4eb850552d5c489299c66218972e0246,-112.180152,33.459277,40131125133,4,True,False,-112.1996521,33.415531699999995,Outpatient Care Centers
314,sg:a6e3ef7a6ce64af6aba760260098099f,-112.03263000000001,33.639012,40131125133,4,True,False,-112.1996521,33.415531699999995,Used Merchandise Stores
315,sg:d727f912ff6b4710971f8c1ff2a215f0,-111.99641100000001,33.412211,40131125133,4,True,False,-112.1996521,33.415531699999995,Automotive Repair and Maintenance
316,sg:be1cf56e414943ecb4ee71e939a559ea,-112.078806,33.458892,40130820072,4,False,False,-112.2507465,33.497889199999996,Restaurants and Other Eating Places
317,sg:eaa6944ed2ab45c3a0fdf051dfdefda5,-112.20938500000001,33.468321,40130820072,4,False,False,-112.2507465,33.497889199999996,Services to Buildings and Dwellings
318,sg:341bf7562d8c42d682f0b5ee63aae772,-112.25601999999999,33.495795,40130820072,5,False,True,-112.2507465,33.497889199999996,Personal Care Services
319,sg:869d5cfc3c68424283e57f7dbdff53c9,-112.10248899999999,33.429504,40130820072,4,False,False,-112.2507465,33.497889199999996,Child Day Care Services
320,sg:c1dc4f44542747ff970df573af406191,-112.065126,33.616945,40130610261,6,False,True,-112.4225585,33.6315646,Automotive Repair and Maintenance
321,sg:6af1546642a649fcbb565834a00922ce,-112.008372,33.495463,40130610261,4,False,False,-112.4225585,33.6315646,Offices of Other Health Practitioners
322,sg:66888bad9f19484c92a2dfd5aa0c051b,-112.13448000000001,33.485535999999996,40130610261,4,False,False,-112.4225585,33.6315646,Automobile Dealers
323,sg:00a6353db48847d893d377277c4cb0a6,-111.973803,33.376317,40130610261,8,False,True,-112.4225585,33.6315646,Other Financial Investment Activities
324,sg:05fcff6e8a68417aa054e45b4a010674,-112.07179,33.446,40130610261,6,False,True,-112.4225585,33.6315646,Restaurants and Other Eating Places
325,sg:c322d4315bb34439909f55db1cff78bc,-112.143376,33.624177,40136183002,4,True,False,-112.13876909999999,33.643442900000004,Child Day Care Services
326,sg:bacd32c432ec4370ae679432ff180181,-112.115893,33.651496,40136183002,4,True,False,-112.13876909999999,33.643442900000004,Child Day Care Services
327,sg:fcf3e4057f3040faa70d7c4dfa6f441a,-112.0909,33.49608,40136183002,4,True,False,-112.13876909999999,33.643442900000004,Child Day Care Services
328,sg:693813bdb96f4a46909eeef5ed644558,-111.973336,33.676107,40136183002,4,True,False,-112.13876909999999,33.643442900000004,"Sporting Goods, Hobby, and Musical Instrument Stores"
329,sg:b53297b09f65421eb9ce91b131be7570,-112.12929199999999,33.671049,40136183002,4,True,False,-112.13876909999999,33.643442900000004,"Sporting Goods, Hobby, and Musical Instrument Stores"
330,sg:ff3be0b93020424fa4513865a8c5007b,-112.11011299999998,33.636651,40136183002,4,True,False,-112.13876909999999,33.643442900000004,"Automotive Parts, Accessories, and Tire Stores"
331,sg:a774833800314653ada4065ca7192c86,-112.149904,33.582593,40136183002,4,True,False,-112.13876909999999,33.643442900000004,Wired and Wireless Telecommunications Carriers
332,sg:19fbd259e3004f35af0051e0c5a2416f,-112.120421,33.667609000000006,40136183002,9,True,True,-112.13876909999999,33.643442900000004,Restaurants and Other Eating Places
333,sg:1eabc887bfac4a29a26a166522284d23,-112.11031899999999,33.661369,40136183002,5,True,True,-112.13876909999999,33.643442900000004,Depository Credit Intermediation
334,sg:50fd9a1236134428b5da8ab829ef5a1b,-112.132848,33.64077,40136183002,4,True,False,-112.13876909999999,33.643442900000004,Furniture Stores
335,sg:43d969fdcc96484b8a97f8d19d8643be,-112.01945800000001,33.673912,40136183002,4,True,False,-112.13876909999999,33.643442900000004,Clothing Stores
336,sg:4f34ed3c3db04ec1a20a35275e73d9eb,-112.135772,33.640640000000005,40136183002,10,True,True,-112.13876909999999,33.643442900000004,Lessors of Real Estate
337,sg:5a0b604e6bfd416983b773226eafabae,-112.11308700000001,33.648571999999994,40136183002,4,True,False,-112.13876909999999,33.643442900000004,"Justice, Public Order, and Safety Activities"
338,sg:d05cdcc4e7ce48d7ad3d74ed3e3b2c8f,-111.997759,33.39877,40134201102,6,False,True,-111.62416599999999,33.451204,Building Material and Supplies Dealers
339,sg:e211a0770fbd4e4e99bad925dc30b8d1,-112.071184,33.445735,40134201102,7,False,True,-111.62416599999999,33.451204,RV (Recreational Vehicle) Parks and Recreational Camps
340,sg:049280067e474b38a5ac707b765063ea,-112.03868100000001,33.451229,40134201102,4,False,False,-111.62416599999999,33.451204,"Beer, Wine, and Liquor Stores"
341,sg:fb56b55d2b734f069dc5a37ef963dbd4,-112.02818500000001,33.510511,40134201102,4,False,False,-111.62416599999999,33.451204,Home Furnishings Stores
342,sg:ef4f402268d54519837d78d12439569b,-111.976727,33.600823999999996,40134201102,4,False,False,-111.62416599999999,33.451204,Electronics and Appliance Stores
343,sg:6d9d9d4db34742719e56b43d5a40a7c6,-112.00731299999998,33.443843,40134201102,4,False,False,-111.62416599999999,33.451204,Depository Credit Intermediation
344,sg:fc385b06a67f40919ecd8a22cde8aa96,-111.97346499999999,33.521435,170898522021,4,False,False,-88.35800520000001,41.9180391,"Electric Power Generation, Transmission and Distribution"
345,sg:8397c5fc88e44c0cba1e66bd82e35036,-111.98770900000001,33.457021999999995,170898522021,4,False,False,-88.35800520000001,41.9180391,Traveler Accommodation
346,sg:018aab2607bf4442a05eaa37d78a1972,-112.06683000000001,33.521209999999996,40131075002,8,True,True,-112.07371040000001,33.5201705,Electronics and Appliance Stores
347,sg:8157a70e626f4e1b8d9080cf2dda21a8,-112.067862,33.519441,40131075002,4,True,False,-112.07371040000001,33.5201705,Clothing Stores
348,sg:78ec313f21ce42f49f495d3842770e75,-112.02695200000001,33.50848,40131075002,4,True,False,-112.07371040000001,33.5201705,Offices of Other Health Practitioners
349,sg:ec700fb5a63a446386e8a48629cecde2,-112.07778700000001,33.516909000000005,40131075002,5,True,True,-112.07371040000001,33.5201705,Elementary and Secondary Schools
350,sg:6ef174b655704cdea1fff30e839d1eb5,-112.09432,33.50922,40131075002,4,True,False,-112.07371040000001,33.5201705,Wired and Wireless Telecommunications Carriers
351,sg:578c332882d04cd189027c8bf8a8e655,-112.06504699999999,33.575061,40131075002,7,True,True,-112.07371040000001,33.5201705,Building Material and Supplies Dealers
352,sg:05a40c6e53014edfb92aee4e03a54fce,-112.064628,33.518353000000005,40131075002,8,True,True,-112.07371040000001,33.5201705,Restaurants and Other Eating Places
353,sg:8a841f5f3663446f801622d891144c52,-112.08298899999998,33.538090000000004,40131075002,4,True,False,-112.07371040000001,33.5201705,Offices of Dentists
354,sg:fa4d182f7db84c1786fd55dd113d16e6,-112.071849,33.509698,40131075002,7,True,True,-112.07371040000001,33.5201705,Restaurants and Other Eating Places
355,sg:28896553ec37455d9c9f95ea4f01325e,-112.075043,33.567927000000005,40131075002,5,True,True,-112.07371040000001,33.5201705,"Other Professional, Scientific, and Technical Services"
356,sg:ebeb3d25db0c44078aa729e9a9a5d66f,-112.065385,33.51813,40131075002,4,True,False,-112.07371040000001,33.5201705,Restaurants and Other Eating Places
357,sg:b40b3be69e064bc3ae300f682dbe8b1c,-112.004907,33.495461999999996,40131075002,6,True,True,-112.07371040000001,33.5201705,Other Amusement and Recreation Industries
358,sg:fcb256eaad61401f921cf30f82381ee6,-112.07341799999999,33.513578,40131075002,4,True,False,-112.07371040000001,33.5201705,Furniture Stores
359,sg:df7aaba6560f483eaa67c6f18570fbe0,-112.014351,33.530136,40131075002,4,True,False,-112.07371040000001,33.5201705,Other Amusement and Recreation Industries
360,sg:16074e643598442c94a4213fea4bae18,-112.026785,33.522855,40134203031,5,False,True,-111.76214479999999,33.4556636,Restaurants and Other Eating Places
361,sg:1c2957c9b36048e680ab4c292855b5c2,-112.06719,33.523405,40131063004,8,True,True,-112.06072749999998,33.541884100000004,Elementary and Secondary Schools
362,sg:3bcef088285c46e49d695694b076f29f,-112.06244199999999,33.539414,40131063004,8,True,True,-112.06072749999998,33.541884100000004,Grocery Stores
363,sg:67e881f5b7ed4afe8216245c77d26d4d,-112.062446,33.539359999999995,40131063004,11,True,True,-112.06072749999998,33.541884100000004,Health and Personal Care Stores
364,sg:dd180d4bda0f4c39a4866b99fe703481,-112.06101799999999,33.465439,40131063004,4,True,False,-112.06072749999998,33.541884100000004,Offices of Physicians
365,sg:3f3df596737f40439032e15db12d924b,-112.060189,33.540668,40131063004,4,True,False,-112.06072749999998,33.541884100000004,Services to Buildings and Dwellings
366,sg:e685ed5ae49c454bb8b39e59f647354a,-112.064866,33.545883,40131063004,4,True,False,-112.06072749999998,33.541884100000004,Home Health Care Services
367,sg:213e6193c2ae4854b46b89f339f37e1d,-112.06483300000001,33.540196,40131063004,5,True,True,-112.06072749999998,33.541884100000004,Other Amusement and Recreation Industries
368,sg:2a7af2a3bfbb458ea96938da9a7a51b8,-112.028696,33.510447,40131063004,5,True,True,-112.06072749999998,33.541884100000004,Restaurants and Other Eating Places
369,sg:737a771de4af4cf095b000bd3094f5b5,-112.05715,33.55256,40131063004,6,True,True,-112.06072749999998,33.541884100000004,Restaurants and Other Eating Places
370,sg:cc6e6b1a7ad64fb4b49cb3a5ef9e8270,-112.06007199999999,33.463827,40131063004,4,True,False,-112.06072749999998,33.541884100000004,Offices of Physicians
371,sg:495d1360f1744643b152f7f898f63b6e,-112.048847,33.515941999999995,40131063004,4,True,False,-112.06072749999998,33.541884100000004,Lumber and Other Construction Materials Merchant Wholesalers
372,sg:73831b3fcde84a47aa57ad7ca565b4fb,-112.064866,33.545901,40131063004,4,True,False,-112.06072749999998,33.541884100000004,Continuing Care Retirement Communities and Assisted Living Facilities for the Elderly
373,sg:fe4f297e0d1d40549a0514ff2f4ff7ab,-112.00828999999999,33.582053,40131063004,6,True,True,-112.06072749999998,33.541884100000004,Lessors of Real Estate
374,sg:e7f47e4ca0b94e0ba6a1fb4df003540c,-112.06328,33.538956,40131063004,5,True,True,-112.06072749999998,33.541884100000004,Other Amusement and Recreation Industries
375,sg:be7a822bd0404fbe90c879d3cb365188,-112.04528799999999,33.516778,40131063004,5,True,True,-112.06072749999998,33.541884100000004,Elementary and Secondary Schools
376,sg:0af9bcc8977e48a8930588ea458701e5,-112.064902,33.561716,40131063004,4,True,False,-112.06072749999998,33.541884100000004,Restaurants and Other Eating Places
377,sg:24b70d07b81a4b42a5816f535cfb2973,-112.03029199999999,33.625927000000004,40131033061,4,True,False,-112.02756570000001,33.629811600000004,"Automotive Parts, Accessories, and Tire Stores"
378,sg:fcbb95949b7d423590989cf7c79a8630,-112.02905200000001,33.630838,40131033061,12,True,True,-112.02756570000001,33.629811600000004,Health and Personal Care Stores
379,sg:d2b385f3acac4777a310890070056950,-112.029831,33.626884000000004,40131033061,5,True,True,-112.02756570000001,33.629811600000004,Restaurants and Other Eating Places
380,sg:35c92fd5c01646639de99b3246f6c20e,-112.101475,33.611709999999995,40131033061,7,True,True,-112.02756570000001,33.629811600000004,Other Amusement and Recreation Industries
381,sg:6d9b8ef048a94d04b185c6fd7534f6fd,-112.095523,33.641876,40131033061,4,True,False,-112.02756570000001,33.629811600000004,Building Material and Supplies Dealers
382,sg:0692a88efa3b4a65a5c13c57f0ac2232,-112.02873100000001,33.627790000000005,40131033061,8,True,True,-112.02756570000001,33.629811600000004,Miscellaneous Durable Goods Merchant Wholesalers
383,sg:b3538a3c4d99424faaea0bd5dbaed73a,-112.093303,33.451629,40131033061,4,True,False,-112.02756570000001,33.629811600000004,"General Merchandise Stores, including Warehouse Clubs and Supercenters"
384,sg:e7a5ab3120ef4d6dbd6be39448120e32,-112.019021,33.632321999999995,40131033061,8,True,True,-112.02756570000001,33.629811600000004,Child Day Care Services
385,sg:63a1331ecb07407c9eb2d7268e81396b,-112.02741699999999,33.631885,40131033061,8,True,True,-112.02756570000001,33.629811600000004,Services to Buildings and Dwellings
386,sg:4c671f8e2d0b4f41a35f344247f58736,-112.03224399999999,33.639056,40131033061,8,True,True,-112.02756570000001,33.629811600000004,"General Merchandise Stores, including Warehouse Clubs and Supercenters"
387,sg:737f19b9191d46d08cff0ac2318090fb,-112.024503,33.627854,40131033061,6,True,True,-112.02756570000001,33.629811600000004,Grocery Stores
388,sg:f9e269671d274717a151f0f243823347,-112.13285900000001,33.610367,40131033061,4,True,False,-112.02756570000001,33.629811600000004,Health and Personal Care Stores
389,sg:d20d6903ba584c5da837e933a76248af,-112.03027,33.625394,40131033061,4,True,False,-112.02756570000001,33.629811600000004,"Sporting Goods, Hobby, and Musical Instrument Stores"
390,sg:6c45f265b98c421cbc975578735e01e1,-112.06914499999999,33.567523,40131033061,9,True,True,-112.02756570000001,33.629811600000004,"Automotive Parts, Accessories, and Tire Stores"
391,sg:744093ca871a4cb1a6e52d2f867fce3c,-112.090686,33.480270000000004,40131033061,4,True,False,-112.02756570000001,33.629811600000004,Restaurants and Other Eating Places
392,sg:4670ddc69fb941f5816d83a502fd3a4d,-112.01220900000001,33.628553000000004,40131033061,7,True,True,-112.02756570000001,33.629811600000004,Other Amusement and Recreation Industries
393,sg:6a13cfd00427431996f1a04c2b94c7fd,-112.031314,33.630244,40131033061,5,True,True,-112.02756570000001,33.629811600000004,Other Motor Vehicle Dealers
394,sg:38586fe71041486094cc328e170feff5,-112.014325,33.609648,40131033061,4,True,False,-112.02756570000001,33.629811600000004,Other Ambulatory Health Care Services
395,sg:987fdf8b35244365a7f6f3c5e5cf1d45,-112.09595700000001,33.610687,40131033061,4,True,False,-112.02756570000001,33.629811600000004,Religious Organizations
396,sg:323e633f142649819b36200ec6e54eda,-112.075359,33.44979,40131105022,4,True,False,-112.0694237,33.4838713,
397,sg:8eabb7e8f8ce4ab7a7aec1b6b3169ce1,-112.03073300000001,33.508784000000006,40131105022,4,True,False,-112.0694237,33.4838713,Automobile Dealers
398,sg:e494760181cd4a3aaf93c5ef7cafdd11,-112.065998,33.484136,40131105022,4,True,False,-112.0694237,33.4838713,Depository Credit Intermediation
399,sg:3ece3842ed144da0912f6697776eb131,-112.074294,33.489863,40131105022,4,True,False,-112.0694237,33.4838713,Depository Credit Intermediation
400,sg:3d9d6abbc9564545b726d3705c2d1711,-112.066768,33.484007,40131105022,5,True,True,-112.0694237,33.4838713,Book Stores and News Dealers
401,sg:165704080fc74dcb8fe5fa9db730e7ff,-112.04796200000001,33.531834,40131105022,4,True,False,-112.0694237,33.4838713,Other Amusement and Recreation Industries
402,sg:c9163835681c410082185c843f761d9e,-112.071467,33.480685,40131105022,4,True,False,-112.0694237,33.4838713,Clothing Stores
403,sg:f1b616665132423282463c92b779c577,-112.04959,33.480568,40131105022,7,True,True,-112.0694237,33.4838713,Other Amusement and Recreation Industries
404,sg:4c63d69988a64516bf6392ce00c7dc9d,-112.073194,33.486112,40131105022,14,True,True,-112.0694237,33.4838713,Other Amusement and Recreation Industries
405,sg:076994aef4124fcba839cde4345f8c65,-112.069399,33.487511,40131105022,6,True,True,-112.0694237,33.4838713,"Sporting Goods, Hobby, and Musical Instrument Stores"
406,sg:069716f63d574f63ac864ba277a433e8,-112.06130800000001,33.495095,40131105022,5,True,True,-112.0694237,33.4838713,Restaurants and Other Eating Places
407,sg:24acc8d417d540d195cdbfae3990bbe3,-112.072702,33.481276,40131105022,6,True,True,-112.0694237,33.4838713,Restaurants and Other Eating Places
408,sg:2c520289c9de415d8ed72e84c470d1bb,-112.066235,33.483178,40131105022,4,True,False,-112.0694237,33.4838713,Personal Care Services
409,sg:197589d52ef14e4eaaaef8d151e960f0,-112.10015700000001,33.510243,40131105022,4,True,False,-112.0694237,33.4838713,"Automotive Parts, Accessories, and Tire Stores"
410,sg:0db8a74bda134e61ac27e26794b0f157,-112.06541599999998,33.470908,40131105022,5,True,True,-112.0694237,33.4838713,Restaurants and Other Eating Places
411,sg:52cd82ea03f84757a9d7a4c59a56796b,-112.00739899999999,33.404352,40131105022,6,True,True,-112.0694237,33.4838713,Other Amusement and Recreation Industries
412,sg:370a3317164640988dce373b4f5ef7b8,-112.012322,33.496934,40131123011,4,True,False,-112.15546869999999,33.467535600000005,Offices of Physicians
413,sg:b50b4f8fa5724fb797ca3eb0607ccd4c,-112.15716200000001,33.466376000000004,40131123011,8,True,True,-112.15546869999999,33.467535600000005,Religious Organizations
414,sg:e4e38956c5ee4d1f9cbc64e7275f7874,-112.16853,33.460245,40131123011,4,True,False,-112.15546869999999,33.467535600000005,Restaurants and Other Eating Places
415,sg:2c457b63d3b44314b204ccc548c2cc35,-112.150549,33.466359000000004,40131123011,4,True,False,-112.15546869999999,33.467535600000005,
416,sg:960dec32a56f4fc9a8e2e82bf5bd7f37,-112.16833500000001,33.466302,40131123011,9,True,True,-112.15546869999999,33.467535600000005,Restaurants and Other Eating Places
417,sg:333970dc61434530b939d7a36efe19fe,-112.117269,33.508070000000004,40131123011,5,True,True,-112.15546869999999,33.467535600000005,Specialty Food Stores
418,sg:edbbad68d4bc4008848dc1434aa690f5,-112.15830600000001,33.465459,40131123011,6,True,True,-112.15546869999999,33.467535600000005,Furniture Stores
419,sg:5b9bc2da3c1341d892c877de8c82afef,-112.151303,33.465662,40131123011,6,True,True,-112.15546869999999,33.467535600000005,Grocery Stores
420,sg:1ce219e37e8e4131bd83dedda44ab66a,-112.169606,33.460652,40131123011,4,True,False,-112.15546869999999,33.467535600000005,Restaurants and Other Eating Places
421,sg:3c593f95efbc47138f1c8510f47dfb28,-111.994649,33.448818,40134202144,5,False,True,-111.68883659999999,33.4192904,Other Miscellaneous Store Retailers
422,sg:718b14a1f6274f748905b008cbf9446b,-112.06048700000001,33.564683,40134202144,4,False,False,-111.68883659999999,33.4192904,Religious Organizations
423,sg:4860d9c6ef0340b69a81639bfbf8be8f,-112.104929,33.567609999999995,40131055011,4,True,False,-112.1117057,33.561559700000004,Child Day Care Services
424,sg:736dcf33221143b7b5f630b9b71e314b,-112.13095600000001,33.452054,40131055011,4,True,False,-112.1117057,33.561559700000004,Home Furnishings Stores
425,sg:62ddd90ac1644f3191aa84c6adba6606,-112.116243,33.521646000000004,40131055011,4,True,False,-112.1117057,33.561559700000004,Elementary and Secondary Schools
426,sg:f08d0f68f32a4e298fe3a93d92e01589,-112.115981,33.568689,40131055011,7,True,True,-112.1117057,33.561559700000004,Restaurants and Other Eating Places
427,sg:05cdd44f4e0345c7831ebd858fbe822a,-112.039929,33.557457,40131055011,4,True,False,-112.1117057,33.561559700000004,Personal Care Services
428,sg:18a5340f05e64c499a1e3fdc7f30cd14,-112.115224,33.562656,40131055011,8,True,True,-112.1117057,33.561559700000004,Religious Organizations
429,sg:c584ac6dab3743f1ab04f8d5eb0e9c5a,-112.11228,33.563038,40131055011,4,True,False,-112.1117057,33.561559700000004,"Office Supplies, Stationery, and Gift Stores"
430,sg:2aa8572226e5457ea65b3582e6232e5f,-112.100183,33.500147999999996,40131055011,4,True,False,-112.1117057,33.561559700000004,Offices of Physicians
431,sg:13f277a62b064eeeb68fae0fe695dbe0,-112.116122,33.565106,40131055011,4,True,False,-112.1117057,33.561559700000004,Automotive Repair and Maintenance
432,sg:31bf39b25dcd4c7c96e6f8912504dc97,-112.11511200000001,33.562634,40131055011,6,True,True,-112.1117057,33.561559700000004,Other Personal Services
433,sg:5e49ed6af0ac4b018016e9186d67245f,-112.11480900000001,33.562082000000004,40131055011,7,True,True,-112.1117057,33.561559700000004,Electronics and Appliance Stores
434,sg:2ca7530c4bf14355a025856733ece778,-112.123801,33.608940000000004,40131055011,7,True,True,-112.1117057,33.561559700000004,Electronics and Appliance Stores
435,sg:50fe9e3a996e47be889a1dd6c82cffaf,-112.107549,33.582741,40131055011,4,True,False,-112.1117057,33.561559700000004,"Agencies, Brokerages, and Other Insurance Related Activities"
436,sg:a9c5c45e6572403f9c2ac441147fcbb5,-112.11415600000001,33.561035,40131055011,4,True,False,-112.1117057,33.561559700000004,Religious Organizations
437,sg:5a0e395ccfe642b39314866133e6c5ec,-112.102151,33.407525,40131125134,4,True,False,-112.1908747,33.4153902,Automotive Repair and Maintenance
438,sg:c4935eb59993448cb0c51de311a519e4,-112.18692800000001,33.413694,40131125134,7,True,True,-112.1908747,33.4153902,Building Material and Supplies Dealers
439,sg:eafad829d9de478ba8e23d830074e7f4,-112.224722,33.420964,40131125134,4,True,False,-112.1908747,33.4153902,Restaurants and Other Eating Places
440,sg:1acfbeb67b2646f3b310daacbd6836ba,-112.111498,33.510151,40131125134,6,True,True,-112.1908747,33.4153902,Automobile Dealers
441,sg:7c779234c50d4eabb8c02cc89377f090,-112.099571,33.436268,40131125134,8,True,True,-112.1908747,33.4153902,"Automotive Parts, Accessories, and Tire Stores"
442,sg:f91b2265d6b844a997845c7dcba7a6ea,-112.021286,33.480698,40131125134,4,True,False,-112.1908747,33.4153902,Clothing Stores
443,sg:117e80f1c7924627a5629cbc8407957e,-112.120399,33.596007,40131125134,7,True,True,-112.1908747,33.4153902,Restaurants and Other Eating Places
444,sg:5a9dfb85797243fc9aff633acd7f78a8,-112.130467,33.641042,40136185002,8,True,True,-112.132153,33.6414692,Other Amusement and Recreation Industries
445,sg:529374eb9b96464fb450896fc4d32bcd,-112.04931200000001,33.422135,40136185002,5,True,True,-112.132153,33.6414692,Other Miscellaneous Manufacturing
446,sg:9e31e5c6770841298ba7ac4c0ff2c62a,-112.082151,33.514076,40136185002,4,True,False,-112.132153,33.6414692,Depository Credit Intermediation
447,sg:cdd325b9aac14814ac0109322e82a4f5,-112.121857,33.639255,40136185002,6,True,True,-112.132153,33.6414692,Depository Credit Intermediation
448,sg:fabfd1671283463c99a4ceeb65d2a461,-112.121001,33.638904,40136185002,5,True,True,-112.132153,33.6414692,Home Furnishings Stores
449,sg:af6c3e53cb2342d69da20a9371d1de9a,-112.015483,33.655551,40136185002,4,True,False,-112.132153,33.6414692,Other Amusement and Recreation Industries
450,sg:2f5b3483139e4c69a1e64df621046367,-112.091726,33.492956,40136185002,4,True,False,-112.132153,33.6414692,Health and Personal Care Stores
451,sg:57d1dc080c18423586015fd202f08df7,-112.08239499999999,33.464479,40136185002,4,True,False,-112.132153,33.6414692,Offices of Other Health Practitioners
452,sg:4e2ece81574c4c408f9429b107e8f423,-111.97815200000001,33.331390999999996,40136185002,4,True,False,-112.132153,33.6414692,Restaurants and Other Eating Places
453,sg:a68645c39e12449f922d7a3fcec6a0a3,-112.13274399999999,33.64077,40136185002,7,True,True,-112.132153,33.6414692,Other Amusement and Recreation Industries
454,sg:5aef303ca9744dedaa4af989b693424b,-112.119647,33.480783,40131100012,5,True,True,-112.15688600000001,33.4838924,Restaurants and Other Eating Places
455,sg:9806447618e345519e670b877384dc00,-112.169177,33.506192999999996,40131100012,6,True,True,-112.15688600000001,33.4838924,Offices of Physicians
456,sg:679d7b8bf46f4a3484128ad824c57982,-112.158464,33.480816,40131100012,5,True,True,-112.15688600000001,33.4838924,Religious Organizations
457,sg:57749ea229014604ac85e43080b7e66e,-112.15793799999999,33.486211,40131100012,8,True,True,-112.15688600000001,33.4838924,Elementary and Secondary Schools
458,sg:97d6b3b793ae45b1b4d0b56038469a15,-112.06368700000002,33.466208,40131100012,4,True,False,-112.15688600000001,33.4838924,Elementary and Secondary Schools
459,sg:8cac0ae75a5a455f99e71d2c10ebb572,-112.135377,33.523762,40131100012,4,True,False,-112.15688600000001,33.4838924,Restaurants and Other Eating Places
460,sg:3ca7cd7587fa4bdd966bbc58a86a64f9,-112.067206,33.427288,40131100012,4,True,False,-112.15688600000001,33.4838924,"Automotive Parts, Accessories, and Tire Stores"
461,sg:e0a9ed9b8e2b4dab9c7c47fd953865a6,-112.15657900000001,33.494676,40131100012,4,True,False,-112.15688600000001,33.4838924,Religious Organizations
462,sg:1d7718b8ab844f9ea457e002be44b37d,-112.133288,33.480178,40131100012,6,True,True,-112.15688600000001,33.4838924,Restaurants and Other Eating Places
463,sg:5d0eac7922654b89b905c319626a8769,-112.15055100000001,33.491411,40131100012,5,True,True,-112.15688600000001,33.4838924,Automobile Dealers
464,sg:ef578a3ed9ac40daa582f46b39487d20,-112.10941799999999,33.434426,40131100012,5,True,True,-112.15688600000001,33.4838924,Automotive Repair and Maintenance
465,sg:4c42edcc6b2c4bbb8f8b2ef6367cd430,-112.17192800000001,33.493533,40131100012,4,True,False,-112.15688600000001,33.4838924,"General Merchandise Stores, including Warehouse Clubs and Supercenters"
466,sg:b45ea699ef9941edb87e7fa13bb19661,-112.074776,33.427486,40131100012,5,True,True,-112.15688600000001,33.4838924,Automobile Dealers
467,sg:899ba1852d2d43d9a3fdc2ef6bfef327,-112.047738,33.398077,40131100012,4,True,False,-112.15688600000001,33.4838924,Automotive Repair and Maintenance
468,sg:733d768900e24696af28d6cc5851b416,-112.029944,33.504936,40131089022,4,True,False,-112.0934543,33.5032028,Offices of Other Health Practitioners
469,sg:b2080ba431ac46b99701998076e345b9,-112.1487,33.495233,40131089022,7,True,True,-112.0934543,33.5032028,Restaurants and Other Eating Places
470,sg:b59f0d3a7587452abaef6e91fcc78498,-112.09945900000001,33.501946000000004,40131089022,4,True,False,-112.0934543,33.5032028,Automotive Repair and Maintenance
471,sg:00be21bed5814907b198801a150f642f,-112.100098,33.499857,40131089022,5,True,True,-112.0934543,33.5032028,Medical and Diagnostic Laboratories
472,sg:5b4170824be649c8b957673ec53a02ac,-112.100099,33.499842,40131089022,7,True,True,-112.0934543,33.5032028,Medical and Diagnostic Laboratories
473,sg:7bd9bb062bbb4d9aa2556b8aab232d23,-112.073334,33.491358,40131089022,4,True,False,-112.0934543,33.5032028,Couriers and Express Delivery Services
474,sg:5c806eb10e454970888bfe8650e3a828,-112.10040500000001,33.502716,40131089022,6,True,True,-112.0934543,33.5032028,Grocery Stores
475,sg:1854359750364b9f9a86245766204d8c,-112.04808799999999,33.539034,40131089022,4,True,False,-112.0934543,33.5032028,Furniture Stores
476,sg:9f87064f08bc4314a3ca2b2784c10f37,-112.100148,33.500238,40131089022,6,True,True,-112.0934543,33.5032028,Offices of Physicians
477,sg:13f47bda254f4782b18184f7c9caaaa5,-112.093042,33.506445,40131089022,9,True,True,-112.0934543,33.5032028,Child Day Care Services
478,sg:295c8672a6004287a55831804337bf0d,-112.08198300000001,33.511046,40131089022,4,True,False,-112.0934543,33.5032028,Other Miscellaneous Store Retailers
479,sg:1805633368c0455f989552ba880510b5,-112.10027,33.501983,40131089022,4,True,False,-112.0934543,33.5032028,"Automotive Parts, Accessories, and Tire Stores"
480,sg:b6cb224b41094b93b468cc62d1973b68,-112.015552,33.510339,40131089022,4,True,False,-112.0934543,33.5032028,Printing and Related Support Activities
481,sg:1da6af9287ac42318e9754548978d623,-112.067497,33.477013,40131089022,4,True,False,-112.0934543,33.5032028,Offices of Physicians
482,sg:11a9f5202bdd4152a60e366a417907e5,-112.107332,33.509995,40131089022,4,True,False,-112.0934543,33.5032028,Automobile Dealers
483,sg:97562c9504f74b448a030a6981edb7db,-111.918609,33.448932,40133184001,9,False,True,-111.9221824,33.4476431,"Museums, Historical Sites, and Similar Institutions"
484,sg:10ddd6be64214864867264e990bc5535,-112.115051,33.524377,40133184001,4,False,False,-111.9221824,33.4476431,Restaurants and Other Eating Places
485,sg:03378d24b055409c822b4d6ffdf9f2e2,-112.08076200000001,33.479991999999996,40133184001,4,False,False,-111.9221824,33.4476431,Restaurants and Other Eating Places
486,sg:1fe5df344dab4a70aa4ed543682432c0,-111.97211399999999,33.354009000000005,40133184001,4,False,False,-111.9221824,33.4476431,"Agencies, Brokerages, and Other Insurance Related Activities"
487,sg:96f42a3b41914bb38560b207055d08ed,-112.04534199999999,33.424023999999996,40133184001,4,False,False,-111.9221824,33.4476431,"Office Supplies, Stationery, and Gift Stores"
488,sg:3acee8b57df24cdcaf37bde15f48a818,-111.98906299999999,33.495708,40133184001,4,False,False,-111.9221824,33.4476431,Other Amusement and Recreation Industries
489,sg:a0ccc20cca4945b6b727a764aa13213c,-112.124311,33.501123,40131091021,4,True,False,-112.13222809999999,33.4987785,Building Material and Supplies Dealers
490,sg:51281f8c0fea4f4d836126fa1e4d0b1e,-112.13473300000001,33.488032000000004,40131091021,7,True,True,-112.13222809999999,33.4987785,Grocery Stores
491,sg:20e34d74243b43dcbc1777d76316db85,-112.12583500000001,33.58146,40131091021,7,True,True,-112.13222809999999,33.4987785,Restaurants and Other Eating Places
492,sg:f52f0442d0024d7bb52ad2735e1cd71c,-111.986347,33.474282,40131091021,4,True,False,-112.13222809999999,33.4987785,Restaurants and Other Eating Places
493,sg:c28ed3987c71403295a476d1e0a21e1f,-112.031504,33.422053000000005,40131091021,7,True,True,-112.13222809999999,33.4987785,Restaurants and Other Eating Places
494,sg:112a8655d0124f6c857a8d48e8e2d038,-112.064828,33.478509,40131091021,4,True,False,-112.13222809999999,33.4987785,Personal Care Services
495,sg:68a66abd8d4040c7b9fc5c177f8ed814,-112.13196299999998,33.504737,40131091021,8,True,True,-112.13222809999999,33.4987785,"Museums, Historical Sites, and Similar Institutions"
496,sg:d41c3263be1f4b35b46304490cc0c331,-112.07861899999999,33.490353000000006,40131091021,4,True,False,-112.13222809999999,33.4987785,Health and Personal Care Stores
497,sg:34ae78a635e847fcb54ccc44b556419b,-112.134565,33.497267,40131091021,5,True,True,-112.13222809999999,33.4987785,Grocery Stores
498,sg:79e3fe3a37064caa9cfc08025b215069,-112.133276,33.496216,40131091021,14,True,True,-112.13222809999999,33.4987785,Specialty Food Stores
499,sg:3c507d0d65a34d1e8713a727af63a59a,-112.03029199999999,33.633669,40131091021,4,True,False,-112.13222809999999,33.4987785,Automotive Repair and Maintenance
500,sg:6cae11f2930344e69b9c398d260da329,-112.133804,33.496101,40131091021,4,True,False,-112.13222809999999,33.4987785,Specialty Food Stores
501,sg:6c3271d7f2654e6788cbc9c80d50353c,-112.067761,33.458207,40131091021,4,True,False,-112.13222809999999,33.4987785,Other Miscellaneous Store Retailers
502,sg:47909067ff7e497399ab75fbfa872fb2,-112.134576,33.496849,40131091021,8,True,True,-112.13222809999999,33.4987785,Restaurants and Other Eating Places
503,sg:619222fdf28245b2b399741b917b68e4,-111.92931000000002,33.655962,40131091021,4,True,False,-112.13222809999999,33.4987785,Other Amusement and Recreation Industries
504,sg:ae0085f568fa4fba8af09cf10ce1acfc,-112.09661100000001,33.448599,40050011013,5,False,True,-111.6721058,35.1716883,"Museums, Historical Sites, and Similar Institutions"
505,sg:3d8550a94c8d4490a3b5d1e131244c2e,-112.05197700000001,33.494193,40050011013,4,False,False,-111.6721058,35.1716883,"Museums, Historical Sites, and Similar Institutions"
506,sg:b118627ca6a843058cab32398e3e5464,-111.929643,33.651923,40131032164,5,False,True,-111.972996,33.6382307,Offices of Dentists
507,sg:a238cdcbb8da4a6bb3110750c2055e5f,-111.98113799999999,33.612102,40131032164,7,False,True,-111.972996,33.6382307,Other Amusement and Recreation Industries
508,sg:f69e53fdb3dc4ebdb15dd07fe350e2d7,-112.147259,33.582211,40131032164,4,False,False,-111.972996,33.6382307,Other Miscellaneous Store Retailers
509,sg:b1473cda8f4a43bfb2b48f86cd8ebb9c,-112.07513999999999,33.458442,40131042262,4,True,False,-112.13874750000001,33.636017200000005,Traveler Accommodation
510,sg:cb9628b0a9774f9b94abc41031d5bc10,-112.10720500000001,33.680304,40131042262,4,True,False,-112.13874750000001,33.636017200000005,Home Furnishings Stores
511,sg:18ed6923c9e44e26b4ed97256e90d47d,-111.99581299999998,33.406933,40131042262,7,True,True,-112.13874750000001,33.636017200000005,Gasoline Stations
512,sg:5bd5bc58226e4b339c86d3662d6e0533,-112.14301,33.621947999999996,40131042262,4,True,False,-112.13874750000001,33.636017200000005,Religious Organizations
513,sg:717c56cfd80d4ce3a96ec3c224de1b5b,-112.1306,33.581485,40131042262,5,True,True,-112.13874750000001,33.636017200000005,"Agencies, Brokerages, and Other Insurance Related Activities"
514,sg:09a92bb1ca6d48ae928c131ce9de0e56,-112.047446,33.554108,40131042262,5,True,True,-112.13874750000001,33.636017200000005,Traveler Accommodation
515,sg:d6cc6e99b0e647db8423baede394ee08,-112.182448,33.437253000000005,40131042262,4,True,False,-112.13874750000001,33.636017200000005,Restaurants and Other Eating Places
516,sg:b87b2b6a3c2d44be8eeebae82b0e5858,-112.11908899999999,33.510005,40130822081,4,False,False,-112.3361543,33.4130287,Automotive Equipment Rental and Leasing
517,sg:959b98e3c5fe427985a7c572297fb0cb,-112.092345,33.406411,40130822081,4,False,False,-112.3361543,33.4130287,Automotive Repair and Maintenance
518,sg:1d4d09ac75b84f0d99c711f0fd6c21be,-112.172304,33.49365,40130822081,4,False,False,-112.3361543,33.4130287,Health and Personal Care Stores
519,sg:3ba1db632d3e4b569998523bcde821c9,-112.07863,33.45169,40130822081,4,False,False,-112.3361543,33.4130287,Automotive Repair and Maintenance
520,sg:b89b6a9169834babb06d7a538af1c835,-111.988276,33.510875,40210017051,4,False,False,-112.0359113,33.0790998,Restaurants and Other Eating Places
521,sg:c03d4a05609f4f45a5782e8ed4729806,-112.13445800000001,33.596762,40131039002,4,True,False,-112.1054889,33.598232200000005,Restaurants and Other Eating Places
522,sg:ca04e8746f0a49ac962ca8b3d8a24357,-112.11051499999999,33.714518,40131039002,4,True,False,-112.1054889,33.598232200000005,"Beer, Wine, and Liquor Stores"
523,sg:a3fdb861893e425882082f7c3c6b0627,-111.966872,33.676177,40131039002,4,True,False,-112.1054889,33.598232200000005,Offices of Dentists
524,sg:29b7db67bf0a4332a2be2d3fad6e3e1e,-111.99902800000001,33.638523,40131039002,4,True,False,-112.1054889,33.598232200000005,Offices of Physicians
525,sg:e0b5d1fd97934f5cbe6181c5477d32e7,-112.036448,33.60194,40131039002,4,True,False,-112.1054889,33.598232200000005,Automotive Repair and Maintenance
526,sg:010793c3fa9743c0a1edaaadfe4d5030,-112.021675,33.661607000000004,40131039002,5,True,True,-112.1054889,33.598232200000005,Home Furnishings Stores
527,sg:9b8735e372854baa864eb85f1229b157,-112.08353000000001,33.567188,40131039002,10,True,True,-112.1054889,33.598232200000005,Offices of Physicians
528,sg:58c582036fd44124abe94eb9cfbc7550,-112.09929,33.572720000000004,40131039002,4,True,False,-112.1054889,33.598232200000005,Restaurants and Other Eating Places
529,sg:0f717b437869402db24c64b753be998c,-112.100248,33.596018,40131039002,13,True,True,-112.1054889,33.598232200000005,Grocery Stores
530,sg:589215e31ffa4a019a9a44a016ef337b,-112.065596,33.563448,40131039002,4,True,False,-112.1054889,33.598232200000005,Restaurants and Other Eating Places
531,sg:e00f8ac60f7c4d518178712b3a291a7b,-112.074317,33.570198,40131039002,5,True,True,-112.1054889,33.598232200000005,Offices of Physicians
532,sg:fa66f14450c8417d8e96f1a694a7939e,-112.064048,33.64176,40131039002,7,True,True,-112.1054889,33.598232200000005,Home Health Care Services
533,sg:f0ac1ccefa8c4141b3e494e8ac276086,-112.05589099999999,33.561521,40131039002,5,True,True,-112.1054889,33.598232200000005,"Agencies, Brokerages, and Other Insurance Related Activities"
534,sg:10be7494117e4bc0a7b326830e07bcc0,-112.06683899999999,33.598541,40131039002,4,True,False,-112.1054889,33.598232200000005,Travel Arrangement and Reservation Services
535,sg:d4c7c330d78a47e199bd15bafbda3669,-112.10065800000001,33.424163,40130506101,5,True,True,-112.49308870000002,33.4482791,Automotive Repair and Maintenance
536,sg:443ea2ff224d454a831ef17f8876f134,-112.28069199999999,33.494391,40130506101,4,True,False,-112.49308870000002,33.4482791,Offices of Physicians
537,sg:0bcc92ad08ce4a2f9ad7b85fc0386b62,-111.92645,33.648261,40130506101,4,True,False,-112.49308870000002,33.4482791,Automobile Dealers
538,sg:d6a0331b6dc64847b5fed957390368a5,-112.06537,33.494324,40130506101,6,True,True,-112.49308870000002,33.4482791,"Office Supplies, Stationery, and Gift Stores"
539,sg:bd33681c2b7a4af382d267e5e334fe7b,-112.124247,33.428024,40130506101,5,True,True,-112.49308870000002,33.4482791,"Justice, Public Order, and Safety Activities"
540,sg:faf5b51c90d448aa9f914d422e23c736,-112.11034699999999,33.611682,40130506101,6,True,True,-112.49308870000002,33.4482791,Restaurants and Other Eating Places
541,sg:e98643fee20e4163a2a5b54cd24ce16b,-112.098569,33.696517,40130506101,4,True,False,-112.49308870000002,33.4482791,Other Motor Vehicle Dealers
542,sg:09ecfb3cc73d4628acfc75e1b9eb5152,-112.010326,33.639694,40130506101,4,True,False,-112.49308870000002,33.4482791,Offices of Physicians
543,sg:bcf52337d3bb4a25a380c5007d763ab8,-112.04382700000001,33.545312,40130506101,4,True,False,-112.49308870000002,33.4482791,Offices of Dentists
544,sg:146ae57afc294fae8c1a687ee68e4dbe,-112.116301,33.576395,40130506101,8,True,True,-112.49308870000002,33.4482791,Restaurants and Other Eating Places
545,sg:0196afd9fbfa4ab39c7d6c812516f5ce,-112.109952,33.480265,40130506101,4,True,False,-112.49308870000002,33.4482791,Restaurants and Other Eating Places
546,sg:6c98acdf24714128a822783cac56ae97,-112.069024,33.458994,40130506101,4,True,False,-112.49308870000002,33.4482791,Restaurants and Other Eating Places
547,sg:8f60f9b5d698443ba27d0c399657917a,-112.095626,33.524316,40130506101,4,True,False,-112.49308870000002,33.4482791,"Agencies, Brokerages, and Other Insurance Related Activities"
548,sg:df7b96333aaf47feadd46cae963a0676,-112.22189399999999,33.474295,40130506101,4,True,False,-112.49308870000002,33.4482791,Offices of Physicians
549,sg:8efd60fc04b84a3ca1c93284a6bdcdfb,-112.127448,33.458975,40130506101,4,True,False,-112.49308870000002,33.4482791,Grocery Stores
550,sg:5bdcdd2fe2214ec797cf75338c2bfa55,-112.074816,33.446887,40130506101,4,True,False,-112.49308870000002,33.4482791,Restaurants and Other Eating Places
551,sg:62b81332f61b4ab09ac162cd49b0089b,-112.22003899999999,33.474288,40130506101,7,True,True,-112.49308870000002,33.4482791,Restaurants and Other Eating Places
552,sg:4194dfab0e544462976cfab3f653cee6,-112.204314,33.440378,40130506101,5,True,True,-112.49308870000002,33.4482791,"Hardware, and Plumbing and Heating Equipment and Supplies Merchant Wholesalers"
553,sg:b1f4da5597f74fe6b17a75b6741737df,-112.13020300000001,33.423773,40130506101,7,True,True,-112.49308870000002,33.4482791,"Justice, Public Order, and Safety Activities"
554,sg:660ffc441cdd49e1bcfb490f02b103e4,-112.12383999999999,33.489492999999996,40130506101,4,True,False,-112.49308870000002,33.4482791,Automotive Repair and Maintenance
555,sg:348804df25a74077a70c307f80f8ce5c,-112.134224,33.437228000000005,40130506101,4,True,False,-112.49308870000002,33.4482791,"Automotive Parts, Accessories, and Tire Stores"
556,sg:4223b6384bb746608f73bed70cf32a2f,-112.083887,33.434712,40130506101,5,True,True,-112.49308870000002,33.4482791,Offices of Physicians
557,sg:ecffaefaf6904ea9a372642dcc0b5df5,-112.064099,33.682811,40131036094,4,True,False,-112.102057,33.6128904,"Justice, Public Order, and Safety Activities"
558,sg:05b81673cb9c4aa9ad24bab765eddaae,-112.108879,33.56713,40131036094,4,True,False,-112.102057,33.6128904,Offices of Other Health Practitioners
559,sg:d8b3589b19c24a328372dbb14b648fe3,-112.030405,33.64219,40131036094,4,True,False,-112.102057,33.6128904,Automotive Repair and Maintenance
560,sg:0269fee25d52458eade705cca9784231,-112.081849,33.639639,40131036094,5,True,True,-112.102057,33.6128904,Shoe Stores
561,sg:6645485ec70a48a9821484cfa809ec3d,-112.099101,33.609512,40131036094,5,True,True,-112.102057,33.6128904,Other Amusement and Recreation Industries
562,sg:479f3e295934409cbe7060108bdac47c,-112.101169,33.611713,40131036094,4,True,False,-112.102057,33.6128904,Restaurants and Other Eating Places
563,sg:66f63261eab84d6d8e5455fc37692a63,-112.003262,33.695099,40131036094,4,True,False,-112.102057,33.6128904,"Office Supplies, Stationery, and Gift Stores"
564,sg:dae09a32680746628fdf100f8e837c76,-112.099916,33.612248,40131036094,9,True,True,-112.102057,33.6128904,Building Equipment Contractors
565,sg:fcf35f3e681a4cc9a7774c159cbf3846,-112.115697,33.43679,40131042033,4,True,False,-112.1483981,33.5831098,Restaurants and Other Eating Places
566,sg:75fdb73cacc945d7a60ad1e98a4fac2c,-112.12471000000001,33.451943,40131042033,4,True,False,-112.1483981,33.5831098,Electronics and Appliance Stores
567,sg:7f438581e4164196ac4cf11164f39fa3,-112.10754299999999,33.464894,40131042033,4,True,False,-112.1483981,33.5831098,Automotive Equipment Rental and Leasing
568,sg:af48bae156a7416db02a621ac4dea403,-112.150405,33.582925,40131042033,10,True,True,-112.1483981,33.5831098,Lessors of Real Estate
569,sg:caca05fbcdfa4e4582a4917faf910870,-112.15023899999998,33.583168,40131042033,10,True,True,-112.1483981,33.5831098,Department Stores
570,sg:1565824b6cd7434c977360cb834429ce,-112.065748,33.568278,40131036141,5,True,True,-112.0925928,33.6052993,Lessors of Real Estate
571,sg:d8414aaaf5f64432987902b2588f83e0,-112.06166699999999,33.639106,40131036141,4,True,False,-112.0925928,33.6052993,Child Day Care Services
572,sg:a35095e13129465b9946468f8f4f6b90,-112.047845,33.587509000000004,40131036141,4,True,False,-112.0925928,33.6052993,Building Material and Supplies Dealers
573,sg:1ddbb03687944e52847cfa0085e6d704,-112.01068000000001,33.597503,40131036141,4,True,False,-112.0925928,33.6052993,Offices of Other Health Practitioners
574,sg:17233da385734b8e956483f6134203c6,-112.042323,33.453934999999994,40131036141,6,True,True,-112.0925928,33.6052993,Offices of Physicians
575,sg:10023a27e3fe4cb18246e74c8741de17,-112.100275,33.626508,40131036141,4,True,False,-112.0925928,33.6052993,Restaurants and Other Eating Places
576,sg:9b1634ba09994c718b3667a36814268e,-112.09909499999999,33.65573,40131036141,5,True,True,-112.0925928,33.6052993,Restaurants and Other Eating Places
577,sg:3dcb9e1dd0ea4af5bad1360ce88149ce,-112.09578300000001,33.609982,40131036141,4,True,False,-112.0925928,33.6052993,Electronics and Appliance Stores
578,sg:919a836ab8474a0588151eb05d35bf96,-112.099175,33.610237,40131036141,6,True,True,-112.0925928,33.6052993,Health and Personal Care Stores
579,sg:53fb8d5ffcce4e41868a60245c4e0422,-112.11465,33.61234,40131036141,12,True,True,-112.0925928,33.6052993,Building Material and Supplies Dealers
580,sg:49fb147041f14ce5b37209e3f5e030be,-112.108994,33.685196000000005,40131036141,4,True,False,-112.0925928,33.6052993,Automobile Dealers
581,sg:0febb8f51ec04d7d9e354dd83180ac96,-112.11809199999999,33.442688000000004,40131036141,4,True,False,-112.0925928,33.6052993,"Automotive Parts, Accessories, and Tire Stores"
582,sg:b04b025731664345bc3bd8391ead5645,-112.053976,33.494710999999995,40131036141,4,True,False,-112.0925928,33.6052993,Nondepository Credit Intermediation
583,sg:a0369cc9c9e941a687f1256556123f8a,-112.09919199999999,33.624611,40131036141,6,True,True,-112.0925928,33.6052993,Personal Care Services
584,sg:293d49a3cb0e4fd084aca9dd7b245e89,-112.01826899999999,33.502078000000004,40131062002,6,True,True,-112.0694832,33.5455265,Child Day Care Services
585,sg:97989b47128d4dac95933dd8ab174fbf,-112.06202900000001,33.542772,40131062002,4,True,False,-112.0694832,33.5455265,Child Day Care Services
586,sg:6f05d72dc5b0408bb0479002890f593b,-112.074421,33.566071,40131062002,4,True,False,-112.0694832,33.5455265,Death Care Services
587,sg:4a6909417eb44ca49ecf526eedbfc406,-111.978402,33.579399,40131062002,4,True,False,-112.0694832,33.5455265,Offices of Physicians
588,sg:0cc25e7e470c4c37bc299f1826d2448c,-112.065505,33.530165000000004,40131062002,5,True,True,-112.0694832,33.5455265,Other Amusement and Recreation Industries
589,sg:3fcef6d35fc441c39fda1764bea0c8c1,-112.065409,33.540815,40131062002,4,True,False,-112.0694832,33.5455265,Personal Care Services
590,sg:e0b98c625b094263b2db44e84277314f,-112.06555800000001,33.527811,40131062002,5,True,True,-112.0694832,33.5455265,Other Amusement and Recreation Industries
591,sg:7ab683d1c3114449b03c85cf8effd0c2,-112.0743,33.567293,40131062002,7,True,True,-112.0694832,33.5455265,Restaurants and Other Eating Places
592,sg:1eef5bfdbdf74c69b9710268827da8af,-112.075268,33.483808,40131062002,5,True,True,-112.0694832,33.5455265,Restaurants and Other Eating Places
593,sg:35147c2b151f4c8189abd84b905cba1f,-112.03785,33.494023999999996,40131062002,4,True,False,-112.0694832,33.5455265,Miscellaneous Durable Goods Merchant Wholesalers
594,sg:a343df30c2174152b7ea54058113d0e4,-112.10011899999999,33.468261,40131062002,4,True,False,-112.0694832,33.5455265,Automotive Repair and Maintenance
595,sg:9becc095c38f49409df89575cf1b42a9,-112.065422,33.537625,40131062002,7,True,True,-112.0694832,33.5455265,Health and Personal Care Stores
596,sg:3c674876b8f64c489032e296028cf264,-112.06478999999999,33.538976,40131062002,6,True,True,-112.0694832,33.5455265,Restaurants and Other Eating Places
597,sg:001bf1a8c6c84ad696e8d68534ab7897,-112.03211599999999,33.509731,40131062002,4,True,False,-112.0694832,33.5455265,Depository Credit Intermediation
598,sg:2a63d6ba98fd4574a72c0043416002d0,-112.113345,33.467116,291892213024,4,False,False,-90.3496773,38.4896071,Building Material and Supplies Dealers
599,sg:3759f26d11bb496d9c9f66ed35f57a6c,-112.07614,33.430408,40131149002,4,True,False,-112.07804509999998,33.4329935,Medical and Diagnostic Laboratories
600,sg:ce0e33db0cc44e6e9256700a79e4044d,-112.071453,33.43724,40131149002,4,True,False,-112.07804509999998,33.4329935,Specialty Food Stores
601,sg:be419475a1194fcc830b70fc93373fc7,-112.074666,33.432894,40131149002,5,True,True,-112.07804509999998,33.4329935,"Automotive Parts, Accessories, and Tire Stores"
602,sg:0ba4009b6dfc4bc9b7031613e643ac36,-112.07746499999999,33.436271999999995,40131149002,8,True,True,-112.07804509999998,33.4329935,Restaurants and Other Eating Places
603,sg:047c1d47b78d4861a2d366c4a9a8eb78,-112.08333400000001,33.436153000000004,40131149002,4,True,False,-112.07804509999998,33.4329935,Drycleaning and Laundry Services
604,sg:da952381cd124cb6ae2081f9f2b7f477,-112.07333999999999,33.509665999999996,40131149002,9,True,True,-112.07804509999998,33.4329935,Restaurants and Other Eating Places
605,sg:4df1ee3df1e14ba38f703da8c28c3148,-112.082755,33.432983,40131149002,5,True,True,-112.07804509999998,33.4329935,Restaurants and Other Eating Places
606,sg:4b07fad3c04e43f9a58cf9e577b31d69,-112.04363700000002,33.475926,40131116023,4,True,False,-112.0432885,33.4752197,Offices of Other Health Practitioners
607,sg:bce8290675194435948d8723b0fd2fa5,-112.004601,33.480247999999996,40131116023,6,True,True,-112.0432885,33.4752197,Restaurants and Other Eating Places
608,sg:2bd887d7898b472abd5a8e1409930330,-112.014273,33.480123,40131116023,4,True,False,-112.0432885,33.4752197,Other Miscellaneous Store Retailers
609,sg:a82767613ae34aa0acd5a710e39f69f7,-112.04024199999999,33.479139,40131116023,5,True,True,-112.0432885,33.4752197,Offices of Physicians
610,sg:36036e5bbd4e43588be22de822ef93e9,-112.04786399999999,33.472588,40131116023,4,True,False,-112.0432885,33.4752197,Specialty Food Stores
611,sg:6ff0ce97678e44038c15d953fef468b6,-112.051199,33.448509,40131116023,4,True,False,-112.0432885,33.4752197,Personal Care Services
612,sg:5b589f0ed30a4b1fa0a3acaa1e104575,-112.04285800000001,33.474125,40131116023,7,True,True,-112.0432885,33.4752197,Building Equipment Contractors
613,sg:cb4381c6c2a94535a2292e08160aa74f,-112.036285,33.465502,40131116023,4,True,False,-112.0432885,33.4752197,Other Amusement and Recreation Industries
614,sg:366b3542d4c246a3bbb224ffb2e07c82,-112.099259,33.495215,40131116023,4,True,False,-112.0432885,33.4752197,Restaurants and Other Eating Places
615,sg:a93cfe59af2142b48d4b576d2494f8cb,-112.016636,33.479971,40131116023,4,True,False,-112.0432885,33.4752197,Restaurants and Other Eating Places
616,sg:564a731eb49748b59ccd8c7410c8bada,-112.074285,33.481993,40131116023,6,True,True,-112.0432885,33.4752197,Restaurants and Other Eating Places
617,sg:deb7f1d43e8841359bc5bb807de4dd38,-112.029925,33.504218,40131116023,4,True,False,-112.0432885,33.4752197,Offices of Other Health Practitioners
618,sg:f098a8d17ccb4d09ad9e85be12aae9c6,-111.960272,33.480288,40131116023,10,True,True,-112.0432885,33.4752197,Restaurants and Other Eating Places
619,sg:2b6a3e162c1a4f08b57c0b416de3e45e,-112.039496,33.486507,40131116023,4,True,False,-112.0432885,33.4752197,Other Amusement and Recreation Industries
620,sg:68ce565f6efc47b5b0a3e46120e2f0e2,-112.064926,33.378153000000005,40131157003,7,True,True,-112.0948644,33.3959212,Restaurants and Other Eating Places
621,sg:3e3d5a78df3643c2bfa04359d1b875ab,-112.064553,33.492476,40131157003,4,True,False,-112.0948644,33.3959212,Offices of Physicians
622,sg:baf143b44ec746aab89820db1d6fea40,-111.99035,33.455527000000004,40131157003,6,True,True,-112.0948644,33.3959212,Offices of Physicians
623,sg:fccbfe9206d9439bb725acc8d9e6aeea,-112.030561,33.483632,40131157003,4,True,False,-112.0948644,33.3959212,Automotive Repair and Maintenance
624,sg:23730ac92daa490b8a142fdecc357788,-111.990344,33.455692,40131157003,4,True,False,-112.0948644,33.3959212,Offices of Physicians
625,sg:74056efbce174acdba185cd88760eb7b,-112.099659,33.395526000000004,40131157003,4,True,False,-112.0948644,33.3959212,Religious Organizations
626,sg:568c25b05a1f4bd5bb60c2ef3c705105,-112.119859,33.487087,40131157003,4,True,False,-112.0948644,33.3959212,Support Activities for Road Transportation
627,sg:faec5b8d1b7b461196229b1f18fbbd4d,-112.01459299999999,33.394888,40131157003,4,True,False,-112.0948644,33.3959212,Offices of Other Health Practitioners
628,sg:bd5b69a32c4242e298f785f439c19950,-112.15338,33.466368,40131157003,4,True,False,-112.0948644,33.3959212,Restaurants and Other Eating Places
629,sg:d306d852168740afa25f79b11de1cdf5,-111.99033700000001,33.455534,40131157003,4,True,False,-112.0948644,33.3959212,Offices of Physicians
630,sg:57bd1fde8f6c449b8fc81f23e394c821,-112.097669,33.392814,40131157003,6,True,True,-112.0948644,33.3959212,"Automotive Parts, Accessories, and Tire Stores"
631,sg:8f9ac0fccc764bbea643ab702aa3a5a8,-112.088477,33.405896000000006,40131157003,4,True,False,-112.0948644,33.3959212,Automobile Dealers
632,sg:9aed8a2390584885b9f3ce2915ddb0a7,-112.04803000000001,33.473765,40131157003,4,True,False,-112.0948644,33.3959212,"Beer, Wine, and Liquor Stores"
633,sg:f77de9b4b35c41f0b14b39ce36ac3a08,-112.090924,33.401057,40131157003,5,True,True,-112.0948644,33.3959212,Elementary and Secondary Schools
634,sg:4baa90f5217441819e77ea29922858ff,-112.099919,33.406316,40131157003,8,True,True,-112.0948644,33.3959212,Restaurants and Other Eating Places
635,sg:5c79ecafccea48e491d3cc480c3fea30,-112.097315,33.391965,40131157003,5,True,True,-112.0948644,33.3959212,Restaurants and Other Eating Places
636,sg:e99d23ea8bc64a5da5c6a7fec2316530,-111.996652,33.450301,40131157003,6,True,True,-112.0948644,33.3959212,"Colleges, Universities, and Professional Schools"
637,sg:ff95f2b10f224ed98a170ad917f9fcb5,-112.111332,33.445531,40131157003,4,True,False,-112.0948644,33.3959212,Waste Treatment and Disposal
638,sg:6c6b40526a6f4e17b0f033dc34b42c84,-112.08333799999998,33.436566,40210017042,4,True,False,-112.0547027,33.0483678,Personal Care Services
639,sg:ca320d29ae884383876fdac9a2667646,-111.97528,33.349986,40210017042,6,True,True,-112.0547027,33.0483678,Depository Credit Intermediation
640,sg:87c4f1e578b4499585037bc915993782,-112.149979,33.553677,40210017042,6,True,True,-112.0547027,33.0483678,Used Merchandise Stores
641,sg:d51703663c574b77998f205eb775fe95,-112.07328899999999,33.479852,40210017042,4,True,False,-112.0547027,33.0483678,Electronics and Appliance Stores
642,sg:f6280682168e4416b7df870e88a5cd47,-112.046651,33.495090999999995,40210017042,4,True,False,-112.0547027,33.0483678,Offices of Other Health Practitioners
643,sg:3e9d6925502c4f5a983dd5450fdfcb28,-112.07331200000002,33.478667,40210017042,4,True,False,-112.0547027,33.0483678,Automotive Equipment Rental and Leasing
644,sg:850c603f231f4bfc8e29e052545ad4e8,-111.97226200000001,33.352812,40210017042,4,True,False,-112.0547027,33.0483678,Offices of Real Estate Agents and Brokers
645,sg:6fa9e3b27f054e81867e7d0c21b58180,-112.117328,33.523502,530090020001,4,False,False,-123.087433,48.067401000000004,"Colleges, Universities, and Professional Schools"
646,sg:7a1d2978dadb44f7b667ae87470d4401,-112.07281699999999,33.377306,40131167023,9,True,True,-112.07445619999999,33.3741816,Grocery Stores
647,sg:7dad5be3206c45249a90d754d0791762,-112.035963,33.379587,40131167023,11,True,True,-112.07445619999999,33.3741816,Department Stores
