,safegraph_place_id,longitude,latitude,cbg,visits,hotspot_origin,hotspot_destination,cbg_longitude,cbg_latitude,top_category
0,sg:18baf84ed4154d9aa3d1c4f3b210bc64,-112.048065,33.482853999999996,40131105021,4,True,False,-112.0694162,33.4911538,Personal Care Services
1,sg:1415497e16a84e62966dc0c7cad09d98,-112.067411,33.493776000000004,40131105021,19,True,True,-112.0694162,33.4911538,Other Miscellaneous Store Retailers
2,sg:f6d869306b35461b8f183adb3603dd7f,-112.068198,33.489088,40131105021,4,True,False,-112.0694162,33.4911538,"Office Supplies, Stationery, and Gift Stores"
3,sg:5d5480990b834d728418e91b2aa9a926,-112.06963999999999,33.378268,40131105021,4,True,False,-112.0694162,33.4911538,Restaurants and Other Eating Places
4,sg:ba2b24638a774140b92107a98201c61e,-112.06528300000001,33.494325,40131105021,4,True,False,-112.0694162,33.4911538,Restaurants and Other Eating Places
5,sg:14d9ec60b2b84af38b3966b1c8dad9d8,-112.0713,33.491851000000004,40131105021,4,True,False,-112.0694162,33.4911538,Elementary and Secondary Schools
6,sg:58829d188e4e4468a9b89eed725a941f,-112.01538700000002,33.654069,40131105021,4,True,False,-112.0694162,33.4911538,Travel Arrangement and Reservation Services
7,sg:f2994ea7e9c84664ba426d17c21b2f43,-112.0717,33.489017,40131105021,5,True,True,-112.0694162,33.4911538,Offices of Other Health Practitioners
8,sg:e7b5206a9abb4974aa1917a4aabd78d5,-112.078682,33.491994,40131105021,4,True,False,-112.0694162,33.4911538,Health and Personal Care Stores
9,sg:1f3f96e1677e40b0ba47d1bf68341fcf,-112.05766200000001,33.49524,40131105021,5,True,True,-112.0694162,33.4911538,Grocery Stores
10,sg:a71d42e417924c4ea190d671a05d1d75,-112.06998899999999,33.494405,40131105021,8,True,True,-112.0694162,33.4911538,Gasoline Stations
11,sg:c2adc530bf33482bb5402c807cd8d29e,-112.046477,33.510411,40131105021,4,True,False,-112.0694162,33.4911538,Restaurants and Other Eating Places
12,sg:292ec8fd42ee4de9b8f015209f96637f,-112.073027,33.493527,40131105021,5,True,True,-112.0694162,33.4911538,Restaurants and Other Eating Places
13,sg:317e9a0d26e9471c8fcf213cde23312f,-112.07331599999999,33.490986,40131105021,4,True,False,-112.0694162,33.4911538,Restaurants and Other Eating Places
14,sg:16dd895b6f2f465cbf15a02d7df387e0,-112.11003899999999,33.5249,40131105021,5,True,True,-112.0694162,33.4911538,Lessors of Real Estate
15,sg:b21ec7727abd4fec93d399d5c9461718,-112.064626,33.474543,40131105021,4,True,False,-112.0694162,33.4911538,Restaurants and Other Eating Places
16,sg:975bfa9323a5401bbe0cdd674f5f9e42,-112.064454,33.495118,40131105021,6,True,True,-112.0694162,33.4911538,Gasoline Stations
17,sg:1df7d883bda34352a49928c686ccd30b,-111.991629,33.687409,40136150002,4,True,False,-111.9999156,33.6918454,Offices of Other Health Practitioners
18,sg:6a7d0bb2bd4444759b11163b4552d8e1,-111.97447700000001,33.674308,40136150002,34,True,True,-111.9999156,33.6918454,Department Stores
19,sg:367c824db9444e5facec4136b9823cb7,-111.9747,33.678647999999995,40136150002,19,True,True,-111.9999156,33.6918454,Grocery Stores
20,sg:0fe6ede0cc0c4da9b2905ffd096c9797,-111.988805,33.692256,40136150002,10,True,True,-111.9999156,33.6918454,Individual and Family Services
21,sg:fa67639f4b5e41af85a609281711a808,-112.13382800000001,33.655182,40136150002,4,True,False,-111.9999156,33.6918454,"Automotive Parts, Accessories, and Tire Stores"
22,sg:81119b4567664527a47bf929735b88a3,-111.973948,33.676415000000006,40136150002,4,True,False,-111.9999156,33.6918454,Drinking Places (Alcoholic Beverages)
23,sg:3577c615ac94424bb8d360d2f8b75c17,-111.988956,33.692370000000004,40136150002,10,True,True,-111.9999156,33.6918454,Child Day Care Services
24,sg:a37910b84690463fb7a03637fc0f458f,-111.97076899999999,33.677991,40136150002,6,True,True,-111.9999156,33.6918454,Other Miscellaneous Store Retailers
25,sg:dbea1452d0c44a3ea147cdf8c5c8ff64,-111.97445400000001,33.676365999999994,40136150002,4,True,False,-111.9999156,33.6918454,Restaurants and Other Eating Places
26,sg:adfd8ca650c34db5aa87129fa8377de6,-111.980498,33.674321,40136150002,4,True,False,-111.9999156,33.6918454,Offices of Other Health Practitioners
27,sg:390cb562078b45dab21866fc32c0c38e,-112.09189099999999,33.640547,40136150002,4,True,False,-111.9999156,33.6918454,Restaurants and Other Eating Places
28,sg:71e4b78bf97b440ca07c9c272b99046b,-111.97723799999999,33.678833000000004,40136150002,23,True,True,-111.9999156,33.6918454,Clothing Stores
29,sg:46167fdf1dd04605a23b750275c3f5d7,-112.055995,33.487686,40136150002,4,True,False,-111.9999156,33.6918454,"Museums, Historical Sites, and Similar Institutions"
30,sg:657495b3b2c24228954872dd3ba9b5fa,-112.035676,33.509007000000004,40136150002,4,True,False,-111.9999156,33.6918454,Restaurants and Other Eating Places
31,sg:c6dd248f9648441b94f519c9386d3a9f,-111.984045,33.69408,40136150002,9,True,True,-111.9999156,33.6918454,Miscellaneous Durable Goods Merchant Wholesalers
32,sg:69560d0911e54f9bb389caccd0ee3313,-112.09921499999999,33.691499,40136150002,4,True,False,-111.9999156,33.6918454,Restaurants and Other Eating Places
33,sg:53f7914fb8154aaa95429750e65696f7,-111.97520300000001,33.679465,40136150002,19,True,True,-111.9999156,33.6918454,Restaurants and Other Eating Places
34,sg:c320456b98434b8b96e22dbaa197d8ca,-111.97590600000001,33.639062,40136150002,16,True,True,-111.9999156,33.6918454,Building Material and Supplies Dealers
35,sg:b4a8650070c44a818828bc1233f5112c,-111.974703,33.678670000000004,40136150002,48,True,True,-111.9999156,33.6918454,Health and Personal Care Stores
36,sg:da88cf972ddc4e95adc65719dab437cd,-111.988006,33.693334,40136150002,11,True,True,-111.9999156,33.6918454,Child Day Care Services
37,sg:fb8e3f4004954fe7b380a08563c5f5d7,-111.97663200000001,33.679659,40136150002,22,True,True,-111.9999156,33.6918454,Gasoline Stations
38,sg:75b1e63a6c4a4fe6804f313b662728e6,-111.978404,33.638663,40136150002,4,True,False,-111.9999156,33.6918454,Restaurants and Other Eating Places
39,sg:0079334f65474cc4baa3d7c3d1ae40db,-111.97339199999999,33.675932,40136150002,132,True,True,-111.9999156,33.6918454,Lessors of Real Estate
40,sg:13ef488e451d4faea4ef18f00ba79c32,-111.97493200000001,33.678183000000004,40136150002,22,True,True,-111.9999156,33.6918454,"Office Supplies, Stationery, and Gift Stores"
41,sg:5232424d4b874785a086a60bc6912f07,-112.03008999999999,33.669315999999995,40136150002,4,True,False,-111.9999156,33.6918454,Automotive Repair and Maintenance
42,sg:5455dc711060428a87d88e25db29ddf2,-112.02854099999999,33.671003999999996,40136150002,29,True,True,-111.9999156,33.6918454,"General Merchandise Stores, including Warehouse Clubs and Supercenters"
43,sg:7bc0aea6f58c42448c84e7532d1db762,-111.998673,33.695528,40136150002,11,True,True,-111.9999156,33.6918454,Other Amusement and Recreation Industries
44,sg:01d6a2893b904e0dbc18c2361377ce4a,-111.987866,33.693166999999995,40136150002,12,True,True,-111.9999156,33.6918454,Elementary and Secondary Schools
45,sg:6e59615c8dce402cb11c9ab340a9a73b,-112.02928600000001,33.675697,40136150002,5,True,True,-111.9999156,33.6918454,Clothing Stores
46,sg:39c2c3db479341bf8744b4125cf62c5c,-112.030178,33.66876,40136150002,9,True,True,-111.9999156,33.6918454,Other Amusement and Recreation Industries
47,sg:98d6e4b1a3484a16b2e64379d0ee3516,-111.974713,33.675903999999996,40136150002,7,True,True,-111.9999156,33.6918454,Restaurants and Other Eating Places
48,sg:2d7eda960f764bc19447ac265dd364c5,-111.986731,33.691691,40136150002,6,True,True,-111.9999156,33.6918454,Building Material and Supplies Dealers
49,sg:c8da54cb852b44dc9462e89cdf139ad8,-111.974985,33.676259,40136150002,4,True,False,-111.9999156,33.6918454,Restaurants and Other Eating Places
50,sg:29a940567bfe40bab4c115e9ac2ebaaf,-112.266304,33.507603,40130927191,5,True,True,-112.2812047,33.5166774,Other Miscellaneous Store Retailers
51,sg:6a0d41ba29c4414989d85e61ad49605b,-112.274817,33.509349,40130927191,9,True,True,-112.2812047,33.5166774,Florists
52,sg:c52d45311c3f431e94a158f7906c9721,-112.069631,33.480042,40130927191,4,True,False,-112.2812047,33.5166774,Depository Credit Intermediation
53,sg:ee4a86dcc812436fba7fe9a4b0e9adca,-112.273432,33.50882,40130927191,15,True,True,-112.2812047,33.5166774,Gasoline Stations
54,sg:ad1e7b283e7d4ad1821e552b50f760f0,-112.029738,33.492442,40130927191,4,True,False,-112.2812047,33.5166774,Offices of Other Health Practitioners
55,sg:c5efe7250a0d48d0ac32996001bf81d6,-112.112399,33.436426000000004,40130927191,4,True,False,-112.2812047,33.5166774,Automotive Repair and Maintenance
56,sg:c3c20071b4da488cbe0c396b11b4983f,-112.273351,33.509853,40130927191,12,True,True,-112.2812047,33.5166774,"Sporting Goods, Hobby, and Musical Instrument Stores"
57,sg:86ea782791824c3ea63e57a0ebba17d7,-112.204725,33.496069,40130927191,7,True,True,-112.2812047,33.5166774,Specialty Food Stores
58,sg:3ac8666c48ff42f2b9e1c66459e49cf5,-112.12761,33.527257,40131166031,4,True,False,-112.21789199999999,33.3834224,Services to Buildings and Dwellings
59,sg:dc0eeae561764b5fb40c2d1fcc9a54dd,-112.14015400000001,33.513746000000005,40131166031,4,True,False,-112.21789199999999,33.3834224,Amusement Parks and Arcades
60,sg:9c8e94b01b9541629086bce84bee1265,-112.13509199999999,33.448116999999996,40131166031,5,True,True,-112.21789199999999,33.3834224,Restaurants and Other Eating Places
61,sg:238e58a29f224e34b73de571e3a516ee,-112.13476399999999,33.510349,40131166031,6,True,True,-112.21789199999999,33.3834224,Restaurants and Other Eating Places
62,sg:c30d1cea39d44849ae851fd4f85aab20,-112.07314,33.481761999999996,40131166031,4,True,False,-112.21789199999999,33.3834224,Depository Credit Intermediation
63,sg:b8e5a0f7d8a94d779aad47445fc343fc,-112.106649,33.508326000000004,40131166031,5,True,True,-112.21789199999999,33.3834224,Restaurants and Other Eating Places
64,sg:0dd4d81795c94464b5b7bb2aca50a4aa,-112.07430900000001,33.413287,40131166031,4,True,False,-112.21789199999999,33.3834224,Religious Organizations
65,sg:752fe95059444bdaa653ade37484a760,-111.99214099999999,33.495269,40131166031,7,True,True,-112.21789199999999,33.3834224,Restaurants and Other Eating Places
66,sg:24acc8d417d540d195cdbfae3990bbe3,-112.072702,33.481276,40131166031,5,True,True,-112.21789199999999,33.3834224,Restaurants and Other Eating Places
67,sg:b28e1d4038964911ae380d18386b02f0,-112.23725900000001,33.507975,40131166031,5,True,True,-112.21789199999999,33.3834224,Gasoline Stations
68,sg:433e59b1d4e146fba1e5078f6554b00b,-112.188156,33.465571999999995,40131166031,5,True,True,-112.21789199999999,33.3834224,Child Day Care Services
69,sg:7ff83ac3d293473cbb4aa0ac2fd4e4f9,-112.10811799999999,33.50696,40131166031,4,True,False,-112.21789199999999,33.3834224,Child Day Care Services
70,sg:4b0e3f4c03c94b9fa83d12da4b89c326,-112.072829,33.480893,40131166031,4,True,False,-112.21789199999999,33.3834224,Depository Credit Intermediation
71,sg:3c5a487db87148fab18daccf20cccf5c,-112.017804,33.57495,40131115011,4,True,False,-112.02567240000002,33.4685018,"Accounting, Tax Preparation, Bookkeeping, and Payroll Services"
72,sg:721b974682c54cceb4a53c015c8c33cd,-112.029987,33.495733,40131115011,4,True,False,-112.02567240000002,33.4685018,Offices of Physicians
73,sg:2bd887d7898b472abd5a8e1409930330,-112.014273,33.480123,40131115011,4,True,False,-112.02567240000002,33.4685018,Other Miscellaneous Store Retailers
74,sg:08912d12f8de41f6bab583e0c0ed7027,-112.01409699999999,33.480119,40131115011,4,True,False,-112.02567240000002,33.4685018,Restaurants and Other Eating Places
75,sg:c0ebd10c5a1b48fdb8e2fd3d8d7f3f80,-112.039302,33.472633,40131115011,6,True,True,-112.02567240000002,33.4685018,Restaurants and Other Eating Places
76,sg:f940145488c440c0b6fa5ef1c7204bc9,-112.02411599999999,33.466097,40131115011,4,True,False,-112.02567240000002,33.4685018,Health and Personal Care Stores
77,sg:092ef7592ace47859bd318ecbc0b8c88,-112.02394,33.462864,40131115011,4,True,False,-112.02567240000002,33.4685018,Other Miscellaneous Store Retailers
78,sg:d85524a74a564e268e6ee68a70e118db,-112.03086299999998,33.459111,40131115011,6,True,True,-112.02567240000002,33.4685018,Lessors of Real Estate
79,sg:52dcee3d648c46aca3b819aabd1cfd53,-111.99614,33.4799,40131115011,5,True,True,-112.02567240000002,33.4685018,Restaurants and Other Eating Places
80,sg:9e5e0f67628c4000adf506f5ed68970b,-112.013148,33.465463,40131115011,4,True,False,-112.02567240000002,33.4685018,Restaurants and Other Eating Places
81,sg:1f86fb1144b34a9a80bd097389098e74,-112.06748400000001,33.477003,40131115011,4,True,False,-112.02567240000002,33.4685018,Offices of Physicians
82,sg:405ef69a12a34747bb38c6a323ac35d3,-112.09856299999998,33.639583,40131055033,4,True,False,-112.1012735,33.558772600000005,"Automotive Parts, Accessories, and Tire Stores"
83,sg:f24221f6cfc74afb83e83940ed712d5d,-112.120414,33.597853,40131055033,4,True,False,-112.1012735,33.558772600000005,Other Miscellaneous Store Retailers
84,sg:fc32c19d050b4ec1a92317474116b670,-112.04026299999998,33.477996999999995,40131055033,6,True,True,-112.1012735,33.558772600000005,Health and Personal Care Stores
85,sg:0745022ca8264c679ba4a67f570ee006,-112.09721499999999,33.541638,40131055033,4,True,False,-112.1012735,33.558772600000005,Home Health Care Services
86,sg:1672103657b746faa2ffea883b11c547,-112.028878,33.447486,40131055033,4,True,False,-112.1012735,33.558772600000005,Restaurants and Other Eating Places
87,sg:407461af7b0242e9a43d71842e7688e7,-112.100076,33.552857,40131055033,5,True,True,-112.1012735,33.558772600000005,Restaurants and Other Eating Places
88,sg:4d568ae852dd4b80ae682c96e87c4b8b,-112.068852,33.452923999999996,40131055033,5,True,True,-112.1012735,33.558772600000005,Restaurants and Other Eating Places
89,sg:255e6ea176e04a1baff486f1878d6641,-112.15016299999999,33.567923,40131055033,4,True,False,-112.1012735,33.558772600000005,Building Material and Supplies Dealers
90,sg:e42da16827eb49f89c88f12e6f6cae39,-112.029721,33.446912,40131055033,4,True,False,-112.1012735,33.558772600000005,"Automotive Parts, Accessories, and Tire Stores"
91,sg:7a4600e396d442f78d7bb92265c4a1e6,-112.09508500000001,33.564145,40131055033,6,True,True,-112.1012735,33.558772600000005,Warehousing and Storage
92,sg:4439a5da79ab49e18cfbfed1954eec50,-112.01933700000001,33.574502,40131055033,5,True,True,-112.1012735,33.558772600000005,Other Amusement and Recreation Industries
93,sg:8cb2baa51edf4f9ba51ef1c2a8413b32,-112.09885600000001,33.562809,40131055033,4,True,False,-112.1012735,33.558772600000005,Elementary and Secondary Schools
94,sg:73bb2e52a99b4e2db2c9fd03ea21e413,-112.04784599999999,33.524134000000004,40131055033,4,True,False,-112.1012735,33.558772600000005,Restaurants and Other Eating Places
95,sg:f1c884fce5754e5d91787ee2dd10db1a,-112.101156,33.554235999999996,40131055033,5,True,True,-112.1012735,33.558772600000005,"General Merchandise Stores, including Warehouse Clubs and Supercenters"
96,sg:0c5f2dc896b14080bb13b3fbe63a59ec,-112.09886599999999,33.567145000000004,40131055033,4,True,False,-112.1012735,33.558772600000005,"Automotive Parts, Accessories, and Tire Stores"
97,sg:4325e2eb82f0425c9a5e7405518a00b5,-111.973295,33.312882,40138100001,4,True,False,-111.95836489999999,33.3292784,Other Amusement and Recreation Industries
98,sg:99860c0ac95640f0836eb2436f8e5b2e,-111.979603,33.330709000000006,40138100001,4,True,False,-111.95836489999999,33.3292784,Depository Credit Intermediation
99,sg:e4b4558e2eb74001b9124bc4f104e4a1,-111.974653,33.31927,40138100001,7,True,True,-111.95836489999999,33.3292784,Restaurants and Other Eating Places
100,sg:ac651171a3364dbcbf7461eed6e42851,-111.985694,33.363122,40138100001,4,True,False,-111.95836489999999,33.3292784,"Museums, Historical Sites, and Similar Institutions"
101,sg:09cfe0363efc49579042c142456e4c8f,-111.95736699999999,33.321249,40138100001,12,True,True,-111.95836489999999,33.3292784,"Museums, Historical Sites, and Similar Institutions"
102,sg:2b1eb3be57624cdfb74874cb6e222aa5,-111.991042,33.47996,40138100001,4,True,False,-111.95836489999999,33.3292784,Other Amusement and Recreation Industries
103,sg:47670c74803d423ebf6b601802186d2c,-112.05031899999999,33.465996999999994,40136146002,4,True,False,-112.1317628,33.6793238,Restaurants and Other Eating Places
104,sg:a428105d6f8d4885b7127fdfa296cccf,-111.995,33.479732,40136146002,6,True,True,-112.1317628,33.6793238,Restaurants and Other Eating Places
105,sg:62ddd90ac1644f3191aa84c6adba6606,-112.116243,33.521646000000004,40136146002,4,True,False,-112.1317628,33.6793238,Elementary and Secondary Schools
106,sg:30df9e6eade446d09a7e71d1fe10de1d,-112.08414099999999,33.672107000000004,40136146002,4,True,False,-112.1317628,33.6793238,Services to Buildings and Dwellings
107,sg:58de683ab5544e259731d6a60eca30e6,-112.064232,33.59499,40136146002,4,True,False,-112.1317628,33.6793238,Other Amusement and Recreation Industries
108,sg:ebdc931d0adb4b01ba32167bf8073f57,-112.134133,33.683284,40136146002,9,True,True,-112.1317628,33.6793238,Gasoline Stations
109,sg:31bf39b25dcd4c7c96e6f8912504dc97,-112.11511200000001,33.562634,40136146002,4,True,False,-112.1317628,33.6793238,Other Personal Services
110,sg:6b0b59be4b2d49399552e130b90bcbee,-112.134014,33.683184000000004,40136146002,5,True,True,-112.1317628,33.6793238,Grocery Stores
111,sg:513f66840d6e4784b66e3de12cbf59cb,-112.07440700000001,33.470896999999994,40131118003,4,True,False,-112.078349,33.4766529,Educational Support Services
112,sg:c37ee2349d154a048fdc745bc95f40fa,-112.08063200000001,33.479989,40131118003,4,True,False,-112.078349,33.4766529,Restaurants and Other Eating Places
113,sg:4bf57423a7e447d7aa0b371abf98e2b9,-112.07435500000001,33.464359,40131118003,4,True,False,-112.078349,33.4766529,Restaurants and Other Eating Places
114,sg:9023a55941e74d10b516cfc4b7c88ef3,-112.03060500000001,33.472809000000005,40131118003,5,True,True,-112.078349,33.4766529,Building Material and Supplies Dealers
115,sg:54d5c49925bd4efcbffa98bb6edc30d8,-112.071545,33.506003,40131118003,4,True,False,-112.078349,33.4766529,Elementary and Secondary Schools
116,sg:04dc73228b664a87a3961018c14055b6,-112.065701,33.488095,40131118003,4,True,False,-112.078349,33.4766529,Used Merchandise Stores
117,sg:6fc871a1facb49dc91551d1dd1bbe0e0,-112.086748,33.455216,40131118003,4,True,False,-112.078349,33.4766529,Restaurants and Other Eating Places
118,sg:bf2d3ccc148048c99d592a4a2ad94b02,-112.074669,33.474251,40131118003,4,True,False,-112.078349,33.4766529,Restaurants and Other Eating Places
119,sg:769a69b6e8df46e7acc43ec5f096b0ad,-112.07443899999998,33.490465,40131118003,4,True,False,-112.078349,33.4766529,"Executive, Legislative, and Other General Government Support"
120,sg:ae5f365095b04dea987311c3358f4bb0,-112.07333600000001,33.505897999999995,40131118003,4,True,False,-112.078349,33.4766529,Book Stores and News Dealers
121,sg:6273b921572e45ad80a5ab8a1bf40369,-112.134073,33.674533000000004,40136145001,4,False,False,-112.122735,33.6883304,Religious Organizations
122,sg:9d4094faf5ab4d21b2ea88f38b09f7db,-112.13401,33.625621,40136145001,4,False,False,-112.122735,33.6883304,Other Miscellaneous Store Retailers
123,sg:ad1714495b4b4e2a8ef1af6b03489933,-112.020849,33.509168,40136145001,4,False,False,-112.122735,33.6883304,Other Financial Investment Activities
124,sg:3b81652776f54e03b598f8b93d8c1c2a,-112.125192,33.692865000000005,40136145001,4,False,False,-112.122735,33.6883304,Building Equipment Contractors
125,sg:83b1f608a14e4d018af546c031f6c6ec,-112.111576,33.686797999999996,40136145001,4,False,False,-112.122735,33.6883304,Specialized Freight Trucking
126,sg:68ca99cf7262461e9eccd5d1e46b6d22,-112.13273500000001,33.568062,40131125092,4,True,False,-112.227911,33.4635125,"Museums, Historical Sites, and Similar Institutions"
127,sg:a30ea92582fd4bc99bcfe25996bb4d42,-112.11003899999999,33.52482,40131125092,7,True,True,-112.227911,33.4635125,Lessors of Real Estate
128,sg:57232d7fb1b8437aaf5a97de7aa18b5c,-112.121885,33.638631,40131125092,4,True,False,-112.227911,33.4635125,Building Material and Supplies Dealers
129,sg:36077efa1837408e8479a29422dfbb7d,-112.051496,33.479862,40131125092,4,True,False,-112.227911,33.4635125,Clothing Stores
130,sg:001408633dc94d3888ab8b00aace0cb4,-112.039902,33.507678000000006,40131125092,4,True,False,-112.227911,33.4635125,Restaurants and Other Eating Places
131,sg:4894536d4bd045aea338795776324352,-112.073728,33.514706,40131125092,4,True,False,-112.227911,33.4635125,Personal Care Services
132,sg:9d59d268800a4040a2961e971da754cf,-112.25750500000001,33.480077,40131125092,6,True,True,-112.227911,33.4635125,Restaurants and Other Eating Places
133,sg:fa25668e2b8040ff9bb0a76a8e2a1ebb,-112.239567,33.466934,40131125092,9,True,True,-112.227911,33.4635125,Gasoline Stations
134,sg:beaaa5e04e694307b6d13b4989486cd3,-112.013392,33.502069,40131125092,4,True,False,-112.227911,33.4635125,Offices of Physicians
135,sg:301338f2da4d43c7be4a3cce5b5ce94d,-112.02938999999999,33.475389,40131125092,4,True,False,-112.227911,33.4635125,Home Health Care Services
136,sg:f29f66108d0f48f28802055a027618cc,-112.221126,33.480509999999995,40131125092,6,True,True,-112.227911,33.4635125,Restaurants and Other Eating Places
137,sg:3c31aae312d44279a9aa16850864a3d9,-112.223605,33.470758000000004,40131125092,59,True,True,-112.227911,33.4635125,"General Merchandise Stores, including Warehouse Clubs and Supercenters"
138,sg:e4a2d7b24b2442cabc31dbcdf0d2f97a,-112.21688300000001,33.494194,40131125092,5,True,True,-112.227911,33.4635125,Other Motor Vehicle Dealers
139,sg:39782ee2b4994212bdd174da4ecf2204,-112.21931799999999,33.479673,40131125092,4,True,False,-112.227911,33.4635125,Restaurants and Other Eating Places
140,sg:f19289ad7b8d493e863f425b867c549e,-112.228812,33.470715999999996,40131125092,5,True,True,-112.227911,33.4635125,Warehousing and Storage
141,sg:89f05b73834f48babe267519e553902a,-112.22120100000001,33.47676,40131125092,4,True,False,-112.227911,33.4635125,Restaurants and Other Eating Places
142,sg:9feb96daca064f968e2a7ca3aee64b5c,-112.116349,33.567074,40131125092,4,True,False,-112.227911,33.4635125,Restaurants and Other Eating Places
143,sg:0775d6ef45204fcc9027d157c837a2b9,-112.239581,33.467113,40131125092,11,True,True,-112.227911,33.4635125,"General Merchandise Stores, including Warehouse Clubs and Supercenters"
144,sg:d58b0ed17ab349298b90e9a6b5abf109,-112.221341,33.465972,40131125092,5,True,True,-112.227911,33.4635125,Restaurants and Other Eating Places
145,sg:64b8754a2e6546b9baf91d061aab79ed,-112.235674,33.464290999999996,40131125092,64,True,True,-112.227911,33.4635125,Support Activities for Road Transportation
146,sg:a475dfb5008344e3a74a2ff73e1ffb4c,-112.227374,33.471315999999995,40131125092,10,True,True,-112.227911,33.4635125,Support Activities for Road Transportation
147,sg:df2ede97e9464a898e5ddb69e7eb9189,-112.221094,33.467332,40131125092,5,True,True,-112.227911,33.4635125,Restaurants and Other Eating Places
148,sg:34f4e830b4c0460bbd33d3c201d801f3,-112.225596,33.464601,40131125092,11,True,True,-112.227911,33.4635125,Building Material and Supplies Dealers
149,sg:0a2ec50e7ac94c8f9c18ad70229547b8,-112.16761399999999,33.466741,40131125092,4,True,False,-112.227911,33.4635125,Offices of Physicians
150,sg:8b2b617daf2847e2afa12ff038e74b40,-112.22023100000001,33.473307,40131125092,7,True,True,-112.227911,33.4635125,Automotive Repair and Maintenance
151,sg:d2b3d67af8394765b458b4d33b6cd62e,-112.22618600000001,33.469831,40131125092,4,True,False,-112.227911,33.4635125,Other Personal Services
152,sg:316718475cc0469f9866359e0f70326b,-112.223041,33.46903,40131125092,10,True,True,-112.227911,33.4635125,"General Merchandise Stores, including Warehouse Clubs and Supercenters"
153,sg:477bd239ff1445a4920470754951a6bc,-112.22118600000002,33.469179,40131125092,8,True,True,-112.227911,33.4635125,Restaurants and Other Eating Places
154,sg:3978e3ed6a764884ae95043f00bfb4a4,-112.22248300000001,33.469335,40131125092,84,True,True,-112.227911,33.4635125,Lessors of Real Estate
155,sg:d8b1d4e8f47a471aaa8e0289c1ccf9b0,-112.220027,33.475431,40131125092,4,True,False,-112.227911,33.4635125,Restaurants and Other Eating Places
156,sg:2b25bad1068c4292947c5e12208afc3e,-111.979398,33.675697,40131125092,4,True,False,-112.227911,33.4635125,Offices of Physicians
157,sg:81bef243058e481e991184ec6d503654,-112.22008600000001,33.479455,40131125092,7,True,True,-112.227911,33.4635125,Restaurants and Other Eating Places
158,sg:6525ceac5e474f4eb81d8292498c57fe,-112.23693200000001,33.464783000000004,40131125092,48,True,True,-112.227911,33.4635125,Gasoline Stations
159,sg:17e405554c984e1dae80bebb910bc844,-112.00783700000001,33.582910999999996,40131125092,4,True,False,-112.227911,33.4635125,Building Equipment Contractors
160,sg:18fbc2bde21847a5b0749e2b259717e2,-112.221176,33.477540000000005,40131125092,10,True,True,-112.227911,33.4635125,Restaurants and Other Eating Places
161,sg:4b2436ccccba48d2bef6fe642336bde6,-112.21993700000002,33.466203,40131125092,13,True,True,-112.227911,33.4635125,Grocery Stores
162,sg:735972da6e5840798317d5922e2fd5b3,-111.97334099999999,33.480344,40131111002,4,True,False,-111.9737889,33.481888399999995,Florists
163,sg:7512a06160924bd1ba3bb713ba7233ba,-111.97833,33.58572,40131111002,4,True,False,-111.9737889,33.481888399999995,Offices of Physicians
164,sg:d2adecdf06b2413b982963246219ca3b,-111.969945,33.480371999999996,40131111002,4,True,False,-111.9737889,33.481888399999995,Restaurants and Other Eating Places
165,sg:29ad2715b67c4b139199d40980415fb3,-111.974461,33.480334,40131111002,4,True,False,-111.9737889,33.481888399999995,Lessors of Real Estate
166,sg:8a1610886038444b8cbba04fcda461d7,-111.997925,33.480717,40131111002,4,True,False,-111.9737889,33.481888399999995,"Automotive Parts, Accessories, and Tire Stores"
167,sg:558f860bef404456bd8c5b85d87bcfce,-111.973224,33.480289,40131111002,6,True,True,-111.9737889,33.481888399999995,Florists
168,sg:8da60ddd99be42e686d44339de82051c,-111.99426799999999,33.479738,40131111002,8,True,True,-111.9737889,33.481888399999995,Restaurants and Other Eating Places
169,sg:ac89cfe14982481c8177c5f41f4f8ae3,-111.970449,33.47984,40131111002,4,True,False,-111.9737889,33.481888399999995,Other Miscellaneous Store Retailers
170,sg:8af64c47603947c9898b5c26bd69ede2,-111.99833000000001,33.479919,40131111002,4,True,False,-111.9737889,33.481888399999995,Shoe Stores
171,sg:7a69e28c9e614b948cc20267d05b2b3b,-112.27371699999999,33.506038000000004,40130610112,9,True,True,-112.3324415,33.514858600000004,Other Miscellaneous Store Retailers
172,sg:df33d05407a44aa2aa50e0ca674e7a9e,-112.274149,33.507103,40130610112,11,True,True,-112.3324415,33.514858600000004,Building Material and Supplies Dealers
173,sg:09e66913bb8845158f097e705677e328,-112.274515,33.506847,40130610112,8,True,True,-112.3324415,33.514858600000004,Building Material and Supplies Dealers
174,sg:9874be752d68433dba38522ecd39579b,-112.132732,33.476323,40130610112,4,True,False,-112.3324415,33.514858600000004,Furniture Stores
175,sg:1864fa8c943949a896a221745fdc4988,-112.074046,33.435314,40130610112,4,True,False,-112.3324415,33.514858600000004,Restaurants and Other Eating Places
176,sg:10cdfebc554b44f2bb5219789c7d8129,-112.03506000000002,33.614805,40130610112,4,True,False,-112.3324415,33.514858600000004,Used Merchandise Stores
177,sg:763167ec270b4f159844bc3fbd46ce24,-112.15073999999998,33.499262,40130610112,4,True,False,-112.3324415,33.514858600000004,Bakeries and Tortilla Manufacturing
178,sg:78d99fb374f641878eb0cab3cace17f9,-112.273847,33.506638,40130610112,36,True,True,-112.3324415,33.514858600000004,Lessors of Real Estate
179,sg:8ab10406181947ebb23ae0ccc6434612,-112.15083,33.500732,40130610112,4,True,False,-112.3324415,33.514858600000004,Couriers and Express Delivery Services
180,sg:625dae30ca0e4f65bd2d085cd456e74b,-112.271875,33.507670000000005,40130610112,15,True,True,-112.3324415,33.514858600000004,Grocery Stores
181,sg:65b92cd126f84505b5483e409ae1eb00,-112.108079,33.702690999999994,40130610112,4,True,False,-112.3324415,33.514858600000004,"Executive, Legislative, and Other General Government Support"
182,sg:7a9f0ba4844a44ac9708d41e3d610ec9,-111.989507,33.599928999999996,40132168132,6,False,True,-111.9167801,33.569857,Book Stores and News Dealers
183,sg:5e752a44fa374055962f097b88c201c6,-111.97679299999999,33.602142,40132168132,4,False,False,-111.9167801,33.569857,"General Merchandise Stores, including Warehouse Clubs and Supercenters"
184,sg:83142066e61f43e1b59c1f120a3a9b24,-112.143619,33.658559999999994,40136163001,7,True,True,-112.14588290000002,33.663750799999995,Electronics and Appliance Stores
185,sg:d5f2836523db4559ada90f592aac0ac3,-112.104993,33.685395,40136163001,5,True,True,-112.14588290000002,33.663750799999995,Home Furnishings Stores
186,sg:1656e3e5b9b24e929212bfade287f180,-112.13271599999999,33.655671000000005,40136163001,4,True,False,-112.14588290000002,33.663750799999995,Restaurants and Other Eating Places
187,sg:a181c783fce14fb2803317a8fe841929,-112.102029,33.576808,40136163001,5,True,True,-112.14588290000002,33.663750799999995,Building Material and Supplies Dealers
188,sg:5ea78133dc2d42f0b8c4965b051da2ac,-112.133403,33.511047999999995,40136163001,5,True,True,-112.14588290000002,33.663750799999995,Restaurants and Other Eating Places
189,sg:c6cf0aeb36ef4c0c941333e200f40a78,-112.074781,33.683043,40136163001,4,True,False,-112.14588290000002,33.663750799999995,Home Furnishings Stores
190,sg:879ba419bc2e492f9f3073a73a6ad5e5,-112.025396,33.654344,40136195001,5,True,True,-112.02652090000001,33.651431,Medical and Diagnostic Laboratories
191,sg:304b7f0f89cf43d3817de003343c9033,-112.02998999999998,33.65113,40136195001,5,True,True,-112.02652090000001,33.651431,Services to Buildings and Dwellings
192,sg:63bc449133154156bfc0bc0482b829bf,-112.02405800000001,33.64715,40136195001,4,True,False,-112.02652090000001,33.651431,Building Material and Supplies Dealers
193,sg:869bf22b4aae45709a261957aeb53440,-112.03524499999999,33.611464,40136195001,4,True,False,-112.02652090000001,33.651431,"Other Professional, Scientific, and Technical Services"
194,sg:45b3652335524c199613ba724c9e7d9a,-111.99524,33.627266999999996,40136195001,4,True,False,-112.02652090000001,33.651431,"Sporting Goods, Hobby, and Musical Instrument Stores"
195,sg:08c15352e3a24ce0bd76aa4770727b92,-112.118153,33.643001,40136195001,4,True,False,-112.02652090000001,33.651431,"Machinery, Equipment, and Supplies Merchant Wholesalers"
196,sg:49c522c71d1646d2b87c74110e841875,-112.00991499999999,33.626647999999996,40136195001,4,True,False,-112.02652090000001,33.651431,Automotive Repair and Maintenance
197,sg:ed9238bf87c24560b35e0427edc955c1,-112.009235,33.626602,40136195001,4,True,False,-112.02652090000001,33.651431,Restaurants and Other Eating Places
198,sg:9fa156999e8e4dcdad583a84903859d9,-111.99743500000001,33.610788,40131033021,4,True,False,-112.0043945,33.6224932,Other Amusement and Recreation Industries
199,sg:4f27feecb27d4244a28acd94837241ec,-112.046603,33.639841,40131033021,4,True,False,-112.0043945,33.6224932,Other Amusement and Recreation Industries
200,sg:0c950cdc037d4135a351296815656a8e,-112.013869,33.624664,40131033021,6,True,True,-112.0043945,33.6224932,Restaurants and Other Eating Places
201,sg:7f36b595c78b4d16bff31cbd3a617f32,-111.99847,33.611518,40131033021,6,True,True,-112.0043945,33.6224932,Restaurants and Other Eating Places
202,sg:d03c7b40f2e0487191ed3a13d5d8fe2b,-111.997658,33.610932,40131033021,4,True,False,-112.0043945,33.6224932,Offices of Dentists
203,sg:85b56fdcbe26402b9357dcf70c02bcd2,-112.081748,33.438931,40131033021,4,True,False,-112.0043945,33.6224932,Elementary and Secondary Schools
204,sg:13d4df339d814d8d90a6d3c2ad8a9347,-111.978197,33.619089,40131033021,4,True,False,-112.0043945,33.6224932,Offices of Real Estate Agents and Brokers
205,sg:9afd98f4ff9a45d8968b119af17a683c,-111.994565,33.625984,40131033021,7,True,True,-112.0043945,33.6224932,Gasoline Stations
206,sg:6a293be8c52b416e85942c6e362ce000,-111.998526,33.611557,40131033021,4,True,False,-112.0043945,33.6224932,Restaurants and Other Eating Places
207,sg:8baed16bb2344897a535b8fcc13ae939,-111.995274,33.627235,40131033021,4,True,False,-112.0043945,33.6224932,Restaurants and Other Eating Places
208,sg:cdc7c25214f342c3842de10268e1a34e,-112.10120900000001,33.712183,40131033021,4,True,False,-112.0043945,33.6224932,"Automotive Parts, Accessories, and Tire Stores"
209,sg:d0de48863e004411bbdbe6cf35737d4f,-112.000997,33.622572,40131033021,4,True,False,-112.0043945,33.6224932,Restaurants and Other Eating Places
210,sg:d948ace1fdf547b3aec20318b0e69603,-112.021025,33.640259,40131033021,4,True,False,-112.0043945,33.6224932,Restaurants and Other Eating Places
211,sg:ec9d48607b674b56b5ce8fe53593337c,-111.97746799999999,33.636853,40131033021,4,True,False,-112.0043945,33.6224932,Health and Personal Care Stores
212,sg:980a748804314ece8bc6b92c9cf67469,-111.99569299999999,33.626723999999996,40131033021,11,True,True,-112.0043945,33.6224932,"Sporting Goods, Hobby, and Musical Instrument Stores"
213,sg:d1849ed88aef46ee958eb59f05831012,-112.031223,33.629902,40131033021,4,True,False,-112.0043945,33.6224932,Restaurants and Other Eating Places
214,sg:ae2bfbee16dc44e4ac452baa89b0f31c,-112.11883700000001,33.581346999999994,40131043011,6,True,True,-112.1289347,33.593592,Restaurants and Other Eating Places
215,sg:87d462969818467db307fb48b60792c4,-112.12241100000001,33.583295,40131043011,5,True,True,-112.1289347,33.593592,"Sporting Goods, Hobby, and Musical Instrument Stores"
216,sg:57464a22489e4db685900ef779ccea02,-112.030735,33.480693,40131043011,4,True,False,-112.1289347,33.593592,Restaurants and Other Eating Places
217,sg:21f7f0687a3640ce90e70c26660d9c5a,-112.13633200000001,33.595808,40131043011,4,True,False,-112.1289347,33.593592,Elementary and Secondary Schools
218,sg:39411e4752474b9eb6db604733eeeebc,-112.13636100000001,33.595838,40131043011,4,True,False,-112.1289347,33.593592,Child Day Care Services
219,sg:1aa9bc104aae427b9ce1c03f1f23078c,-112.11944299999999,33.597044,40131043011,7,True,True,-112.1289347,33.593592,Gasoline Stations
220,sg:b45dd4cdc232444e9cdc69f49e77683f,-111.998875,33.306971000000004,40131167131,4,False,False,-111.99910359999998,33.3018649,Personal Care Services
221,sg:8323555ded4a465292457290dc3e184e,-111.991782,33.304797,40131167131,4,False,False,-111.99910359999998,33.3018649,Offices of Physicians
222,sg:58fef02158594eeaa5bf2039e0f0434a,-111.97321799999999,33.313333,40131167131,4,False,False,-111.99910359999998,33.3018649,"Sporting Goods, Hobby, and Musical Instrument Stores"
223,sg:e174fa2705cd419294c52a7b4f4adef7,-111.983597,33.298631,40131167131,5,False,True,-111.99910359999998,33.3018649,Child Day Care Services
224,sg:f52a245947e040edb67364dddb6a7a88,-111.99343300000001,33.301088,40131167131,4,False,False,-111.99910359999998,33.3018649,Other Schools and Instruction
225,sg:b9100ab1662b43e2b7cd1715ae09b09d,-112.134832,33.639187,40131042191,4,True,False,-112.1584558,33.604733700000004,Depository Credit Intermediation
226,sg:20a8f03bb5f0403281f2589919a3503e,-112.120478,33.437158000000004,40131042191,4,True,False,-112.1584558,33.604733700000004,Automobile Dealers
227,sg:99a528bbdaad481dbffc5a7d0fb9f175,-112.11221200000001,33.479758000000004,40131042191,5,True,True,-112.1584558,33.604733700000004,Restaurants and Other Eating Places
228,sg:2003adec2bcf43d8b1befa1ead288525,-112.15196399999999,33.595996,40131042191,5,True,True,-112.1584558,33.604733700000004,Grocery Stores
229,sg:539c32959afc4b5686aeb0704539f023,-112.21444299999999,33.578374,40131042191,9,True,True,-112.1584558,33.604733700000004,"Museums, Historical Sites, and Similar Institutions"
230,sg:e8c8b5e305ef4fa99c433ef2b02b5cac,-111.742299,33.273509999999995,40131042191,6,True,True,-112.1584558,33.604733700000004,Other Amusement and Recreation Industries
231,sg:ebc5dc39538548e4809ecfebc9030c09,-112.118835,33.609737,40131042191,4,True,False,-112.1584558,33.604733700000004,Restaurants and Other Eating Places
232,sg:2b31ef24742e48e5bfc1acdbee6be8c9,-112.06687099999999,33.567232000000004,40131042191,4,True,False,-112.1584558,33.604733700000004,Death Care Services
233,sg:bd127f87e53a496e9a162b505eb355ec,-112.20322,33.423564,40131125131,10,True,True,-112.19966880000001,33.4291106,Health and Personal Care Stores
234,sg:86b22b1e45dc4242915d69d689bc0179,-111.99480600000001,33.44785,40131125131,4,True,False,-112.19966880000001,33.4291106,Lumber and Other Construction Materials Merchant Wholesalers
235,sg:50cad4f3abdd4f6f924011a292a5a312,-112.18998899999998,33.458597,40131125131,4,True,False,-112.19966880000001,33.4291106,Automotive Repair and Maintenance
236,sg:c55feb7698e740a5af0d716ab9ea7e0f,-112.086257,33.509002,40131125131,4,True,False,-112.19966880000001,33.4291106,Home Furnishings Stores
237,sg:ef57d036510647b3aa11725f0e2e077b,-112.094467,33.437016,40131125131,5,True,True,-112.19966880000001,33.4291106,Electronics and Appliance Stores
238,sg:aeca91a9478148ba80e281ba126bf373,-112.07413100000001,33.502762,40131125131,4,True,False,-112.19966880000001,33.4291106,Other Personal Services
239,sg:c0dd599da0714495b2cfc4b3639e8dc2,-112.072566,33.510315000000006,40131125131,4,True,False,-112.19966880000001,33.4291106,Furniture Stores
240,sg:658536e844bc4284abf9b49435935bfa,-112.17215700000001,33.501909000000005,40131125131,4,True,False,-112.19966880000001,33.4291106,Offices of Physicians
241,sg:86aef1b13a3b4cc191fdb434741e4383,-112.177035,33.459598,40131125131,4,True,False,-112.19966880000001,33.4291106,Health and Personal Care Stores
242,sg:6a373cf2d3ce4990a0821668ef88182d,-112.128405,33.451965,40131125131,4,True,False,-112.19966880000001,33.4291106,Offices of Physicians
243,sg:b877ca899cf74d5299289cecc3be9e32,-111.987424,33.483641,40131125131,4,True,False,-112.19966880000001,33.4291106,Personal Care Services
244,sg:15f7002722ad42f2af43b6f7ca26d459,-112.204085,33.432651,40131125131,4,True,False,-112.19966880000001,33.4291106,Automobile Dealers
245,sg:3a9d725fcfab49ca85516951d66dce45,-112.224171,33.424224,40131125131,10,True,True,-112.19966880000001,33.4291106,Lessors of Real Estate
246,sg:6ff2ec1d37b144d59f484693f5462767,-112.22133899999999,33.47415,40131125131,4,True,False,-112.19966880000001,33.4291106,Health and Personal Care Stores
247,sg:4ebed431c3174e489e9fe2df91c9656e,-112.220246,33.422339,40131125131,4,True,False,-112.19966880000001,33.4291106,Restaurants and Other Eating Places
248,sg:0fc5aa7577114d0d996c94a18f159849,-112.061838,33.396411,40131125131,4,True,False,-112.19966880000001,33.4291106,Elementary and Secondary Schools
249,sg:be1cf56e414943ecb4ee71e939a559ea,-112.078806,33.458892,40131130001,4,False,False,-112.07822990000001,33.4622312,Restaurants and Other Eating Places
250,sg:c1d117ec7cd5462e8eedaf71af0129a2,-112.077091,33.458813,40131130001,4,False,False,-112.07822990000001,33.4622312,Restaurants and Other Eating Places
251,sg:9e701fcea06945b5bc3c44d404807fc8,-112.088532,33.539235999999995,40131130001,4,False,False,-112.07822990000001,33.4622312,Child Day Care Services
252,sg:1f379ef2f9fd4c719ce9d56ea9cfe41b,-112.07680400000001,33.463883,40131130001,6,False,True,-112.07822990000001,33.4622312,Motion Picture and Video Industries
253,sg:c1dc4f44542747ff970df573af406191,-112.065126,33.616945,40131042171,4,False,False,-112.1727717,33.6215266,Automotive Repair and Maintenance
254,sg:59090840fc5749ed8b72cc456b39f372,-112.134355,33.598978,40131042171,4,False,False,-112.1727717,33.6215266,Restaurants and Other Eating Places
255,sg:386c7b833e3b45f7ae868dc6c73bd0db,-112.003409,33.317523,40131042171,4,False,False,-112.1727717,33.6215266,Other Amusement and Recreation Industries
256,sg:a967db2a7d244e6687e489fd300f69f1,-112.08448899999999,33.56824,40131042171,4,False,False,-112.1727717,33.6215266,Child Day Care Services
257,sg:24a0e6c74f79464ca3e9381cd34ae13e,-112.05686499999999,33.706431,40131042171,4,False,False,-112.1727717,33.6215266,"Museums, Historical Sites, and Similar Institutions"
258,sg:c322d4315bb34439909f55db1cff78bc,-112.143376,33.624177,40130405182,4,False,False,-112.4442062,33.7603594,Child Day Care Services
259,sg:791fc81daa8f41c095ae51bdeee29d88,-112.08742099999999,33.506845,40130405182,4,False,False,-112.4442062,33.7603594,Elementary and Secondary Schools
260,sg:da375f9c311944589f1a5c190684a747,-112.02963899999999,33.422977,40130405182,4,False,False,-112.4442062,33.7603594,Bakeries and Tortilla Manufacturing
261,sg:c26c68c61e2b49e3998cba9eb7291782,-112.029784,33.675691,40130405182,4,False,False,-112.4442062,33.7603594,Home Health Care Services
262,sg:43eb6077cbfe4b8f95fbd428b06786c6,-112.11660800000001,33.551706,40130405182,4,False,False,-112.4442062,33.7603594,Elementary and Secondary Schools
263,sg:d05cdcc4e7ce48d7ad3d74ed3e3b2c8f,-111.997759,33.39877,40130405183,4,False,False,-112.42562649999999,33.7279271,Building Material and Supplies Dealers
264,sg:5bf364aa1b0f4813a1d2c4e5f32addda,-112.09924,33.672577000000004,40130405183,4,False,False,-112.42562649999999,33.7279271,Offices of Physicians
265,sg:9672760487f04a8cba1999ed5f454a73,-112.100974,33.653187,40130405183,4,False,False,-112.42562649999999,33.7279271,Health and Personal Care Stores
266,sg:24719e9dd4bb452f9fb0e886195b69d5,-112.083978,33.684529,40130405183,6,False,True,-112.42562649999999,33.7279271,"Sporting Goods, Hobby, and Musical Instrument Stores"
267,sg:fc385b06a67f40919ecd8a22cde8aa96,-111.97346499999999,33.521435,40131079002,7,False,True,-111.9848332,33.5182571,"Electric Power Generation, Transmission and Distribution"
268,sg:7e55ddbe627f402d9c62e3263380ab54,-112.03084,33.50307,40131079002,4,False,False,-111.9848332,33.5182571,Child Day Care Services
269,sg:39bb2dfcdc634d7b85f46c9d12f2f990,-111.98219399999999,33.512563,40131079002,4,False,False,-111.9848332,33.5182571,Other Schools and Instruction
270,sg:4557632e31374089bafbe6e94d815999,-111.98657800000001,33.495384,40131079002,5,False,True,-111.9848332,33.5182571,Florists
271,sg:19f2adef18924c34aec391e59f153974,-112.016724,33.494453,40130929001,4,False,False,-112.17341189999999,33.531607799999996,Other Amusement and Recreation Industries
272,sg:09c2d88e34c94e4ea0349a920c5ee5e4,-112.082366,33.495206,40130929001,4,False,False,-112.17341189999999,33.531607799999996,Furniture Stores
273,sg:5b36f53eb8af4271af5c7dee9cfa3ea1,-112.10111299999998,33.701495,40130929001,4,False,False,-112.17341189999999,33.531607799999996,Automotive Repair and Maintenance
274,sg:bd231e97bedd4be6b17272955c6ab150,-112.140771,33.499992999999996,40130929001,4,False,False,-112.17341189999999,33.531607799999996,Waste Treatment and Disposal
275,sg:d3e20836b0174d909597a97a4e5e8d30,-112.22211499999999,33.495707,40130929001,4,False,False,-112.17341189999999,33.531607799999996,Restaurants and Other Eating Places
276,sg:1defeee7cca247c9abc1223c0bf1c491,-111.97393400000001,33.376195,40133197031,4,False,False,-111.970025,33.3822917,Other Financial Investment Activities
277,sg:00a6353db48847d893d377277c4cb0a6,-111.973803,33.376317,40133197031,4,False,False,-111.970025,33.3822917,Other Financial Investment Activities
278,sg:a351624cf07e491587da27d824ed5d8a,-111.97531699999999,33.385709999999996,40133197031,10,False,True,-111.970025,33.3822917,"Museums, Historical Sites, and Similar Institutions"
279,sg:33801408eca349cb86bf561ac92bb924,-112.103857,33.457679999999996,40133197031,4,False,False,-111.970025,33.3822917,"Office Supplies, Stationery, and Gift Stores"
280,sg:103ee56fead34fcd93fcd293551f4235,-112.010703,33.378912,40133197031,4,False,False,-111.970025,33.3822917,Other Amusement and Recreation Industries
281,sg:255930b2ba0f45d282dbd7182aa69d65,-112.02988400000001,33.481879,40131091023,4,True,False,-112.12794170000001,33.4983796,Restaurants and Other Eating Places
282,sg:3e1c62299f2c40e8b9c45364cdb078d2,-112.117648,33.508318,40131091023,4,True,False,-112.12794170000001,33.4983796,Postal Service
283,sg:47fd3d8293e0412d82623b13475db8c7,-112.141703,33.508214,40131091023,4,True,False,-112.12794170000001,33.4983796,Elementary and Secondary Schools
284,sg:080a6b8fb7864f65bbbcea045ae352b0,-112.129396,33.496894,40131091023,10,True,True,-112.12794170000001,33.4983796,Offices of Other Health Practitioners
285,sg:d4ca115f1cc944c8abee9df6bd4985f2,-112.16639199999999,33.465338,40131091023,4,True,False,-112.12794170000001,33.4983796,Traveler Accommodation
286,sg:d1d2b3d1f77b45138e74aebf4c0ce637,-112.117678,33.492562,40131091023,5,True,True,-112.12794170000001,33.4983796,Outpatient Care Centers
287,sg:27bab4bc342a4f4884877b9821db955c,-111.974538,33.317491,40134222123,4,False,False,-111.891901,33.36748239999999,Other Amusement and Recreation Industries
288,sg:23311f0b0ea34a7aa318a6f03b37398d,-112.071739,33.436259,40134222123,4,False,False,-111.891901,33.36748239999999,"Hardware, and Plumbing and Heating Equipment and Supplies Merchant Wholesalers"
289,sg:294f7e5d2fc14995ac9d84ed8f3b9386,-111.982091,33.597363,40131042023,4,False,False,-112.1469077,33.6143061,"Sporting Goods, Hobby, and Musical Instrument Stores"
290,sg:f61acf40c16d490c8bb0dd79fa1087b2,-112.12466599999999,33.638199,40131042023,4,False,False,-112.1469077,33.6143061,Home Health Care Services
291,sg:716ee1da91d64785a70e005bdcb846f7,-112.1318,33.640749,40131042023,4,False,False,-112.1469077,33.6143061,Building Material and Supplies Dealers
292,sg:fac61a89f6474bf4afe0e6eaf41cfd02,-112.100202,33.54788,40131042023,4,False,False,-112.1469077,33.6143061,Building Equipment Contractors
293,sg:c80b33767008405580033715d31fb544,-112.133977,33.626281,40131042023,4,False,False,-112.1469077,33.6143061,"Beer, Wine, and Liquor Stores"
294,sg:ce14c90417f6438cae51694270ff5612,-112.139812,33.625552,40131042023,4,False,False,-112.1469077,33.6143061,Offices of Dentists
295,sg:53bcdbd0bfed49e38d9fda9cb991dcf8,-112.152373,33.509073,40131042023,4,False,False,-112.1469077,33.6143061,Restaurants and Other Eating Places
296,sg:2d9e679910d9423399a89ec0f03f9414,-112.132078,33.609321,40131040004,27,True,True,-112.1295283,33.6072146,Grocery Stores
297,sg:11c3d541e6d4487e9fa193f866ec1dd0,-112.132935,33.608662,40131040004,5,True,True,-112.1295283,33.6072146,Child Day Care Services
298,sg:8319d35fa0464979a7a005b1f0a0bf5b,-112.102686,33.683234999999996,40131040004,5,True,True,-112.1295283,33.6072146,"Sporting Goods, Hobby, and Musical Instrument Stores"
299,sg:9382ebf4fae446b69a715abc7d5dcc2b,-112.131294,33.609321,40131040004,8,True,True,-112.1295283,33.6072146,"General Merchandise Stores, including Warehouse Clubs and Supercenters"
300,sg:d80f5b739f4a433eb0f75b717cf1acb7,-112.12916200000001,33.603138,40131040004,9,True,True,-112.1295283,33.6072146,Child Day Care Services
301,sg:e34b05e532c14ddcafc2e11540ef3555,-112.13316599999999,33.624798999999996,40131040004,7,True,True,-112.1295283,33.6072146,Gasoline Stations
302,sg:7fd60ec007cb415ba7d35a93e285c229,-112.13428400000001,33.611878999999995,40131040004,7,True,True,-112.1295283,33.6072146,Grocery Stores
303,sg:85b39cc343f846c2ae6931890c73a04f,-112.13355,33.589855,40131040004,4,True,False,-112.1295283,33.6072146,Religious Organizations
304,sg:8da973af876b45888b82b22656fe78b4,-112.120254,33.610397,40131040004,7,True,True,-112.1295283,33.6072146,Restaurants and Other Eating Places
305,sg:3bd33e6b4a984f0c81d0f9d0e823dfaa,-112.129551,33.602588,40131040004,5,True,True,-112.1295283,33.6072146,Elementary and Secondary Schools
306,sg:7a1c67754639457da7629d211aed693e,-112.13197,33.609795,40131040004,19,True,True,-112.1295283,33.6072146,Lessors of Real Estate
307,sg:53fb8d5ffcce4e41868a60245c4e0422,-112.11465,33.61234,40131040004,12,True,True,-112.1295283,33.6072146,Building Material and Supplies Dealers
308,sg:2d5d867617104768b0100aee67c81f46,-112.128701,33.604119,40131040004,4,True,False,-112.1295283,33.6072146,Religious Organizations
309,sg:1450025802fc4e998cef39f4b4e7d0b6,-112.12184199999999,33.60951,40131040004,11,True,True,-112.1295283,33.6072146,Building Material and Supplies Dealers
310,sg:f11b3639b0234eb68e09ee808a6398b2,-112.13093400000001,33.609844,40131040004,13,True,True,-112.1295283,33.6072146,Department Stores
311,sg:2e7a0f2b16394d809c508cde5ab0ad3c,-112.092656,33.638374,40131036041,12,True,True,-112.09316319999999,33.634118,"General Merchandise Stores, including Warehouse Clubs and Supercenters"
312,sg:3dd142b57e914c42bed3eaa76809ac92,-112.105102,33.625941,40131036041,4,True,False,-112.09316319999999,33.634118,Home Health Care Services
313,sg:d40979a63bb048e78aa3a05f0d7d40aa,-112.09810900000001,33.641781,40131036041,4,True,False,-112.09316319999999,33.634118,Other Amusement and Recreation Industries
314,sg:4b00eabbc4774676b7ba219488fde20f,-112.077891,33.625206,40131036041,4,True,False,-112.09316319999999,33.634118,Religious Organizations
315,sg:597031a2aba94208881d872e7195801a,-112.082838,33.506992,40131036041,4,True,False,-112.09316319999999,33.634118,Other Miscellaneous Store Retailers
316,sg:56dc895e0ebd475d9446b306facdf2d6,-112.09818500000002,33.627398,40131036041,6,True,True,-112.09316319999999,33.634118,Support Activities for Road Transportation
317,sg:09fd7bef35294ae99e95fa0615034ea0,-112.10909299999999,33.617661,40131036041,4,True,False,-112.09316319999999,33.634118,Elementary and Secondary Schools
318,sg:2df58f25cc7d4c33a6891f6a5d0f91ac,-112.081639,33.465521,40131036041,5,True,True,-112.09316319999999,33.634118,Restaurants and Other Eating Places
319,sg:e23fcead486e4cd1b641ccf68ac6f0af,-112.148027,33.525275,40131036041,5,True,True,-112.09316319999999,33.634118,Services to Buildings and Dwellings
320,sg:32e3703527cb4fd2bb0f1b2771a068ea,-112.09660900000002,33.638904,40131036041,8,True,True,-112.09316319999999,33.634118,Traveler Accommodation
321,sg:37934f94561046918f53be82f7b401c9,-112.15025700000001,33.567906,40131056023,6,True,True,-112.13176729999999,33.5568533,Building Material and Supplies Dealers
322,sg:df1f23c595854ec987a166395de68cd3,-112.006654,33.639615,40131056023,4,True,False,-112.13176729999999,33.5568533,Clothing Stores
323,sg:3919956c0ed143f094e2d61f5be8ab1c,-112.120699,33.581515,40131056023,6,True,True,-112.13176729999999,33.5568533,Restaurants and Other Eating Places
324,sg:05d653d7dc4542b4aae3b7dd27d62d19,-112.101032,33.497064,40131056023,4,True,False,-112.13176729999999,33.5568533,Building Material and Supplies Dealers
325,sg:4a1433fca46f45c1afc8f5fe101f5f7c,-112.11306100000002,33.714686,40131056023,4,True,False,-112.13176729999999,33.5568533,Restaurants and Other Eating Places
326,sg:71e597af77aa4f8e94df985c65a99b9a,-112.133874,33.557606,40131056023,7,True,True,-112.13176729999999,33.5568533,Building Equipment Contractors
327,sg:831ca68cb38e4a27906a3933bd0c5b0f,-112.132833,33.60411,40131056023,4,True,False,-112.13176729999999,33.5568533,Religious Organizations
328,sg:3aab7fba49cb4fe4bd8fb8f8f6fef247,-112.11488700000001,33.520639,40131056023,4,True,False,-112.13176729999999,33.5568533,Religious Organizations
329,sg:304a3fec9021466997a19f8cb8cd2b65,-112.120277,33.64289,40131056023,4,True,False,-112.13176729999999,33.5568533,Other Amusement and Recreation Industries
330,sg:f2cb019a3bb54b4d84c25a878036b383,-112.046833,33.378181,40131056023,4,True,False,-112.13176729999999,33.5568533,Nondepository Credit Intermediation
331,sg:cbf76e3076df42d9ab918bca6954feb9,-112.15126699999999,33.496004,40131056023,4,True,False,-112.13176729999999,33.5568533,Grocery Stores
332,sg:b3fc8b4bd0b24e9293f2702c116843e9,-112.07468999999999,33.45013,40131056023,4,True,False,-112.13176729999999,33.5568533,Restaurants and Other Eating Places
333,sg:29aa7c3828ed4027b8cd33c10d266fd6,-112.13491200000001,33.554173,40131056023,4,True,False,-112.13176729999999,33.5568533,"Sporting Goods, Hobby, and Musical Instrument Stores"
334,sg:6db1e8ed8e114f4296d63d233ae6ecfb,-112.196253,33.441763,40131056023,4,True,False,-112.13176729999999,33.5568533,"Office Supplies, Stationery, and Gift Stores"
335,sg:e2b63507ee574d02a2219c3f8804bcf7,-112.132549,33.556725,40131056023,17,True,True,-112.13176729999999,33.5568533,Other Miscellaneous Manufacturing
336,sg:8f81888121004ff6a31a174e162ffa19,-111.989401,33.448772999999996,40131056023,4,True,False,-112.13176729999999,33.5568533,"Colleges, Universities, and Professional Schools"
337,sg:d0ac9e305cb04c58acf168ffd769ed65,-111.989377,33.44875,40131056023,4,True,False,-112.13176729999999,33.5568533,Junior Colleges
338,sg:4336f9f6c116401da37d67f3913dbc77,-112.112675,33.625704999999996,40131036082,6,True,True,-112.11278659999999,33.629879700000004,Grocery Stores
339,sg:de8a83aaf65c4dba881a6f27eb871285,-112.11482,33.627359999999996,40131036082,10,True,True,-112.11278659999999,33.629879700000004,Other Amusement and Recreation Industries
340,sg:e6ca552336b94c0ba692a145a4f8be0f,-112.14845600000001,33.448205,40131036082,4,True,False,-112.11278659999999,33.629879700000004,"General Merchandise Stores, including Warehouse Clubs and Supercenters"
341,sg:17881a04e7034381ae1214960a04a2e2,-111.996682,33.424673,40131036082,4,True,False,-112.11278659999999,33.629879700000004,Offices of Physicians
342,sg:3a57c6a09c554187a43bacaa09a76348,-112.06508000000001,33.656525,40131036082,6,True,True,-112.11278659999999,33.629879700000004,"Beer, Wine, and Liquor Stores"
343,sg:6b6449caa69c4184a1f598fdb2a637de,-112.107955,33.678946,40131036082,8,True,True,-112.11278659999999,33.629879700000004,"Beer, Wine, and Liquor Stores"
344,sg:2f7b5b216277474387023e91a6306d5b,-112.083773,33.441508,40131036082,4,True,False,-112.11278659999999,33.629879700000004,Drycleaning and Laundry Services
345,sg:489d2679a6ee4f2199ed7af252225de0,-112.08651599999999,33.681179,40131032093,4,True,False,-111.957682,33.587699,Offices of Real Estate Agents and Brokers
346,sg:99197ff29eec4fa69990f3e62a10a57e,-111.97923700000001,33.602686,40131032093,5,True,True,-111.957682,33.587699,Restaurants and Other Eating Places
347,sg:0cb2fdf7677e413a90eb268cee84bb35,-111.92631200000001,33.655683,40131032093,6,True,True,-111.957682,33.587699,Restaurants and Other Eating Places
348,sg:634f0d0e6d4b4a83a9f985e952e12ddf,-111.97635700000001,33.585073,40131032093,16,True,True,-111.957682,33.587699,Lessors of Real Estate
349,sg:7934fcf99d46459f97c3e917cf9a9672,-112.06551699999999,33.52336,40131032093,4,True,False,-111.957682,33.587699,Restaurants and Other Eating Places
350,sg:ba431f304f4f4705b46a8c8337c97a3c,-112.03490500000001,33.50985,40131032093,4,True,False,-111.957682,33.587699,Building Equipment Contractors
351,sg:4732860c95cb41d6a5924569cced8be4,-111.979031,33.580945,40131032093,15,True,True,-111.957682,33.587699,"Jewelry, Luggage, and Leather Goods Stores"
352,sg:3f6245c1b71f434d8b093743d2a45547,-111.978654,33.600304,40131032093,4,True,False,-111.957682,33.587699,"Sporting Goods, Hobby, and Musical Instrument Stores"
353,sg:56212253259649caafe40316fb35ae1c,-111.995497,33.639809,40131032093,6,True,True,-111.957682,33.587699,Restaurants and Other Eating Places
354,sg:5bb404539a7741d384e937cf978d224f,-111.97671899999999,33.600846000000004,40131032093,4,True,False,-111.957682,33.587699,Electronics and Appliance Stores
355,sg:43b69429494f459d994313e907b6e376,-112.014137,33.632564,40131032093,4,True,False,-111.957682,33.587699,"Office Supplies, Stationery, and Gift Stores"
356,sg:10dc7a77ac88455c8ca8188b4a19bcb4,-112.07308,33.567442,40131032093,4,True,False,-111.957682,33.587699,Restaurants and Other Eating Places
357,sg:5cf6e5bbbc424e978b643f50c3287ab3,-111.97893899999998,33.599431,40131032093,20,True,True,-111.957682,33.587699,Lessors of Real Estate
358,sg:60d866de1f0b4faaa601a8851d9d590e,-111.97928,33.596431,40131032093,19,True,True,-111.957682,33.587699,Lessors of Real Estate
359,sg:66dd95803e564b9d93be44e91018f46d,-111.977301,33.585837,40131032093,8,True,True,-111.957682,33.587699,Health and Personal Care Stores
360,sg:2722b13477bf4dd7841280fcf4938ac3,-111.979073,33.584506,40131032093,8,True,True,-111.957682,33.587699,Lessors of Real Estate
361,sg:5535bd3457b947b89856a45d6ba94b7e,-111.934868,33.649503,40136152001,6,True,True,-111.9410953,33.6785364,Depository Credit Intermediation
362,sg:f8a0078f0f904550af035d79c01652d7,-111.98285600000001,33.637696999999996,40136152001,4,True,False,-111.9410953,33.6785364,Automobile Dealers
363,sg:5d6973e2c20c47cabc451e9afcd445e6,-111.92708700000001,33.653696000000004,40136152001,20,True,True,-111.9410953,33.6785364,Restaurants and Other Eating Places
364,sg:38ba641d75724d82b841fca850ff3ee9,-111.929686,33.657267,40136152001,19,True,True,-111.9410953,33.6785364,Lessors of Real Estate
365,sg:e522e38d75874013a46e1af94344bb02,-111.93213100000001,33.651157,40136152001,6,True,True,-111.9410953,33.6785364,Services to Buildings and Dwellings
366,sg:cfb9340177fb42648630ec920fbe47ff,-111.93232900000001,33.648524,40136152001,8,True,True,-111.9410953,33.6785364,Depository Credit Intermediation
367,sg:a56343ccdb1b4824afbe61acc3da7e0f,-111.935551,33.650903,40136152001,6,True,True,-111.9410953,33.6785364,"Other Professional, Scientific, and Technical Services"
368,sg:9ab166d479ef4b0eaf6e3633ebb924f8,-111.92708400000001,33.653663,40136152001,8,True,True,-111.9410953,33.6785364,Grocery Stores
369,sg:1f03e9bb68b94c1dabdb796e2853aa46,-111.955817,33.658527,40136152001,18,True,True,-111.9410953,33.6785364,General Medical and Surgical Hospitals
370,sg:4e8f922fce8a4bf184bcce203d00ba41,-112.069322,33.445691,40136152001,4,True,False,-111.9410953,33.6785364,Restaurants and Other Eating Places
371,sg:375067e5694544eeab6d3e6b79a47561,-111.934697,33.653901,40136152001,6,True,True,-111.9410953,33.6785364,Depository Credit Intermediation
372,sg:44c1f83f8d1c4613b75cbb0ede766040,-111.97795900000001,33.725296,40136152001,4,True,False,-111.9410953,33.6785364,Offices of Physicians
373,sg:b649e84cd4b449369a40b6f6e771ae40,-112.152433,33.888087,40136152001,4,True,False,-111.9410953,33.6785364,Depository Credit Intermediation
374,sg:8e6e2590ca40436493b997a8ffa530c4,-111.929271,33.656090999999996,40136152001,4,True,False,-111.9410953,33.6785364,Other Amusement and Recreation Industries
375,sg:51ba460ef2b54f368eb654febf073d5d,-111.936548,33.658578000000006,40136152001,11,True,True,-111.9410953,33.6785364,Personal Care Services
376,sg:50cfba4ef82b4e6b88c29b9eafa59b11,-111.92756399999999,33.654436,40136152001,24,True,True,-111.9410953,33.6785364,Lessors of Real Estate
377,sg:d4741cf3148c434d8e1e5fe4b49d4ffb,-111.93625800000001,33.659653000000006,40136152001,7,True,True,-111.9410953,33.6785364,"Other Professional, Scientific, and Technical Services"
378,sg:e8420606188446a69a5e4beb6573d2c1,-111.956526,33.658561999999996,40136152001,9,True,True,-111.9410953,33.6785364,Offices of Physicians
379,sg:0e6c90e1d06c403a950edcae362fb039,-112.07713400000002,33.479962,40136152001,6,True,True,-111.9410953,33.6785364,Restaurants and Other Eating Places
380,sg:c606940f7ba442829679c8a134ebc8e3,-111.98605,33.511856,40136152001,4,True,False,-111.9410953,33.6785364,Depository Credit Intermediation
381,sg:7557f179db6c4fccb3b8fd9798c67612,-111.928446,33.653758,40136152001,5,True,True,-111.9410953,33.6785364,Other Miscellaneous Store Retailers
382,sg:aac14ac5fbb847148717d1028c5aa663,-111.92929299999999,33.655698,40136152001,5,True,True,-111.9410953,33.6785364,Restaurants and Other Eating Places
383,sg:0b93c8d7620648c6851bf299acaab083,-111.92666100000001,33.653728,40136152001,4,True,False,-111.9410953,33.6785364,Home Furnishings Stores
384,sg:6a8f03f30eb8482ca6f5be607e9f0736,-112.15125900000001,33.481327,40131126023,4,True,False,-112.14752209999999,33.460182,Restaurants and Other Eating Places
385,sg:58db48451176431a89995b11d7259fba,-112.15271399999999,33.464079999999996,40131126023,11,True,True,-112.14752209999999,33.460182,Grocery Stores
386,sg:794fbf25540f4283a42684bc122cc34d,-112.13608799999999,33.450857,40131126023,4,True,False,-112.14752209999999,33.460182,Restaurants and Other Eating Places
387,sg:7809014b7aea46b6891c04f1f95d0949,-112.10023600000001,33.510836,40131126023,4,True,False,-112.14752209999999,33.460182,Elementary and Secondary Schools
388,sg:3f95d4978d2c4979a32fcc3714ae2910,-112.10028100000001,33.510839000000004,40131126023,4,True,False,-112.14752209999999,33.460182,Child Day Care Services
389,sg:a5d77ae26c404aabbea6fe0bfa04b4fd,-111.988947,33.461426,40131126023,7,True,True,-112.14752209999999,33.460182,Elementary and Secondary Schools
390,sg:32ae8272bdbb467dba63883be18172ba,-112.07866299999999,33.457814,40131126023,4,True,False,-112.14752209999999,33.460182,Personal Care Services
391,sg:6dced8c0835d43959433df63678c5abc,-112.113339,33.70704,40131060022,4,True,False,-112.10181159999999,33.5494807,Traveler Accommodation
392,sg:24001236bb494d3e81911128026f353e,-112.10042299999999,33.548626,40131060022,4,True,False,-112.10181159999999,33.5494807,Other Personal Services
393,sg:0044f5de31884289993684004ff04de3,-112.130724,33.679536,40131060022,4,True,False,-112.10181159999999,33.5494807,Lumber and Other Construction Materials Merchant Wholesalers
394,sg:5bf062b5eba146929df6f3549e1e71fa,-112.071905,33.450933,40131060022,4,True,False,-112.10181159999999,33.5494807,Other Personal Services
395,sg:9a927678b7c44fb2a03a95b198149884,-112.099098,33.539081,40131060022,8,True,True,-112.10181159999999,33.5494807,Grocery Stores
396,sg:4092fb9e19f7445db9a8351ba2cbb7a1,-112.100402,33.55192,40131060022,4,True,False,-112.10181159999999,33.5494807,Traveler Accommodation
397,sg:e9f88a881e744c7ea778badecc5cf45f,-112.097928,33.52232,40131060022,6,True,True,-112.10181159999999,33.5494807,"General Merchandise Stores, including Warehouse Clubs and Supercenters"
398,sg:1852a8b4d03f4488a53e2bb2f2676313,-112.149526,33.490429,40131060022,4,True,False,-112.10181159999999,33.5494807,Building Material and Supplies Dealers
399,sg:c7383acf72304fd8a2eec22c1c6d607c,-112.07264599999999,33.552328,40131060022,4,True,False,-112.10181159999999,33.5494807,Elementary and Secondary Schools
400,sg:53be75b157bb4476a1b5747716a52a61,-112.121936,33.552398,40131060022,4,True,False,-112.10181159999999,33.5494807,Religious Organizations
401,sg:aa061b1d9cd04437ab51a6606f8beb2b,-112.10121299999999,33.548619,40131060022,4,True,False,-112.10181159999999,33.5494807,Elementary and Secondary Schools
402,sg:77297386ca5449459cf096a69d077957,-112.00751799999999,33.466308000000005,40133197041,4,False,False,-111.970576,33.4141727,Depository Credit Intermediation
403,sg:5647a09ea4a24e8fba84e79ab2707190,-111.99591000000001,33.654328,40133197041,4,False,False,-111.970576,33.4141727,"Agencies, Brokerages, and Other Insurance Related Activities"
404,sg:e660c0eeab124f63a34e1f5d1ac11994,-111.979022,33.423812,40133197041,5,False,True,-111.970576,33.4141727,Traveler Accommodation
405,sg:9706627b176c4a59bbfdadc3d0ff2296,-112.00048600000001,33.406728,40133197041,4,False,False,-111.970576,33.4141727,Other Amusement and Recreation Industries
406,sg:392a528f46c5437e964e4dc699129278,-112.0806,33.3808,40133197041,4,False,False,-111.970576,33.4141727,Building Material and Supplies Dealers
407,sg:266fa7c76eef4315a0451056e5c5a6de,-112.04061399999999,33.481316,40133197041,4,False,False,-111.970576,33.4141727,Offices of Physicians
408,sg:114616c9729149909efdf9cb61e8cc05,-112.00585,33.495499,40133197041,4,False,False,-111.970576,33.4141727,Offices of Other Health Practitioners
409,sg:775cbf0facf44864bf0ebf0fb5eeb77c,-112.08163300000001,33.46606,40134226422,5,False,True,-111.63300509999999,33.368707799999996,Restaurants and Other Eating Places
410,sg:9f516bbdcfde416a8aadb56dce194dda,-112.05248200000001,33.476833,40134226422,4,False,False,-111.63300509999999,33.368707799999996,Religious Organizations
411,sg:a402369b774a43318f55564c7bcafbfc,-112.06479099999999,33.500054,40134226422,4,False,False,-111.63300509999999,33.368707799999996,Automotive Repair and Maintenance
412,sg:b6087a5f3a0549c7a12195296895d487,-112.073393,33.484266,40134226422,5,False,True,-111.63300509999999,33.368707799999996,Drycleaning and Laundry Services
413,sg:7e4124a79ece40e1a7124a963361495d,-112.135126,33.539904,40050008003,7,False,True,-111.6159136,35.200962100000005,"Museums, Historical Sites, and Similar Institutions"
414,sg:8c8d6d002af34e169fb8c40ecef38c79,-112.154109,33.495688,40130506111,4,True,False,-112.54600249999999,33.4049657,Restaurants and Other Eating Places
415,sg:91149ad8cfcf4d38967b241a596a9947,-112.152583,33.467078,40130506111,4,True,False,-112.54600249999999,33.4049657,"Automotive Parts, Accessories, and Tire Stores"
416,sg:1cd474f3d91f4940814004eabe08fcad,-112.064752,33.435594,40130506111,6,True,True,-112.54600249999999,33.4049657,Automotive Equipment Rental and Leasing
417,sg:e7a68eb5d1254737aa1624c37bea46f4,-112.221172,33.474109999999996,40130506111,4,True,False,-112.54600249999999,33.4049657,Offices of Dentists
418,sg:2f453011d2c947fca69c9b4ca765d8f1,-112.21988999999999,33.461104,40130506111,4,True,False,-112.54600249999999,33.4049657,Grocery Stores
419,sg:79a70df709114e53b282b6c7da93a393,-112.21871000000002,33.481178,40130506111,4,True,False,-112.54600249999999,33.4049657,Building Material and Supplies Dealers
420,sg:92b2c06bd4fd4360b94daa2770309f29,-112.107013,33.687761,40130506111,4,True,False,-112.54600249999999,33.4049657,Services to Buildings and Dwellings
421,sg:b1e0cf0778824989bcb8610b0b668efb,-112.117779,33.444331,40130506111,6,True,True,-112.54600249999999,33.4049657,Building Material and Supplies Dealers
422,sg:80c8144cd7834617bcd89963f7f590ca,-111.97603000000001,33.494883,40130506111,4,True,False,-112.54600249999999,33.4049657,Grocery Stores
423,sg:d2e19496a86740fab33c3aff467d8c8c,-112.09907199999999,33.487234,40130506111,4,True,False,-112.54600249999999,33.4049657,"Sporting Goods, Hobby, and Musical Instrument Stores"
424,sg:a904bfd75e1e4258a598c2efb1c026fa,-111.965608,33.675779,40130506111,4,True,False,-112.54600249999999,33.4049657,Other Miscellaneous Store Retailers
425,sg:9642a22e80fc4a879d91c431a8624feb,-111.975338,33.67709,40136152003,4,False,False,-111.97168459999999,33.6868833,Restaurants and Other Eating Places
426,sg:e927b322ab2442da9438d459f77da258,-112.00036599999999,33.677212,40136152003,4,False,False,-111.97168459999999,33.6868833,"Agencies, Brokerages, and Other Insurance Related Activities"
427,sg:ed828eb8c8e94127a91927ee6ba9375c,-111.99161200000002,33.495288,40136152003,4,False,False,-111.97168459999999,33.6868833,Restaurants and Other Eating Places
428,sg:2a4d3ff1ccf043d0ba47feaafe37e403,-111.978602,33.678067999999996,40136152003,4,False,False,-111.97168459999999,33.6868833,Restaurants and Other Eating Places
429,sg:87ab92136fcd421c9ea232c3e8b51e64,-112.007954,33.582986,40136152003,4,False,False,-111.97168459999999,33.6868833,Offices of Other Health Practitioners
430,sg:e8f467bb7d3f40c4aaab291665f1a45d,-111.98241000000002,33.639973,40136152003,4,False,False,-111.97168459999999,33.6868833,Restaurants and Other Eating Places
431,sg:afd8d4c7fdfa4a11add4ac97aafc52a9,-112.06260900000001,33.464965,40131167311,6,True,True,-112.10332269999999,33.2970346,Offices of Physicians
432,sg:0cff0c0178da48f1b8d42992f78e2aaa,-111.991352,33.305879,40131167311,4,True,False,-112.10332269999999,33.2970346,Restaurants and Other Eating Places
433,sg:b91094342cd5443390d403c8ed5569b8,-111.988703,33.320007000000004,40131167311,4,True,False,-112.10332269999999,33.2970346,Offices of Other Health Practitioners
434,sg:4809a24b56c54c19b8d322109dc0eb4c,-112.055025,33.306402,40131167311,5,True,True,-112.10332269999999,33.2970346,Restaurants and Other Eating Places
435,sg:d80036b3936c47a781366346429121cd,-112.073903,33.395109000000005,40131167311,4,True,False,-112.10332269999999,33.2970346,Elementary and Secondary Schools
436,sg:4e2ece81574c4c408f9429b107e8f423,-111.97815200000001,33.331390999999996,40131167311,4,True,False,-112.10332269999999,33.2970346,Restaurants and Other Eating Places
437,sg:49fa16c0b572467393e8e25d31da7d86,-111.99938999999999,33.306593,40131167311,4,True,False,-112.10332269999999,33.2970346,Child Day Care Services
438,sg:68959ce0509e4d6f9d1a7d4269bd8e35,-112.11854199999999,33.376625,40131167311,4,True,False,-112.10332269999999,33.2970346,Couriers and Express Delivery Services
439,sg:83892b3aecd74e8d8b7d345de2071667,-111.98643899999999,33.321172,40131167311,4,True,False,-112.10332269999999,33.2970346,Offices of Physicians
440,sg:c4f0ed3285ff4eb08451a7618bb35d1f,-112.05394199999999,33.307046,40131167311,4,True,False,-112.10332269999999,33.2970346,Health and Personal Care Stores
441,sg:6245ec0278014b479768ea43ac5e4e69,-111.982399,33.331945000000005,40131167311,5,True,True,-112.10332269999999,33.2970346,Other Amusement and Recreation Industries
442,sg:77cbeda1c7194cf888aec20e8e7e339c,-112.062674,33.292943,40131167311,5,True,True,-112.10332269999999,33.2970346,Postal Service
443,sg:7669e1f2e1cb408f8b43fb03759d6693,-111.982102,33.320436,40131167311,6,True,True,-112.10332269999999,33.2970346,Restaurants and Other Eating Places
444,sg:b8f2106336be4935aa5f0ff37effa299,-112.09172,33.304805,40131167311,4,True,False,-112.10332269999999,33.2970346,Restaurants and Other Eating Places
445,sg:b3c4719d46934043a0a5a311622c88c3,-112.149422,33.42467,40131166071,6,True,True,-112.123348,33.3990267,Couriers and Express Delivery Services
446,sg:c925c759f5724c29a75fd891499195fb,-112.129706,33.392502,40131166071,6,True,True,-112.123348,33.3990267,"Automotive Parts, Accessories, and Tire Stores"
447,sg:0d5bfaa2ac0e448e87ba27fd832bcb8a,-112.10744299999999,33.494346,40131166071,4,True,False,-112.123348,33.3990267,Gasoline Stations
448,sg:19cdffe711d64392903380a3bf880969,-112.153605,33.509063,40131166071,5,True,True,-112.123348,33.3990267,Restaurants and Other Eating Places
449,sg:0fbf038f9f9b4b4597fb5017559a9222,-112.07398,33.446344,40131166071,5,True,True,-112.123348,33.3990267,Restaurants and Other Eating Places
450,sg:dd0c8348de6e4382bd8bd4f0ccf09d31,-112.099877,33.391913,40131166071,9,True,True,-112.123348,33.3990267,Gasoline Stations
451,sg:f8e8f0ef172744e2b403dba1be8973fe,-112.13686499999999,33.390547,40131166071,39,True,True,-112.123348,33.3990267,"General Merchandise Stores, including Warehouse Clubs and Supercenters"
452,sg:da79d171dff24348b7113fb488ce35ff,-112.134675,33.398812,40131166071,4,True,False,-112.123348,33.3990267,Religious Organizations
453,sg:21a982c7164147c088f118565fbebaa6,-112.150415,33.480835,40131166071,5,True,True,-112.123348,33.3990267,Florists
454,sg:4f6c673d5a3646ec85275d2495838236,-112.13490300000001,33.40205,40131166071,4,True,False,-112.123348,33.3990267,Building Material and Supplies Dealers
455,sg:54b5c13fccf349278339783cf09301dd,-112.035471,33.639671,40131166071,5,True,True,-112.123348,33.3990267,Automobile Dealers
456,sg:9bd3f7b9d7a94a948472cfe415dd335c,-112.11683000000001,33.392928999999995,40131166071,5,True,True,-112.123348,33.3990267,Restaurants and Other Eating Places
457,sg:301b6bdf4b7c41f8b4ce39700b6cb656,-112.132994,33.390977,40131166071,4,True,False,-112.123348,33.3990267,Automotive Repair and Maintenance
458,sg:2841b41236b74d6d86f2270278ad2d11,-112.125289,33.494217,40131166071,4,True,False,-112.123348,33.3990267,Used Merchandise Stores
459,sg:7758bdd7920f42dc8d63e75e3c2eafe0,-112.113868,33.523731,40131166071,4,True,False,-112.123348,33.3990267,Restaurants and Other Eating Places
460,sg:3ec9eaf972b8480786ba49e73057cf39,-112.132346,33.392792,40131166071,4,True,False,-112.123348,33.3990267,Restaurants and Other Eating Places
461,sg:709ab02894634918b902b0fc8c3df943,-112.132893,33.392699,40131166071,11,True,True,-112.123348,33.3990267,Health and Personal Care Stores
462,sg:0d2a3d0356a64e99ae661f877a6dd10c,-112.120455,33.450881,40131166071,5,True,True,-112.123348,33.3990267,Nondepository Credit Intermediation
463,sg:5c79e233a8e44d4c8c5fb393d13c2069,-112.134224,33.389393,40131166071,4,True,False,-112.123348,33.3990267,Restaurants and Other Eating Places
464,sg:39b2a99b8fa04a3ca12e2edbdc1cde3c,-112.063533,33.513507000000004,40131166071,4,True,False,-112.123348,33.3990267,Other Miscellaneous Store Retailers
465,sg:1a42cc32fb554d3bb08c7e6e621e56ea,-112.029051,33.39379,40131166071,4,True,False,-112.123348,33.3990267,"Automotive Parts, Accessories, and Tire Stores"
466,sg:2355db75f3914fee9ae9af92e2e54792,-112.25353700000001,33.478489,40131166071,4,True,False,-112.123348,33.3990267,Offices of Physicians
467,sg:1c8a18bd929b49bbbf9e38b5dabe8984,-112.126368,33.393021000000005,40131166071,4,True,False,-112.123348,33.3990267,Personal Care Services
468,sg:654db484fc684a41a98fe359a534621f,-112.135147,33.421898,40131166071,7,True,True,-112.123348,33.3990267,Grocery Stores
469,sg:cc8d37b00fa845208773bdc52643a071,-112.09843300000001,33.653492,40136109002,4,True,False,-112.27603020000001,33.7215586,Grocery Stores
470,sg:00f56222826547deb4c2732fe8d6e916,-111.976998,33.64298,40136109002,4,True,False,-112.27603020000001,33.7215586,Automotive Repair and Maintenance
471,sg:3ab92f625b3d4f33a1f73673f1aa87c3,-112.06546599999999,33.606790999999994,40136109002,4,True,False,-112.27603020000001,33.7215586,Restaurants and Other Eating Places
472,sg:80a52794f33140cab70a1612f4ac9ef4,-111.989126,33.511284,40136109002,4,True,False,-112.27603020000001,33.7215586,Junior Colleges
473,sg:8d8bfcbb23814d8ba2c0cc8bee53d854,-112.089679,33.426947,40136109002,4,True,False,-112.27603020000001,33.7215586,Automobile Dealers
474,sg:c4d5fa56185d40e399f398a3485f0197,-112.10242,33.576806,40136109002,4,True,False,-112.27603020000001,33.7215586,Clothing Stores
475,sg:6b9cb8d53c854b88964e7b5fd9c8ef23,-112.10531100000001,33.509803000000005,40136109002,4,True,False,-112.27603020000001,33.7215586,Automobile Dealers
476,sg:d4526f7a2f79466ea146058caa81566c,-112.09281200000001,33.683339000000004,40136109002,5,True,True,-112.27603020000001,33.7215586,Restaurants and Other Eating Places
477,sg:03421b9af69c4c36ad3b33f6afce37eb,-112.119646,33.7971,40136109002,4,True,False,-112.27603020000001,33.7215586,"Agencies, Brokerages, and Other Insurance Related Activities"
478,sg:bad66f77294f4d368446058522320a2e,-112.054418,33.439277000000004,40136109002,4,True,False,-112.27603020000001,33.7215586,Restaurants and Other Eating Places
479,sg:cd3b5b46d93a468286b5a8abe71d05a2,-112.064553,33.528687,40136109002,4,True,False,-112.27603020000001,33.7215586,Other Amusement and Recreation Industries
480,sg:c723da91f53c4a86b4d9843e962044c8,-111.99804499999999,33.637526,40136109002,4,True,False,-112.27603020000001,33.7215586,Offices of Other Health Practitioners
481,sg:810c334fa7984f1682bcbf124120d5cd,-111.976821,33.682961999999996,40136109002,4,True,False,-112.27603020000001,33.7215586,"Justice, Public Order, and Safety Activities"
482,sg:c1eba1db991b4d37955620f22f08f866,-112.072731,33.405388,40136109002,5,True,True,-112.27603020000001,33.7215586,Depository Credit Intermediation
483,sg:2e9b5d4f8dd541eabe277e439960ab87,-112.04165900000001,33.592128,40136109002,4,True,False,-112.27603020000001,33.7215586,Other Personal Services
484,sg:46290fa69cf441a6939ce1e7ae0b9a11,-112.051748,33.582898,40136109002,4,True,False,-112.27603020000001,33.7215586,Restaurants and Other Eating Places
485,sg:d5d0ee7239ce4df2a37cf1136be35c25,-111.9796,33.596070000000005,40130405273,4,False,False,-112.42251940000001,33.646159999999995,Health and Personal Care Stores
486,sg:3ba53646ff684f1792ccc43c24109c97,-111.97458300000001,33.358525,40130405273,4,False,False,-112.42251940000001,33.646159999999995,Depository Credit Intermediation
487,sg:960dec32a56f4fc9a8e2e82bf5bd7f37,-112.16833500000001,33.466302,40130405273,4,False,False,-112.42251940000001,33.646159999999995,Restaurants and Other Eating Places
488,sg:efee028354924fba83a4f3ec12f33966,-111.972623,33.451223999999996,40130405273,4,False,False,-112.42251940000001,33.646159999999995,Social Advocacy Organizations
489,sg:9137db3baec14d19aa684a7e7ea537f7,-112.165949,33.465144,40130405273,4,False,False,-112.42251940000001,33.646159999999995,Outpatient Care Centers
490,sg:40524cef55cd43d78f2f3760ef38fedf,-112.18421699999999,33.489017,40130405273,4,False,False,-112.42251940000001,33.646159999999995,Elementary and Secondary Schools
491,sg:e2d6f2e1ae0541afa584183cc9165692,-112.145766,33.804443,40137233041,4,False,False,-112.3848902,33.2214078,"General Merchandise Stores, including Warehouse Clubs and Supercenters"
492,sg:7b6d7e8c94554c72877f7e34a78df370,-112.033847,33.466246000000005,40137233041,4,False,False,-112.3848902,33.2214078,Miscellaneous Durable Goods Merchant Wholesalers
493,sg:850b43bf1e0449f69d6e382d2fbd4ccf,-112.033166,33.505975,40137233041,4,False,False,-112.3848902,33.2214078,Offices of Physicians
494,sg:38f85841ea3e4fb988583de4f294b5e8,-112.25307099999999,33.480531,40137233041,4,False,False,-112.3848902,33.2214078,Restaurants and Other Eating Places
495,sg:615192fa7dc840088a37e8b3c2c86a66,-112.083323,33.525093,40137233041,6,False,True,-112.3848902,33.2214078,Religious Organizations
496,sg:f16c3fa7442444d79317a637e9c53b85,-112.074703,33.449870000000004,40131033061,4,True,False,-112.02756570000001,33.629811600000004,Restaurants and Other Eating Places
497,sg:6a59dcfeb0c643d6a1623b1f71af9422,-112.151036,33.523565000000005,40131033061,6,True,True,-112.02756570000001,33.629811600000004,Gasoline Stations
498,sg:95f4436776ab49389855e76134d093be,-112.030153,33.628412,40131033061,4,True,False,-112.02756570000001,33.629811600000004,Restaurants and Other Eating Places
499,sg:1e19ade33e894c02b5d9c4c4b7007d03,-112.083382,33.606832,40131033061,4,True,False,-112.02756570000001,33.629811600000004,Home Health Care Services
500,sg:91100ae6f7d648e994cada793ad67f0c,-112.034714,33.633693,40131033061,4,True,False,-112.02756570000001,33.629811600000004,Religious Organizations
501,sg:d2b385f3acac4777a310890070056950,-112.029831,33.626884000000004,40131033061,4,True,False,-112.02756570000001,33.629811600000004,Restaurants and Other Eating Places
502,sg:090ec4c171814bc2aa66a8ac428d8cd5,-112.134134,33.630362,40131033061,4,True,False,-112.02756570000001,33.629811600000004,Health and Personal Care Stores
503,sg:cffede5bb77044c6b62741cf617c26a8,-112.025502,33.630390999999996,40131033061,4,True,False,-112.02756570000001,33.629811600000004,Continuing Care Retirement Communities and Assisted Living Facilities for the Elderly
504,sg:693f65abd7384657874578a8d739153b,-112.030281,33.622524,40131033061,4,True,False,-112.02756570000001,33.629811600000004,Offices of Dentists
505,sg:eb92b83d3d06462b8a2e434f7f329393,-112.080853,33.681885,40131033061,4,True,False,-112.02756570000001,33.629811600000004,"Museums, Historical Sites, and Similar Institutions"
506,sg:63a1331ecb07407c9eb2d7268e81396b,-112.02741699999999,33.631885,40131033061,4,True,False,-112.02756570000001,33.629811600000004,Services to Buildings and Dwellings
507,sg:f1edb88aab264721b2050e8222194181,-112.115398,33.56687,40131042153,4,False,False,-112.19036240000001,33.6355029,Restaurants and Other Eating Places
508,sg:f1f2d2321cc248bda6bf0715248bd6c3,-112.13962,33.488074,40131091022,4,True,False,-112.1213035,33.4985792,Elementary and Secondary Schools
509,sg:7e869036523e47a5b68c31a2f8c7b272,-112.130248,33.494176,40131091022,4,True,False,-112.1213035,33.4985792,Specialty Food Stores
510,sg:91c22d5ab1754463941ca3023f2d6346,-112.140708,33.445269,40131091022,4,True,False,-112.1213035,33.4985792,Furniture Stores
511,sg:2ae58fd788fb4cb4bfec83cf735da301,-111.996401,33.509533000000005,40131091022,4,True,False,-112.1213035,33.4985792,Other Amusement and Recreation Industries
512,sg:a0ccc20cca4945b6b727a764aa13213c,-112.124311,33.501123,40131091022,4,True,False,-112.1213035,33.4985792,Building Material and Supplies Dealers
513,sg:df9dda7154ee4a549b7459fc9e30bbdc,-112.11554199999999,33.510681,40131091022,4,True,False,-112.1213035,33.4985792,Offices of Other Health Practitioners
514,sg:b8b39a50f4eb4b7ab7bb84b25315cc0d,-112.049598,33.466071,40131091022,4,True,False,-112.1213035,33.4985792,Used Merchandise Stores
515,sg:eb05669f62024dd4b41ed4a6d7a56814,-112.013428,33.511052,40131091022,4,True,False,-112.1213035,33.4985792,Restaurants and Other Eating Places
516,sg:e1e73bbd6e8f4fa39bf4743bc6f209c4,-112.12963700000002,33.495501000000004,40131091022,6,True,True,-112.1213035,33.4985792,"General Merchandise Stores, including Warehouse Clubs and Supercenters"
517,sg:bd36712afa0a4c8586dd68b982ad4d17,-112.053969,33.491283,40131091022,4,True,False,-112.1213035,33.4985792,Offices of Other Health Practitioners
518,sg:d42cdc5aaa9e451f959d7fe1ffb1653d,-112.116468,33.508371000000004,40131091022,4,True,False,-112.1213035,33.4985792,Grocery Stores
519,sg:aeb5a2c2092647fa885ededafbc328ce,-112.096042,33.510145,40131091022,5,True,True,-112.1213035,33.4985792,Restaurants and Other Eating Places
520,sg:45f1832f0de44d659af877bf104e2501,-112.083849,33.523511,40131091022,4,True,False,-112.1213035,33.4985792,Offices of Physicians
521,sg:d581f9e3870e437dbfa0349e436e87df,-112.12205,33.494422,40131091022,4,True,False,-112.1213035,33.4985792,Other Amusement and Recreation Industries
522,sg:64f2bb49dd5043a899935dba572f78cf,-112.12931100000002,33.49343,40131091022,7,True,True,-112.1213035,33.4985792,Electronics and Appliance Stores
523,sg:c2a6d4f5d0a8451296c3549aeaae35bc,-112.119226,33.497283,40131091022,4,True,False,-112.1213035,33.4985792,Support Activities for Road Transportation
524,sg:711f59ba30f3467882e979a5be757125,-112.128522,33.493441,40131091022,20,True,True,-112.1213035,33.4985792,Lessors of Real Estate
525,sg:b4c0fc16dc6c469898f392f7d0bb0d5f,-112.07415300000001,33.448537,40131091022,4,True,False,-112.1213035,33.4985792,"Office Supplies, Stationery, and Gift Stores"
526,sg:3c674876b8f64c489032e296028cf264,-112.06478999999999,33.538976,40131091022,4,True,False,-112.1213035,33.4985792,Restaurants and Other Eating Places
527,sg:bb14bb60c2b042809ab5482347c198bd,-112.08435700000001,33.521124,40131091022,6,True,True,-112.1213035,33.4985792,Personal Care Services
528,sg:f4aaacc0f976493180ec74d93e0077aa,-112.074302,33.486990000000006,40136187002,4,True,False,-112.0956202,33.6510469,Continuing Care Retirement Communities and Assisted Living Facilities for the Elderly
529,sg:b03e4a48a2ff458aadd7365192593399,-112.09839099999999,33.653172,40136187002,4,True,False,-112.0956202,33.6510469,Restaurants and Other Eating Places
530,sg:8501dff091c24d6f865f56f9a966668c,-112.070423,33.639145,40136187002,6,True,True,-112.0956202,33.6510469,Restaurants and Other Eating Places
531,sg:010d54a301d34188aafdbe8900eebdd8,-112.12371100000001,33.666634,40136187002,4,True,False,-112.0956202,33.6510469,Restaurants and Other Eating Places
532,sg:ba8740abbaea45689828dce88f96a639,-112.11228600000001,33.640437,40136187002,4,True,False,-112.0956202,33.6510469,Restaurants and Other Eating Places
533,sg:4812944f9b24446caad2228c890c11d1,-112.09263500000002,33.65295,40136187002,4,True,False,-112.0956202,33.6510469,Child Day Care Services
534,sg:d7d55cc500d248bea35d03cec71d8633,-112.078975,33.682734,40136187002,4,True,False,-112.0956202,33.6510469,Wired and Wireless Telecommunications Carriers
535,sg:a2eff3b0a6d3456d86608003ad4b8cee,-112.079626,33.682871,40136187002,4,True,False,-112.0956202,33.6510469,Automotive Repair and Maintenance
536,sg:e4b2002a61444a1f8eb00c94a51f4f57,-112.083825,33.697635,40136187002,7,True,True,-112.0956202,33.6510469,Other Amusement and Recreation Industries
537,sg:f52059348931486384523ce364fb13de,-112.01746399999999,33.660428,40136170001,4,True,False,-112.0179334,33.65875020000001,Offices of Physicians
538,sg:c5f6eb79ac2148bca348e7461cc53e00,-112.019848,33.65402,40136170001,7,True,True,-112.0179334,33.65875020000001,Home Furnishings Stores
539,sg:2b0baede9f5c4d6f9d5d5743d864e3a7,-112.117628,33.641253999999996,40136170001,4,True,False,-112.0179334,33.65875020000001,Restaurants and Other Eating Places
540,sg:e8e27bf0454c4ddf87c5d9b49f5337e6,-112.031398,33.64424,40136170001,4,True,False,-112.0179334,33.65875020000001,Furniture Stores
541,sg:22eeb863e2a740bfb8b525c79238d4bf,-111.980512,33.62642,40136170001,4,True,False,-112.0179334,33.65875020000001,Offices of Dentists
542,sg:29247a183b744dbdb698a7765408d8be,-112.02711699999999,33.648002000000005,40136170001,4,True,False,-112.0179334,33.65875020000001,Printing and Related Support Activities
543,sg:6efc9674f59249eeb48ec10bc23efa07,-112.029048,33.654252,40136170001,4,True,False,-112.0179334,33.65875020000001,Other Miscellaneous Store Retailers
544,sg:813988009c8b4cd4aba3d5c4e70508ae,-112.011427,33.648523,40136170001,4,True,False,-112.0179334,33.65875020000001,Elementary and Secondary Schools
545,sg:4ba587d68dba41b7979c9409363ca27e,-112.117833,33.672594000000004,40136170001,5,True,True,-112.0179334,33.65875020000001,Depository Credit Intermediation
546,sg:a2c3a95d17dc4c0d804573269386272b,-112.016159,33.666902,40136170001,4,True,False,-112.0179334,33.65875020000001,Home Health Care Services
547,sg:ffb05562465340cdbe2ed663e799756b,-112.12028000000001,33.797571000000005,40136113002,4,True,False,-112.10902450000002,33.791736799999995,Restaurants and Other Eating Places
548,sg:7f367773a0744b9c8c3ad83157165036,-112.11841000000001,33.786202,40136113002,12,True,True,-112.10902450000002,33.791736799999995,Restaurants and Other Eating Places
549,sg:1a10a374bfd0470f80877dab325ecdb3,-112.08206299999999,33.687349,40136113002,4,True,False,-112.10902450000002,33.791736799999995,Support Activities for Air Transportation
550,sg:eb4c1408211f4440b73e9a24a3481c55,-112.124867,33.799451,40136113002,4,True,False,-112.10902450000002,33.791736799999995,Home Furnishings Stores
551,sg:5949aace29f442d4b9876b7afb7a70ee,-112.08806899999999,33.842959,40136113002,4,True,False,-112.10902450000002,33.791736799999995,"Justice, Public Order, and Safety Activities"
552,sg:2cf235db97f943a7934385b30c091545,-112.120562,33.797717,40136113002,9,True,True,-112.10902450000002,33.791736799999995,Lessors of Real Estate
553,sg:1ff789df0918442187785fcde3ad5a77,-112.116326,33.684247,40136113002,4,True,False,-112.10902450000002,33.791736799999995,Restaurants and Other Eating Places
554,sg:281fa0dc424e43f7abd7c0e2930c921e,-112.097959,33.713365,40136113002,4,True,False,-112.10902450000002,33.791736799999995,"Automotive Parts, Accessories, and Tire Stores"
555,sg:8f7480fa0b5646fd87cf7c8389e99233,-112.11144099999999,33.711214,40136113002,5,True,True,-112.10902450000002,33.791736799999995,Restaurants and Other Eating Places
556,sg:a31da0583e2d4cfba76cc3b79b02ba18,-111.97955,33.6255,40136113002,5,True,True,-112.10902450000002,33.791736799999995,Other Amusement and Recreation Industries
557,sg:571c23f8b878425ea18ddacb29bc12b2,-112.11756299999999,33.79742,40136113002,4,True,False,-112.10902450000002,33.791736799999995,Restaurants and Other Eating Places
558,sg:def9945b13d04e36abba3bf6b10b73f5,-112.120599,33.797568,40136113002,8,True,True,-112.10902450000002,33.791736799999995,Other Miscellaneous Store Retailers
559,sg:3a296277ec9341b092c24a3213b3d11e,-112.11828999999999,33.785815,40136113002,6,True,True,-112.10902450000002,33.791736799999995,Restaurants and Other Eating Places
560,sg:6bf7b7d2d76746f1a148f20c0a43ba33,-112.10471000000001,33.598214,40136113002,4,True,False,-112.10902450000002,33.791736799999995,Elementary and Secondary Schools
561,sg:097ce48d513941ce8e7a400c29e1fe39,-112.130243,33.513175,40131072011,4,True,False,-112.1284038,33.5128249,Restaurants and Other Eating Places
562,sg:8ad77198586148d28dd20fa6961cc02e,-112.130108,33.510404,40131072011,4,True,False,-112.1284038,33.5128249,Restaurants and Other Eating Places
563,sg:6b01e3bb313b4fbda68e0298575b1b1e,-112.12993600000001,33.514045,40131072011,24,True,True,-112.1284038,33.5128249,"Colleges, Universities, and Professional Schools"
564,sg:40454f7627ab45c9828133393bfebb61,-112.129976,33.513279,40131072011,8,True,True,-112.1284038,33.5128249,"Museums, Historical Sites, and Similar Institutions"
565,sg:9f68295cf33e4b7f835a25301cd33e31,-112.10726499999998,33.433757,40131072011,4,True,False,-112.1284038,33.5128249,Other Amusement and Recreation Industries
566,sg:a611c13307384e798554a15e0a094e5e,-112.130252,33.513265999999994,40131072011,4,True,False,-112.1284038,33.5128249,Restaurants and Other Eating Places
567,sg:e20c89e7e5b44621931fd33622b152ca,-112.130697,33.513338,40131072011,4,True,False,-112.1284038,33.5128249,Restaurants and Other Eating Places
568,sg:5b1777a0237b453c9f779ed7ca95215f,-112.127775,33.512423999999996,40131072011,10,True,True,-112.1284038,33.5128249,Restaurants and Other Eating Places
569,sg:e27f73a90c784cdc86043f26076992a4,-112.12879099999999,33.512423,40131072011,7,True,True,-112.1284038,33.5128249,Restaurants and Other Eating Places
570,sg:88cbc1cde9f342c78f11f13814a92494,-112.12244799999999,33.512778000000004,40131072011,12,True,True,-112.1284038,33.5128249,Restaurants and Other Eating Places
571,sg:0a5699f53c9742ea929b52be6cce0708,-111.978664,33.330849,40131167171,5,True,True,-111.97599479999998,33.3236415,"Sporting Goods, Hobby, and Musical Instrument Stores"
572,sg:8f6280f77ca34aaebf04234b81db9e3f,-112.13582099999999,33.465562,40131167171,4,True,False,-111.97599479999998,33.3236415,Automobile Dealers
573,sg:026ab385e29f40f2aca9d955858e9b2e,-111.985316,33.304695,40131167171,4,True,False,-111.97599479999998,33.3236415,Offices of Physicians
574,sg:734ad239970a4ff08742f671856e0568,-111.978224,33.320611,40131167171,16,True,True,-111.97599479999998,33.3236415,Lessors of Real Estate
575,sg:8613fcf7427e45dcad10c66dd8f137a7,-111.980075,33.326646999999994,40131167171,6,True,True,-111.97599479999998,33.3236415,Health and Personal Care Stores
576,sg:01a124b7d17946b8a75a298d324c1286,-111.978276,33.318045,40131167171,10,True,True,-111.97599479999998,33.3236415,Lessors of Real Estate
577,sg:70a241b8cdde4221b65fa7d828a4ad40,-111.97671000000001,33.320381,40131167171,7,True,True,-111.97599479999998,33.3236415,Restaurants and Other Eating Places
578,sg:b4a1c104266047eaaed57218b58c5710,-111.97911,33.330776,40131167171,36,True,True,-111.97599479999998,33.3236415,Lessors of Real Estate
579,sg:0270753148724a939cdee077c5d420da,-111.97746200000002,33.332378999999996,40131167171,5,True,True,-111.97599479999998,33.3236415,Restaurants and Other Eating Places
580,sg:e6f0631c7fa0467b9664dfb825b2de96,-111.98196599999999,33.347934,40131167171,4,True,False,-111.97599479999998,33.3236415,Health and Personal Care Stores
581,sg:81eabad287fd42f48f3e9c1fa7a4fe62,-111.979974,33.329376,40131167171,12,True,True,-111.97599479999998,33.3236415,Restaurants and Other Eating Places
582,sg:37d97ba3ef304f6aa032affb588a6d03,-111.97530400000001,33.320485999999995,40131167171,4,True,False,-111.97599479999998,33.3236415,Restaurants and Other Eating Places
583,sg:e34d81d4644d449194ef96276da05f19,-111.985906,33.375521,40131167171,4,True,False,-111.97599479999998,33.3236415,"Museums, Historical Sites, and Similar Institutions"
584,sg:8b830ecb161a4f38b037240f5a2aaff8,-111.978296,33.326978000000004,40131167171,9,True,True,-111.97599479999998,33.3236415,Waste Treatment and Disposal
585,sg:1d456f9558dc40d5934b5ef405ccc4b4,-111.97722900000001,33.334477,40131167171,4,True,False,-111.97599479999998,33.3236415,Grocery Stores
586,sg:123d7abc62394f7a9fc83fb799736154,-111.978334,33.323325,40131167171,13,True,True,-111.97599479999998,33.3236415,Depository Credit Intermediation
587,sg:e3a4d641c04a4916acc73cbc8043833c,-111.980198,33.331519,40131167171,5,True,True,-111.97599479999998,33.3236415,Grocery Stores
588,sg:941cddb7ef644b33ab7842ec7e68b89b,-111.98269599999999,33.33121,40131167171,4,True,False,-111.97599479999998,33.3236415,Restaurants and Other Eating Places
589,sg:1756d6414e5141098ecee36ed07ebd7a,-112.07453999999998,33.454287,40131123022,4,True,False,-112.16333519999999,33.476773699999995,Offices of Other Health Practitioners
590,sg:62782d3f7e5f4c169c530704fcc2e570,-112.118055,33.495293,40131123022,4,True,False,-112.16333519999999,33.476773699999995,Restaurants and Other Eating Places
591,sg:32338294cda1460baf452ba85faea0f7,-112.15225900000002,33.495971000000004,40131123022,6,True,True,-112.16333519999999,33.476773699999995,Restaurants and Other Eating Places
592,sg:750ba7662ce04d71a18521dd61b5cd7b,-112.162043,33.480059000000004,40131123022,4,True,False,-112.16333519999999,33.476773699999995,Lumber and Other Construction Materials Merchant Wholesalers
593,sg:5ac0d331cd064616bbde172868447363,-112.169357,33.480108,40131123022,4,True,False,-112.16333519999999,33.476773699999995,Gasoline Stations
594,sg:6ff238ad14094e5f93405d3e980c8690,-112.16197,33.480268,40131123022,6,True,True,-112.16333519999999,33.476773699999995,Offices of Dentists
595,sg:9598a20f353a4f5895c8d6b23b496c72,-112.049823,33.546448999999996,40131123022,4,True,False,-112.16333519999999,33.476773699999995,Home Health Care Services
596,sg:1e19467318344a9f90ac36d4aa653fe7,-112.134199,33.389390999999996,40131166121,4,True,False,-112.12932649999999,33.3848494,Restaurants and Other Eating Places
597,sg:311129d198df492e94ad110c9693c046,-112.02218500000001,33.378218,40131166121,4,True,False,-112.12932649999999,33.3848494,Grocery Stores
598,sg:983ecac920324e8abc5ad1ce1963d284,-112.075423,33.445232,40131166121,6,True,True,-112.12932649999999,33.3848494,Other Miscellaneous Store Retailers
599,sg:697ad8e6168944cfac7bac09d3d6efd7,-112.065351,33.490421000000005,40131166121,4,True,False,-112.12932649999999,33.3848494,Restaurants and Other Eating Places
600,sg:97999b30230f498b91a7b5f81d8ced41,-111.981974,33.403496000000004,40131166121,4,True,False,-112.12932649999999,33.3848494,Specialty Food Stores
601,sg:6781be7ef8344a57b0bdc5afd94667e4,-112.130475,33.392993,40131166121,4,True,False,-112.12932649999999,33.3848494,Other Amusement and Recreation Industries
602,sg:6b692f94808c4278ad113554a478414a,-112.101649,33.378414,40131166121,6,True,True,-112.12932649999999,33.3848494,Restaurants and Other Eating Places
603,sg:3630014d9c3a4940b1fec020b9637437,-112.11098600000001,33.480919,40136183001,5,False,True,-112.147479,33.6433573,Restaurants and Other Eating Places
604,sg:408ae80a5b8847abbe9fcd7ad8f3f704,-112.035643,33.508790000000005,40136183001,4,False,False,-112.147479,33.6433573,Restaurants and Other Eating Places
605,sg:8af115931eb5449ca6a05f432354779c,-112.133922,33.640021999999995,40136183001,9,False,True,-112.147479,33.6433573,Restaurants and Other Eating Places
606,sg:f30db13174364705834f950ca6f01f32,-112.16931799999999,33.70275,40136183001,4,False,False,-112.147479,33.6433573,"Accounting, Tax Preparation, Bookkeeping, and Payroll Services"
607,sg:371e315a7c8045a09aabab7622bd319d,-112.13541200000002,33.393671000000005,40131166131,8,True,True,-112.11210020000001,33.384986600000005,Lessors of Real Estate
608,sg:2e4401d68b5f422ba2bf614df58b4ff4,-112.07363500000001,33.396347,40131166131,4,True,False,-112.11210020000001,33.384986600000005,Restaurants and Other Eating Places
609,sg:01cc1ddf3dd54d0f83f3148aff0683d1,-112.113193,33.38839,40131166131,4,True,False,-112.11210020000001,33.384986600000005,Restaurants and Other Eating Places
610,sg:25df7d3eb8f9415681316a5409313354,-112.06496200000001,33.407057,40131166131,4,True,False,-112.11210020000001,33.384986600000005,Grocery Stores
611,sg:884d2d1ac1064297b1f101a6c1e1500b,-112.10888200000001,33.387744,40131166131,6,True,True,-112.11210020000001,33.384986600000005,Waste Treatment and Disposal
612,sg:281269b72f304a528e656b6d72fd7d91,-112.134179,33.391011999999996,40131166131,6,True,True,-112.11210020000001,33.384986600000005,Restaurants and Other Eating Places
613,sg:e566a2caa2d54f15a456e6f2a14a2844,-112.095964,33.391878999999996,40131166131,6,True,True,-112.11210020000001,33.384986600000005,"General Merchandise Stores, including Warehouse Clubs and Supercenters"
614,sg:b0db2d99a72f4d1e9536d5682e503fbe,-112.136556,33.392955,40131166131,4,True,False,-112.11210020000001,33.384986600000005,Other Amusement and Recreation Industries
615,sg:3995a5e920f94f9a81819cdef8c23a13,-112.043842,33.451825,40131166131,4,True,False,-112.11210020000001,33.384986600000005,Child Day Care Services
616,sg:2810450ef91741bf9422923536f0bb45,-112.07227900000001,33.458067,40131166131,4,True,False,-112.11210020000001,33.384986600000005,Health and Personal Care Stores
617,sg:2316749ccb2747dea058b391218c103f,-112.09983700000001,33.405213,40131166131,4,True,False,-112.11210020000001,33.384986600000005,Restaurants and Other Eating Places
618,sg:395897c930514b86bbab177967f33275,-112.057096,33.53792,40131166131,4,True,False,-112.11210020000001,33.384986600000005,Lessors of Real Estate
619,sg:ae1e970f496041cc913dbb993b34eb63,-112.03065,33.454387,40131166131,4,True,False,-112.11210020000001,33.384986600000005,Services to Buildings and Dwellings
620,sg:122d4ac88bee44ab85b7c365b906ece0,-112.08026799999999,33.447669,40131166131,6,True,True,-112.11210020000001,33.384986600000005,Clothing Stores
621,sg:3f4c8c059ebf47a995672746edace643,-112.030897,33.377248,40131166131,7,True,True,-112.11210020000001,33.384986600000005,Restaurants and Other Eating Places
622,sg:b318894a67f644a9aadf4c3b0a2b8168,-112.11436100000002,33.378278,40131166131,4,True,False,-112.11210020000001,33.384986600000005,Clothing Stores
623,sg:66de731429124feabbed33269c518ac6,-112.001585,33.406065000000005,40131166131,4,True,False,-112.11210020000001,33.384986600000005,Automotive Repair and Maintenance
624,sg:90ca5a38a32f4cafb1f103157d5b886d,-112.051441,33.508781,40131166131,4,True,False,-112.11210020000001,33.384986600000005,Automobile Dealers
625,sg:5f586ce9e91241e185df5851544971fa,-112.134701,33.392932,40131166131,4,True,False,-112.11210020000001,33.384986600000005,Specialty Food Stores
626,sg:2bd9e9c365e24d00aa4cbeb6e29d1951,-112.11783100000001,33.39097,40131166131,4,True,False,-112.11210020000001,33.384986600000005,Elementary and Secondary Schools
627,sg:51fd9ff3f4ed4008aafefe3d0e810fa3,-112.081978,33.42629,40131166131,4,True,False,-112.11210020000001,33.384986600000005,Building Material and Supplies Dealers
628,sg:3c046c8238ec4894bdae001e736593ac,-112.11403600000001,33.496379,40131090012,5,True,True,-112.11494180000001,33.4986146,Traveler Accommodation
629,sg:487217e8a9c14df2bdf58dfb453aa39c,-112.11816100000001,33.508897,40131090012,10,True,True,-112.11494180000001,33.4986146,"General Merchandise Stores, including Warehouse Clubs and Supercenters"
630,sg:75ba5d0094124c8e83c99b73ad781368,-112.11353000000001,33.497921000000005,40131090012,6,True,True,-112.11494180000001,33.4986146,Motor Vehicle and Motor Vehicle Parts and Supplies Merchant Wholesalers
631,sg:334c9d3e335940668ba815e910cc6422,-112.116514,33.501948,40131090012,5,True,True,-112.11494180000001,33.4986146,Gasoline Stations
632,sg:49d854a1f0ae4ed0a3710a127fa644c5,-112.028973,33.579569,40131090012,4,True,False,-112.11494180000001,33.4986146,Offices of Other Health Practitioners
633,sg:6b9cef9421df4be8a20cab15e7fb1fe0,-112.114449,33.494486,40131090012,32,True,True,-112.11494180000001,33.4986146,Used Merchandise Stores
634,sg:ae0085f568fa4fba8af09cf10ce1acfc,-112.09661100000001,33.448599,40131090012,4,True,False,-112.11494180000001,33.4986146,"Museums, Historical Sites, and Similar Institutions"
635,sg:1853bfb17dab411eaab3ea6ad0b0e57e,-112.100265,33.492971000000004,40131090012,6,True,True,-112.11494180000001,33.4986146,Gasoline Stations
636,sg:27614037667444c3bfee59bd2f48eafb,-112.11681999999999,33.498754,40131090012,18,True,True,-112.11494180000001,33.4986146,Specialty Food Stores
637,sg:4d839b5573214813a02e7ae26a20a0f8,-112.11536000000001,33.501605,40131090012,5,True,True,-112.11494180000001,33.4986146,Elementary and Secondary Schools
638,sg:71613772438e42268972f7651634c3c4,-112.11753999999999,33.494238,40131090012,5,True,True,-112.11494180000001,33.4986146,Other Miscellaneous Manufacturing
639,sg:f56a0f8035ac4c2f8e28497590f33860,-112.09756599999999,33.463409000000006,40131090012,6,True,True,-112.11494180000001,33.4986146,Restaurants and Other Eating Places
640,sg:316f66ed6bbf4578b71a7045f9549ff0,-112.02751599999999,33.640240000000006,40131090012,4,True,False,-112.11494180000001,33.4986146,Specialty Food Stores
641,sg:c3b3232151de4b7b869b59b355b9c89e,-112.132921,33.537183,40131090012,4,True,False,-112.11494180000001,33.4986146,Specialty Food Stores
642,sg:585085413ad145fca33de0c514b5ad90,-112.115606,33.49538,40131090012,5,True,True,-112.11494180000001,33.4986146,Drugs and Druggists' Sundries Merchant Wholesalers
643,sg:c846f46bceb544eabbb30b5f08ecd1dc,-112.230756,33.494021999999994,40131090012,4,True,False,-112.11494180000001,33.4986146,Child Day Care Services
644,sg:e97a92d0dda7411c99b7db7287f45b24,-111.975021,33.484149,40131090012,4,True,False,-112.11494180000001,33.4986146,Religious Organizations
645,sg:c931c48dbabd4803ad00e27a17fe5efa,-112.111976,33.487992999999996,40131090012,5,True,True,-112.11494180000001,33.4986146,Depository Credit Intermediation
646,sg:190b8bcb12664f8b8fcb70a1321955f1,-112.11666799999999,33.495436,40131090012,7,True,True,-112.11494180000001,33.4986146,Grocery Stores
